1777634876.005758 2097271BD911_$GPGGA,112756.00,5706.747762,N,00835.271188,E,1,11,0.4,5.2,M,44.0,M,,*61
1777634876.999975 2097271BD911_$GPGGA,112757.00,5706.747762,N,00835.271188,E,1,11,0.4,5.2,M,44.0,M,,*60
1777634878.005813 2097271BD911_$GPGGA,112758.00,5706.747761,N,00835.271189,E,1,11,0.4,5.2,M,44.0,M,,*6D
1777634879.005656 2097271BD911_$GPGGA,112759.00,5706.747761,N,00835.271190,E,1,11,0.4,5.2,M,44.0,M,,*64
1777634879.999581 2097271BD911_$GPGGA,112800.00,5706.747761,N,00835.271190,E,1,11,0.4,5.2,M,44.0,M,,*67
1777634881.006310 2097271BD911_$GPGGA,112801.00,5706.747761,N,00835.271189,E,1,11,0.4,5.2,M,44.0,M,,*6E
1777634882.005859 2097271BD911_$GPGGA,112802.00,5706.747760,N,00835.271189,E,1,11,0.4,5.2,M,44.0,M,,*6C
1777634883.006524 2097271BD911_$GPGGA,112803.00,5706.747760,N,00835.271189,E,1,11,0.4,5.2,M,44.0,M,,*6D
1777634884.000373 2097271BD911_$GPGGA,112804.00,5706.747759,N,00835.271189,E,1,11,0.4,5.2,M,44.0,M,,*60
1777634885.007172 2097271BD911_$GPGGA,112805.00,5706.747759,N,00835.271189,E,1,11,0.4,5.2,M,44.0,M,,*61
1777634886.007381 2097271BD911_$GPGGA,112806.00,5706.747758,N,00835.271189,E,1,11,0.4,5.2,M,44.0,M,,*63
1777634887.006224 2097271BD911_$GPGGA,112807.00,5706.747757,N,00835.271189,E,1,11,0.4,5.2,M,44.0,M,,*6D
1777634888.000229 2097271BD911_$GPGGA,112808.00,5706.747757,N,00835.271189,E,1,11,0.4,5.2,M,44.0,M,,*62
1777634889.000241 2097271BD911_$GPGGA,112809.00,5706.747756,N,00835.271190,E,1,11,0.4,5.2,M,44.0,M,,*6A
1777634890.006333 2097271BD911_$GPGGA,112810.00,5706.747755,N,00835.271190,E,1,11,0.4,5.2,M,44.0,M,,*61
1777634891.007291 2097271BD911_$GPGGA,112811.00,5706.747755,N,00835.271190,E,1,11,0.4,5.2,M,44.0,M,,*60
1777634892.000381 2097271BD911_$GPGGA,112812.00,5706.747754,N,00835.271189,E,1,11,0.4,5.2,M,44.0,M,,*6A
1777634893.006110 2097271BD911_$GPGGA,112813.00,5706.747754,N,00835.271190,E,1,11,0.4,5.2,M,44.0,M,,*63
1777634894.006416 2097271BD911_$GPGGA,112814.00,5706.747753,N,00835.271190,E,1,11,0.4,5.2,M,44.0,M,,*63
1777634895.001276 2097271BD911_$GPGGA,112815.00,5706.747752,N,00835.271189,E,1,11,0.4,5.2,M,44.0,M,,*6B
1777634895.999683 2097271BD911_$GPGGA,112816.00,5706.747752,N,00835.271190,E,1,11,0.4,5.2,M,44.0,M,,*60
1777634897.006265 2097271BD911_$GPGGA,112817.00,5706.747751,N,00835.271190,E,1,11,0.4,5.2,M,44.0,M,,*62
1777634898.006044 2097271BD911_$GPGGA,112818.00,5706.747750,N,00835.271190,E,1,11,0.4,5.2,M,44.0,M,,*6C
1777634899.000401 2097271BD911_$GPGGA,112819.00,5706.747749,N,00835.271191,E,1,11,0.4,5.2,M,44.0,M,,*64
1777634900.007000 2097271BD911_$GPGGA,112820.00,5706.747749,N,00835.271191,E,1,11,0.4,5.2,M,44.0,M,,*6E
1777634901.004477 2097271BD911_$GPGGA,112821.00,5706.747748,N,00835.271191,E,1,11,0.4,5.2,M,44.0,M,,*6E
1777634902.006904 2097271BD911_$GPGGA,112822.00,5706.747747,N,00835.271191,E,1,11,0.4,5.2,M,44.0,M,,*62
1777634903.001509 2097271BD911_$GPGGA,112823.00,5706.747746,N,00835.271191,E,1,11,0.4,5.2,M,44.0,M,,*62
1777634904.007149 2097271BD911_$GPGGA,112824.00,5706.747745,N,00835.271191,E,1,11,0.4,5.2,M,44.0,M,,*66
1777634905.006661 2097271BD911_$GPGGA,112825.00,5706.747745,N,00835.271191,E,1,11,0.4,5.2,M,44.0,M,,*67
1777634906.000949 2097271BD911_$GPGGA,112826.00,5706.747744,N,00835.271191,E,1,11,0.4,5.2,M,44.0,M,,*65
1777634907.001423 2097271BD911_$GPGGA,112827.00,5706.747743,N,00835.271190,E,1,11,0.4,5.2,M,44.0,M,,*62
1777634908.005651 2097271BD911_$GPGGA,112828.00,5706.747742,N,00835.271190,E,1,11,0.4,5.2,M,44.0,M,,*6C
1777634909.003512 2097271BD911_$GPGGA,112829.00,5706.747742,N,00835.271190,E,1,11,0.4,5.2,M,44.0,M,,*6D
1777634910.001630 2097271BD911_$GPGGA,112830.00,5706.747741,N,00835.271190,E,1,11,0.4,5.2,M,44.0,M,,*66
1777634911.006978 2097271BD911_$GPGGA,112831.00,5706.747740,N,00835.271190,E,1,11,0.4,5.2,M,44.0,M,,*66
1777634912.005773 2097271BD911_$GPGGA,112832.00,5706.747739,N,00835.271190,E,1,11,0.4,5.2,M,44.0,M,,*6B
1777634913.006996 2097271BD911_$GPGGA,112833.00,5706.747738,N,00835.271190,E,1,11,0.4,5.2,M,44.0,M,,*6B
1777634914.000564 2097271BD911_$GPGGA,112834.00,5706.747738,N,00835.271190,E,1,11,0.4,5.2,M,44.0,M,,*6C
1777634915.000276 2097271BD911_$GPGGA,112835.00,5706.747737,N,00835.271190,E,1,11,0.4,5.2,M,44.0,M,,*62
1777634916.005241 2097271BD911_$GPGGA,112836.00,5706.747736,N,00835.271190,E,1,11,0.4,5.2,M,44.0,M,,*60
1777634917.006630 2097271BD911_$GPGGA,112837.00,5706.747736,N,00835.271190,E,1,11,0.4,5.2,M,44.0,M,,*61
1777634917.997311 2097271BD911_$GPGGA,112838.00,5706.747735,N,00835.271190,E,1,11,0.4,5.2,M,44.0,M,,*6D
1777634919.006102 2097271BD911_$GPGGA,112839.00,5706.747734,N,00835.271190,E,1,11,0.4,5.2,M,44.0,M,,*6D
1777634920.006444 2097271BD911_$GPGGA,112840.00,5706.747733,N,00835.271190,E,1,11,0.4,5.2,M,44.0,M,,*64
1777634921.000885 2097271BD911_$GPGGA,112841.00,5706.747732,N,00835.271190,E,1,11,0.4,5.2,M,44.0,M,,*64
1777634922.006082 2097271BD911_$GPGGA,112842.00,5706.747731,N,00835.271190,E,1,11,0.4,5.2,M,44.0,M,,*64
1777634923.005463 2097271BD911_$GPGGA,112843.00,5706.747730,N,00835.271190,E,1,11,0.4,5.2,M,44.0,M,,*64
1777634924.007033 2097271BD911_$GPGGA,112844.00,5706.747729,N,00835.271190,E,1,11,0.4,5.2,M,44.0,M,,*6B
1777634925.001270 2097271BD911_$GPGGA,112845.00,5706.747728,N,00835.271190,E,1,11,0.4,5.2,M,44.0,M,,*6B
1777634926.000976 2097271BD911_$GPGGA,112846.00,5706.747727,N,00835.271190,E,1,11,0.4,5.2,M,44.0,M,,*67
1777634927.007916 2097271BD911_$GPGGA,112847.00,5706.747726,N,00835.271191,E,1,11,0.4,5.3,M,44.0,M,,*67
1777634928.007708 2097271BD911_$GPGGA,112848.00,5706.747725,N,00835.271192,E,1,11,0.4,5.3,M,44.0,M,,*68
1777634929.006488 2097271BD911_$GPGGA,112849.00,5706.747724,N,00835.271192,E,1,11,0.4,5.3,M,44.0,M,,*68
1777634930.007013 2097271BD911_$GPGGA,112850.00,5706.747723,N,00835.271192,E,1,11,0.4,5.3,M,44.0,M,,*67
1777634931.005627 2097271BD911_$GPGGA,112851.00,5706.747722,N,00835.271193,E,1,11,0.4,5.3,M,44.0,M,,*66
1777634932.003870 2097271BD911_$GPGGA,112852.00,5706.747722,N,00835.271193,E,1,11,0.4,5.3,M,44.0,M,,*65
1777634933.000558 2097271BD911_$GPGGA,112853.00,5706.747721,N,00835.271194,E,1,11,0.4,5.3,M,44.0,M,,*60
1777634934.006420 2097271BD911_$GPGGA,112854.00,5706.747720,N,00835.271194,E,1,11,0.4,5.3,M,44.0,M,,*66
1777634935.006470 2097271BD911_$GPGGA,112855.00,5706.747720,N,00835.271194,E,1,11,0.4,5.3,M,44.0,M,,*67
1777634936.001225 2097271BD911_$GPGGA,112856.00,5706.747719,N,00835.271194,E,1,11,0.4,5.3,M,44.0,M,,*6E
1777634937.006470 2097271BD911_$GPGGA,112857.00,5706.747718,N,00835.271194,E,1,11,0.4,5.3,M,44.0,M,,*6E
1777634938.006987 2097271BD911_$GPGGA,112858.00,5706.747718,N,00835.271195,E,1,11,0.4,5.3,M,44.0,M,,*60
1777634939.006781 2097271BD911_$GPGGA,112859.00,5706.747717,N,00835.271195,E,1,11,0.4,5.3,M,44.0,M,,*6E
1777634940.000699 2097271BD911_$GPGGA,112900.00,5706.747716,N,00835.271195,E,1,11,0.4,5.3,M,44.0,M,,*62
1777634940.999561 2097271BD911_$GPGGA,112901.00,5706.747716,N,00835.271196,E,1,11,0.4,5.3,M,44.0,M,,*60
1777634942.006865 2097271BD911_$GPGGA,112902.00,5706.747715,N,00835.271196,E,1,11,0.4,5.3,M,44.0,M,,*60
1777634943.006563 2097271BD911_$GPGGA,112903.00,5706.747714,N,00835.271197,E,1,11,0.4,5.3,M,44.0,M,,*61
1777634944.001256 2097271BD911_$GPGGA,112904.00,5706.747713,N,00835.271197,E,1,11,0.4,5.3,M,44.0,M,,*61
1777634945.006508 2097271BD911_$GPGGA,112905.00,5706.747712,N,00835.271198,E,1,11,0.4,5.3,M,44.0,M,,*6E
1777634946.005998 2097271BD911_$GPGGA,112906.00,5706.747711,N,00835.271198,E,1,11,0.4,5.3,M,44.0,M,,*6E
1777634947.007489 2097271BD911_$GPGGA,112907.00,5706.747710,N,00835.271199,E,1,10,0.4,5.3,M,44.0,M,,*6E
1777634948.000595 2097271BD911_$GPGGA,112908.00,5706.747709,N,00835.271199,E,1,10,0.4,5.3,M,44.0,M,,*69
1777634949.006386 2097271BD911_$GPGGA,112909.00,5706.747708,N,00835.271200,E,1,11,0.4,5.3,M,44.0,M,,*6B
1777634950.005727 2097271BD911_$GPGGA,112910.00,5706.747707,N,00835.271200,E,1,11,0.4,5.3,M,44.0,M,,*6C
1777634951.001072 2097271BD911_$GPGGA,112911.00,5706.747706,N,00835.271201,E,1,11,0.4,5.3,M,44.0,M,,*6D
1777634952.000644 2097271BD911_$GPGGA,112912.00,5706.747705,N,00835.271201,E,1,11,0.4,5.3,M,44.0,M,,*6D
1777634953.005647 2097271BD911_$GPGGA,112913.00,5706.747704,N,00835.271201,E,1,11,0.4,5.3,M,44.0,M,,*6D
1777634954.007147 2097271BD911_$GPGGA,112914.00,5706.747703,N,00835.271201,E,1,11,0.4,5.3,M,44.0,M,,*6D
1777634955.000808 2097271BD911_$GPGGA,112915.00,5706.747702,N,00835.271201,E,1,11,0.4,5.3,M,44.0,M,,*6D
1777634956.005676 2097271BD911_$GPGGA,112916.00,5706.747701,N,00835.271202,E,1,11,0.4,5.3,M,44.0,M,,*6E
1777634957.005330 2097271BD911_$GPGGA,112917.00,5706.747700,N,00835.271202,E,1,11,0.4,5.3,M,44.0,M,,*6E
1777634958.007069 2097271BD911_$GPGGA,112918.00,5706.747699,N,00835.271203,E,1,11,0.4,5.3,M,44.0,M,,*61
1777634959.000304 2097271BD911_$GPGGA,112919.00,5706.747698,N,00835.271203,E,1,11,0.4,5.3,M,44.0,M,,*61
1777634960.006694 2097271BD911_$GPGGA,112920.00,5706.747697,N,00835.271203,E,1,11,0.4,5.3,M,44.0,M,,*64
1777634961.006020 2097271BD911_$GPGGA,112921.00,5706.747696,N,00835.271203,E,1,11,0.4,5.3,M,44.0,M,,*64
1777634962.008003 2097271BD911_$GPGGA,112922.00,5706.747695,N,00835.271203,E,1,11,0.4,5.3,M,44.0,M,,*64
1777634963.001224 2097271BD911_$GPGGA,112923.00,5706.747694,N,00835.271203,E,1,11,0.4,5.3,M,44.0,M,,*64
1777634964.006055 2097271BD911_$GPGGA,112924.00,5706.747693,N,00835.271203,E,1,11,0.4,5.3,M,44.0,M,,*64
1777634965.007115 2097271BD911_$GPGGA,112925.00,5706.747692,N,00835.271203,E,1,11,0.4,5.3,M,44.0,M,,*64
1777634965.998971 2097271BD911_$GPGGA,112926.00,5706.747692,N,00835.271203,E,1,11,0.4,5.3,M,44.0,M,,*67
1777634967.001169 2097271BD911_$GPGGA,112927.00,5706.747691,N,00835.271203,E,1,11,0.4,5.3,M,44.0,M,,*65
1777634968.007057 2097271BD911_$GPGGA,112928.00,5706.747689,N,00835.271203,E,1,11,0.4,5.3,M,44.0,M,,*63
1777634969.007023 2097271BD911_$GPGGA,112929.00,5706.747688,N,00835.271204,E,1,11,0.4,5.3,M,44.0,M,,*64
1777634970.001040 2097271BD911_$GPGGA,112930.00,5706.747687,N,00835.271204,E,1,11,0.4,5.3,M,44.0,M,,*63
1777634971.015782 2097271BD911_$GPGGA,112931.00,5706.747686,N,00835.271204,E,1,11,0.4,5.3,M,44.0,M,,*63
1777634972.007102 2097271BD911_$GPGGA,112932.00,5706.747685,N,00835.271204,E,1,11,0.4,5.3,M,44.0,M,,*63
1777634973.006113 2097271BD911_$GPGGA,112933.00,5706.747684,N,00835.271204,E,1,11,0.4,5.3,M,44.0,M,,*63
1777634974.006235 2097271BD911_$GPGGA,112934.00,5706.747683,N,00835.271204,E,1,11,0.4,5.3,M,44.0,M,,*63
1777634975.005496 2097271BD911_$GPGGA,112935.00,5706.747682,N,00835.271204,E,1,11,0.4,5.3,M,44.0,M,,*63
1777634976.006479 2097271BD911_$GPGGA,112936.00,5706.747681,N,00835.271204,E,1,11,0.4,5.3,M,44.0,M,,*63
1777634977.007555 2097271BD911_$GPGGA,112937.00,5706.747680,N,00835.271204,E,1,11,0.4,5.3,M,44.0,M,,*63
1777634978.006916 2097271BD911_$GPGGA,112938.00,5706.747679,N,00835.271203,E,1,11,0.4,5.3,M,44.0,M,,*6D
1777634979.006535 2097271BD911_$GPGGA,112939.00,5706.747678,N,00835.271203,E,1,11,0.4,5.3,M,44.0,M,,*6D
1777634980.006551 2097271BD911_$GPGGA,112940.00,5706.747676,N,00835.271203,E,1,11,0.4,5.3,M,44.0,M,,*6D
1777634981.002218 2097271BD911_$GPGGA,112941.00,5706.747675,N,00835.271203,E,1,11,0.4,5.3,M,44.0,M,,*6F
1777634982.001279 2097271BD911_$GPGGA,112942.00,5706.747674,N,00835.271203,E,1,11,0.4,5.3,M,44.0,M,,*6D
1777634983.006700 2097271BD911_$GPGGA,112943.00,5706.747673,N,00835.271203,E,1,11,0.4,5.3,M,44.0,M,,*6B
1777634984.008136 2097271BD911_$GPGGA,112944.00,5706.747672,N,00835.271203,E,1,11,0.4,5.3,M,44.0,M,,*6D
1777634985.000312 2097271BD911_$GPGGA,112945.00,5706.747671,N,00835.271203,E,1,11,0.4,5.3,M,44.0,M,,*6F
1777634986.007984 2097271BD911_$GPGGA,112946.00,5706.747670,N,00835.271203,E,1,11,0.4,5.3,M,44.0,M,,*6D
1777634987.007239 2097271BD911_$GPGGA,112947.00,5706.747669,N,00835.271203,E,1,11,0.4,5.3,M,44.0,M,,*64
1777634988.006563 2097271BD911_$GPGGA,112948.00,5706.747668,N,00835.271203,E,1,11,0.4,5.3,M,44.0,M,,*6A
1777634989.006783 2097271BD911_$GPGGA,112949.00,5706.747667,N,00835.271203,E,1,11,0.4,5.3,M,44.0,M,,*64
1777634990.009484 2097271BD911_$GPGGA,112950.00,5706.747666,N,00835.271203,E,1,11,0.4,5.3,M,44.0,M,,*6D
1777634991.006664 2097271BD911_$GPGGA,112951.00,5706.747665,N,00835.271203,E,1,11,0.4,5.3,M,44.0,M,,*6F
1777634992.006851 2097271BD911_$GPGGA,112952.00,5706.747664,N,00835.271203,E,1,11,0.4,5.3,M,44.0,M,,*6D
1777634993.000623 2097271BD911_$GPGGA,112953.00,5706.747664,N,00835.271203,E,1,11,0.4,5.3,M,44.0,M,,*6C
1777634994.006883 2097271BD911_$GPGGA,112954.00,5706.747663,N,00835.271203,E,1,11,0.4,5.3,M,44.0,M,,*6C
1777634995.006866 2097271BD911_$GPGGA,112955.00,5706.747663,N,00835.271203,E,1,11,0.4,5.3,M,44.0,M,,*6D
1777634996.008407 2097271BD911_$GPGGA,112956.00,5706.747662,N,00835.271204,E,1,11,0.4,5.3,M,44.0,M,,*68
1777634997.000520 2097271BD911_$GPGGA,112957.00,5706.747661,N,00835.271204,E,1,11,0.4,5.3,M,44.0,M,,*6A
1777634998.006814 2097271BD911_$GPGGA,112958.00,5706.747660,N,00835.271204,E,1,11,0.4,5.3,M,44.0,M,,*64
1777634999.007212 2097271BD911_$GPGGA,112959.00,5706.747660,N,00835.271204,E,1,11,0.4,5.3,M,44.0,M,,*65
1777635000.001549 2097271BD911_$GPGGA,113000.00,5706.747659,N,00835.271205,E,1,11,0.4,5.3,M,44.0,M,,*6A
1777635001.001744 2097271BD911_$GPGGA,113001.00,5706.747658,N,00835.271205,E,1,11,0.4,5.3,M,44.0,M,,*6A
1777635002.007221 2097271BD911_$GPGGA,113002.00,5706.747658,N,00835.271205,E,1,11,0.4,5.3,M,44.0,M,,*69
1777635003.006891 2097271BD911_$GPGGA,113003.00,5706.747657,N,00835.271205,E,1,11,0.4,5.3,M,44.0,M,,*67
1777635004.001842 2097271BD911_$GPGGA,113004.00,5706.747656,N,00835.271205,E,1,11,0.4,5.3,M,44.0,M,,*61
1777635005.002748 2097271BD911_$GPGGA,113005.00,5706.747655,N,00835.271205,E,1,11,0.4,5.3,M,44.0,M,,*63
1777635006.007372 2097271BD911_$GPGGA,113006.00,5706.747627,N,00835.271230,E,1,11,0.4,5.4,M,44.0,M,,*64
1777635007.007900 2097271BD911_$GPGGA,113007.00,5706.747540,N,00835.271382,E,1,11,0.4,5.5,M,44.0,M,,*6E
1777635008.003028 2097271BD911_$GPGGA,113008.00,5706.747399,N,00835.271676,E,1,11,0.4,5.6,M,44.0,M,,*6E
1777635009.006189 2097271BD911_$GPGGA,113009.00,5706.747147,N,00835.272278,E,1,11,0.4,5.6,M,44.0,M,,*67
1777635010.006424 2097271BD911_$GPGGA,113010.00,5706.746771,N,00835.273548,E,1,11,0.4,5.6,M,44.0,M,,*68
1777635011.001076 2097271BD911_$GPGGA,113011.00,5706.746323,N,00835.275676,E,1,11,0.4,5.7,M,44.0,M,,*63
1777635012.000874 2097271BD911_$GPGGA,113012.00,5706.745952,N,00835.278397,E,1,11,0.4,5.8,M,44.0,M,,*67
1777635013.007494 2097271BD911_$GPGGA,113013.00,5706.745721,N,00835.281384,E,1,11,0.4,5.9,M,44.0,M,,*69
1777635014.008442 2097271BD911_$GPGGA,113014.00,5706.745592,N,00835.284413,E,1,11,0.4,6.0,M,44.0,M,,*62
1777635015.000869 2097271BD911_$GPGGA,113015.00,5706.745492,N,00835.287489,E,1,11,0.4,6.2,M,44.0,M,,*60
1777635016.006965 2097271BD911_$GPGGA,113016.00,5706.745363,N,00835.290606,E,1,11,0.4,6.2,M,44.0,M,,*69
1777635017.008564 2097271BD911_$GPGGA,113017.00,5706.745206,N,00835.293942,E,1,11,0.4,6.3,M,44.0,M,,*67
1777635018.007306 2097271BD911_$GPGGA,113018.00,5706.745035,N,00835.297827,E,1,11,0.4,6.4,M,44.0,M,,*6B
1777635019.001312 2097271BD911_$GPGGA,113019.00,5706.744866,N,00835.302205,E,1,11,0.4,6.5,M,44.0,M,,*63
1777635020.007074 2097271BD911_$GPGGA,113020.00,5706.744715,N,00835.306633,E,1,11,0.4,6.6,M,44.0,M,,*64
1777635021.006480 2097271BD911_$GPGGA,113021.00,5706.744597,N,00835.310621,E,1,11,0.4,6.6,M,44.0,M,,*69
1777635022.007399 2097271BD911_$GPGGA,113022.00,5706.744450,N,00835.314129,E,1,11,0.4,6.7,M,44.0,M,,*6A
1777635023.000412 2097271BD911_$GPGGA,113023.00,5706.744194,N,00835.317410,E,1,11,0.4,6.7,M,44.0,M,,*6A
1777635024.006880 2097271BD911_$GPGGA,113024.00,5706.743715,N,00835.320497,E,1,11,0.4,6.7,M,44.0,M,,*6E
1777635025.007006 2097271BD911_$GPGGA,113025.00,5706.742933,N,00835.323424,E,1,11,0.4,6.5,M,44.0,M,,*6D
1777635026.001984 2097271BD911_$GPGGA,113026.00,5706.741567,N,00835.326030,E,1,11,0.4,6.5,M,44.0,M,,*64
1777635027.007774 2097271BD911_$GPGGA,113027.00,5706.739507,N,00835.327978,E,1,11,0.4,6.5,M,44.0,M,,*68
1777635028.007665 2097271BD911_$GPGGA,113028.00,5706.735884,N,00835.326500,E,1,11,0.4,6.4,M,44.0,M,,*6E
1777635029.003845 2097271BD911_$GPGGA,113029.00,5706.732858,N,00835.326038,E,1,11,0.4,6.5,M,44.0,M,,*66
1777635030.003904 2097271BD911_$GPGGA,113030.00,5706.729499,N,00835.325395,E,1,11,0.4,6.6,M,44.0,M,,*61
1777635031.001187 2097271BD911_$GPGGA,113031.00,5706.726016,N,00835.324806,E,1,11,0.4,6.7,M,44.0,M,,*6D
1777635032.009175 2097271BD911_$GPGGA,113032.00,5706.722311,N,00835.324421,E,1,11,0.4,6.6,M,44.0,M,,*66
1777635033.006699 2097271BD911_$GPGGA,113033.00,5706.718391,N,00835.324182,E,1,11,0.4,6.6,M,44.0,M,,*6A
1777635034.001019 2097271BD911_$GPGGA,113034.00,5706.714344,N,00835.323691,E,1,11,0.4,6.5,M,44.0,M,,*68
1777635035.000817 2097271BD911_$GPGGA,113035.00,5706.710020,N,00835.323392,E,1,11,0.4,6.3,M,44.0,M,,*6C
1777635036.006617 2097271BD911_$GPGGA,113036.00,5706.705620,N,00835.323116,E,1,11,0.4,6.1,M,44.0,M,,*61
1777635037.007239 2097271BD911_$GPGGA,113037.00,5706.701020,N,00835.322888,E,1,11,0.4,6.0,M,44.0,M,,*6C
1777635038.000664 2097271BD911_$GPGGA,113038.00,5706.696281,N,00835.322899,E,1,11,0.4,6.0,M,44.0,M,,*65
1777635039.006846 2097271BD911_$GPGGA,113039.00,5706.691661,N,00835.322738,E,1,11,0.4,6.0,M,44.0,M,,*6D
1777635040.006443 2097271BD911_$GPGGA,113040.00,5706.687255,N,00835.322901,E,1,11,0.4,5.9,M,44.0,M,,*69
1777635041.007121 2097271BD911_$GPGGA,113041.00,5706.682806,N,00835.323017,E,1,11,0.4,5.9,M,44.0,M,,*6E
1777635042.006918 2097271BD911_$GPGGA,113042.00,5706.678496,N,00835.323201,E,1,11,0.4,6.0,M,44.0,M,,*62
1777635043.011858 2097271BD911_$GPGGA,113043.00,5706.674022,N,00835.323482,E,1,11,0.4,6.0,M,44.0,M,,*69
1777635044.010335 2097271BD911_$GPGGA,113044.00,5706.669630,N,00835.323726,E,1,11,0.4,5.9,M,44.0,M,,*60
1777635045.006438 2097271BD911_$GPGGA,113045.00,5706.665235,N,00835.323694,E,1,11,0.4,5.9,M,44.0,M,,*64
1777635046.002413 2097271BD911_$GPGGA,113046.00,5706.660747,N,00835.323616,E,1,11,0.4,6.0,M,44.0,M,,*62
1777635047.009287 2097271BD911_$GPGGA,113047.00,5706.656594,N,00835.323088,E,1,11,0.4,5.9,M,44.0,M,,*61
1777635048.007019 2097271BD911_$GPGGA,113048.00,5706.652384,N,00835.322186,E,1,11,0.4,5.8,M,44.0,M,,*62
1777635049.007101 2097271BD911_$GPGGA,113049.00,5706.648196,N,00835.320653,E,1,11,0.4,5.6,M,44.0,M,,*6A
1777635050.006707 2097271BD911_$GPGGA,113050.00,5706.644189,N,00835.319223,E,1,11,0.4,5.7,M,44.0,M,,*68
1777635051.011302 2097271BD911_$GPGGA,113051.00,5706.640315,N,00835.317806,E,1,11,0.4,5.6,M,44.0,M,,*68
1777635052.010581 2097271BD911_$GPGGA,113052.00,5706.636587,N,00835.316759,E,1,11,0.4,5.7,M,44.0,M,,*62
1777635053.005896 2097271BD911_$GPGGA,113053.00,5706.633056,N,00835.316014,E,1,11,0.4,5.8,M,44.0,M,,*6E
1777635054.010874 2097271BD911_$GPGGA,113054.00,5706.629957,N,00835.315578,E,1,11,0.4,5.7,M,44.0,M,,*69
1777635055.010845 2097271BD911_$GPGGA,113055.00,5706.626908,N,00835.315263,E,1,11,0.4,5.8,M,44.0,M,,*6F
1777635056.008343 2097271BD911_$GPGGA,113056.00,5706.623924,N,00835.314207,E,1,11,0.4,5.8,M,44.0,M,,*64
1777635057.005721 2097271BD911_$GPGGA,113057.00,5706.621136,N,00835.312147,E,1,11,0.4,5.6,M,44.0,M,,*63
1777635058.004801 2097271BD911_$GPGGA,113058.00,5706.618645,N,00835.308968,E,1,11,0.4,5.6,M,44.0,M,,*6B
1777635059.010308 2097271BD911_$GPGGA,113059.00,5706.616699,N,00835.304367,E,1,11,0.4,5.6,M,44.0,M,,*6C
1777635060.010638 2097271BD911_$GPGGA,113100.00,5706.615183,N,00835.299013,E,1,11,0.4,5.7,M,44.0,M,,*6A
1777635061.006164 2097271BD911_$GPGGA,113101.00,5706.613975,N,00835.292924,E,1,11,0.4,5.8,M,44.0,M,,*65
1777635062.008871 2097271BD911_$GPGGA,113102.00,5706.612969,N,00835.286027,E,1,11,0.4,5.8,M,44.0,M,,*65
1777635063.009051 2097271BD911_$GPGGA,113103.00,5706.612080,N,00835.278539,E,1,11,0.4,6.0,M,44.0,M,,*6A
1777635064.011626 2097271BD911_$GPGGA,113104.00,5706.611306,N,00835.270565,E,1,11,0.4,6.0,M,44.0,M,,*62
1777635065.008676 2097271BD911_$GPGGA,113105.00,5706.610376,N,00835.262448,E,1,11,0.4,6.0,M,44.0,M,,*68
1777635066.008498 2097271BD911_$GPGGA,113106.00,5706.609460,N,00835.254324,E,1,11,0.4,6.2,M,44.0,M,,*69
1777635067.007868 2097271BD911_$GPGGA,113107.00,5706.608370,N,00835.245922,E,1,11,0.4,6.2,M,44.0,M,,*63
1777635068.008089 2097271BD911_$GPGGA,113108.00,5706.607196,N,00835.237518,E,1,11,0.4,6.2,M,44.0,M,,*69
1777635069.011246 2097271BD911_$GPGGA,113109.00,5706.605882,N,00835.229073,E,1,11,0.4,6.2,M,44.0,M,,*61
1777635070.012422 2097271BD911_$GPGGA,113110.00,5706.604404,N,00835.220534,E,1,11,0.4,6.2,M,44.0,M,,*65
1777635071.011580 2097271BD911_$GPGGA,113111.00,5706.602950,N,00835.211923,E,1,11,0.4,6.3,M,44.0,M,,*67
1777635072.010837 2097271BD911_$GPGGA,113112.00,5706.601336,N,00835.202998,E,1,11,0.4,6.4,M,44.0,M,,*68
1777635073.009100 2097271BD911_$GPGGA,113113.00,5706.599720,N,00835.194535,E,1,11,0.4,6.5,M,44.0,M,,*6E
1777635074.004430 2097271BD911_$GPGGA,113114.00,5706.597953,N,00835.186111,E,1,11,0.4,6.5,M,44.0,M,,*6C
1777635074.999388 2097271BD911_$GPGGA,113115.00,5706.596344,N,00835.177866,E,1,11,0.4,6.6,M,44.0,M,,*64
1777635076.007214 2097271BD911_$GPGGA,113116.00,5706.594592,N,00835.169821,E,1,11,0.4,6.5,M,44.0,M,,*67
1777635077.006495 2097271BD911_$GPGGA,113117.00,5706.592770,N,00835.161914,E,1,11,0.4,6.5,M,44.0,M,,*61
1777635078.000660 2097271BD911_$GPGGA,113118.00,5706.590930,N,00835.154096,E,1,11,0.4,6.2,M,44.0,M,,*64
1777635079.006954 2097271BD911_$GPGGA,113119.00,5706.589031,N,00835.146110,E,1,11,0.4,6.1,M,44.0,M,,*6A
1777635080.006400 2097271BD911_$GPGGA,113120.00,5706.586895,N,00835.138404,E,1,11,0.4,5.9,M,44.0,M,,*6B
1777635081.002500 2097271BD911_$GPGGA,113121.00,5706.584610,N,00835.130555,E,1,11,0.4,5.9,M,44.0,M,,*66
1777635082.006306 2097271BD911_$GPGGA,113122.00,5706.582339,N,00835.122812,E,1,11,0.4,5.9,M,44.0,M,,*60
1777635083.006089 2097271BD911_$GPGGA,113123.00,5706.580120,N,00835.115201,E,1,11,0.4,6.2,M,44.0,M,,*6D
1777635084.005177 2097271BD911_$GPGGA,113124.00,5706.577851,N,00835.107868,E,1,11,0.4,5.9,M,44.0,M,,*63
1777635085.000745 2097271BD911_$GPGGA,113125.00,5706.575379,N,00835.100446,E,1,11,0.4,6.1,M,44.0,M,,*6D
1777635086.001526 2097271BD911_$GPGGA,113126.00,5706.572827,N,00835.093028,E,1,11,0.4,6.2,M,44.0,M,,*6D
1777635087.005367 2097271BD911_$GPGGA,113127.00,5706.570210,N,00835.085696,E,1,11,0.4,6.2,M,44.0,M,,*64
1777635088.006920 2097271BD911_$GPGGA,113128.00,5706.567458,N,00835.078359,E,1,11,0.4,6.1,M,44.0,M,,*60
1777635089.005247 2097271BD911_$GPGGA,113129.00,5706.564660,N,00835.071401,E,1,11,0.4,6.2,M,44.0,M,,*6B
1777635090.006687 2097271BD911_$GPGGA,113130.00,5706.561788,N,00835.064287,E,1,11,0.4,6.4,M,44.0,M,,*6B
1777635091.007158 2097271BD911_$GPGGA,113131.00,5706.558870,N,00835.057666,E,1,11,0.4,6.5,M,44.0,M,,*62
1777635092.005657 2097271BD911_$GPGGA,113132.00,5706.555959,N,00835.050954,E,1,11,0.4,6.8,M,44.0,M,,*62
1777635093.000393 2097271BD911_$GPGGA,113133.00,5706.552853,N,00835.044098,E,1,11,0.4,6.9,M,44.0,M,,*62
1777635094.006751 2097271BD911_$GPGGA,113134.00,5706.549687,N,00835.037397,E,1,11,0.4,7.1,M,44.0,M,,*69
1777635095.006312 2097271BD911_$GPGGA,113135.00,5706.546580,N,00835.030728,E,1,11,0.4,7.3,M,44.0,M,,*66
1777635096.000279 2097271BD911_$GPGGA,113136.00,5706.543389,N,00835.024365,E,1,11,0.4,7.5,M,44.0,M,,*61
1777635097.006273 2097271BD911_$GPGGA,113137.00,5706.540044,N,00835.018177,E,1,11,0.4,7.6,M,44.0,M,,*6C
1777635098.006866 2097271BD911_$GPGGA,113138.00,5706.536665,N,00835.012006,E,1,11,0.4,7.5,M,44.0,M,,*69
1777635099.006207 2097271BD911_$GPGGA,113139.00,5706.533077,N,00835.005893,E,1,11,0.4,7.5,M,44.0,M,,*6A
1777635100.000151 2097271BD911_$GPGGA,113140.00,5706.529611,N,00834.999758,E,1,11,0.4,7.2,M,44.0,M,,*6B
1777635101.006706 2097271BD911_$GPGGA,113141.00,5706.526081,N,00834.993866,E,1,11,0.4,7.2,M,44.0,M,,*62
1777635102.004145 2097271BD911_$GPGGA,113142.00,5706.522552,N,00834.988251,E,1,11,0.4,7.0,M,44.0,M,,*68
1777635103.006569 2097271BD911_$GPGGA,113143.00,5706.518854,N,00834.982589,E,1,11,0.4,6.8,M,44.0,M,,*6A
1777635104.000990 2097271BD911_$GPGGA,113144.00,5706.515405,N,00834.977147,E,1,11,0.4,6.8,M,44.0,M,,*64
1777635105.000373 2097271BD911_$GPGGA,113145.00,5706.511767,N,00834.971810,E,1,11,0.4,6.9,M,44.0,M,,*6A
1777635106.006298 2097271BD911_$GPGGA,113146.00,5706.508166,N,00834.966523,E,1,11,0.4,6.9,M,44.0,M,,*6D
1777635106.998090 2097271BD911_$GPGGA,113147.00,5706.504514,N,00834.961413,E,1,11,0.4,7.0,M,44.0,M,,*6C
1777635108.001439 2097271BD911_$GPGGA,113148.00,5706.500803,N,00834.956418,E,1,11,0.4,7.0,M,44.0,M,,*63
1777635109.004954 2097271BD911_$GPGGA,113149.00,5706.496904,N,00834.951608,E,1,11,0.4,7.2,M,44.0,M,,*6C
1777635110.007279 2097271BD911_$GPGGA,113150.00,5706.493005,N,00834.946844,E,1,11,0.4,7.3,M,44.0,M,,*68
1777635111.000640 2097271BD911_$GPGGA,113151.00,5706.489017,N,00834.942388,E,1,11,0.4,7.4,M,44.0,M,,*69
1777635112.010273 2097271BD911_$GPGGA,113152.00,5706.485134,N,00834.937865,E,1,11,0.4,7.4,M,44.0,M,,*6C
1777635113.007422 2097271BD911_$GPGGA,113153.00,5706.481239,N,00834.933334,E,1,11,0.4,7.5,M,44.0,M,,*6D
1777635114.006890 2097271BD911_$GPGGA,113154.00,5706.477473,N,00834.929043,E,1,11,0.4,7.4,M,44.0,M,,*62
1777635115.000406 2097271BD911_$GPGGA,113155.00,5706.473798,N,00834.924888,E,1,11,0.4,7.5,M,44.0,M,,*62
1777635116.006955 2097271BD911_$GPGGA,113156.00,5706.470221,N,00834.920893,E,1,11,0.4,7.6,M,44.0,M,,*68
1777635117.006774 2097271BD911_$GPGGA,113157.00,5706.466585,N,00834.916864,E,1,11,0.4,7.7,M,44.0,M,,*6B
1777635118.007614 2097271BD911_$GPGGA,113158.00,5706.462914,N,00834.912754,E,1,11,0.4,7.8,M,44.0,M,,*63
1777635119.000573 2097271BD911_$GPGGA,113159.00,5706.459174,N,00834.908801,E,1,11,0.4,7.8,M,44.0,M,,*60
1777635120.006234 2097271BD911_$GPGGA,113200.00,5706.455532,N,00834.904674,E,1,11,0.4,7.9,M,44.0,M,,*64
1777635121.007054 2097271BD911_$GPGGA,113201.00,5706.451920,N,00834.900744,E,1,11,0.4,8.0,M,44.0,M,,*6E
1777635122.007503 2097271BD911_$GPGGA,113202.00,5706.448294,N,00834.896789,E,1,11,0.4,8.0,M,44.0,M,,*6E
1777635123.000334 2097271BD911_$GPGGA,113203.00,5706.444771,N,00834.892946,E,1,11,0.4,8.0,M,44.0,M,,*64
1777635124.006143 2097271BD911_$GPGGA,113204.00,5706.441142,N,00834.888942,E,1,11,0.4,7.9,M,44.0,M,,*69
1777635125.004811 2097271BD911_$GPGGA,113205.00,5706.437574,N,00834.884898,E,1,11,0.4,8.1,M,44.0,M,,*65
1777635126.005205 2097271BD911_$GPGGA,113206.00,5706.433990,N,00834.880984,E,1,11,0.4,8.2,M,44.0,M,,*6F
1777635127.007475 2097271BD911_$GPGGA,113207.00,5706.430419,N,00834.877080,E,1,11,0.4,8.3,M,44.0,M,,*65
1777635128.007157 2097271BD911_$GPGGA,113208.00,5706.426801,N,00834.873104,E,1,11,0.4,8.3,M,44.0,M,,*61
1777635129.007106 2097271BD911_$GPGGA,113209.00,5706.423262,N,00834.868929,E,1,11,0.4,8.3,M,44.0,M,,*67
1777635130.001296 2097271BD911_$GPGGA,113210.00,5706.419696,N,00834.864984,E,1,11,0.4,8.3,M,44.0,M,,*62
1777635131.007525 2097271BD911_$GPGGA,113211.00,5706.416060,N,00834.861054,E,1,11,0.4,8.4,M,44.0,M,,*65
1777635132.007382 2097271BD911_$GPGGA,113212.00,5706.412487,N,00834.857080,E,1,11,0.4,8.3,M,44.0,M,,*64
1777635133.007802 2097271BD911_$GPGGA,113213.00,5706.408873,N,00834.853123,E,1,11,0.4,8.2,M,44.0,M,,*64
1777635134.005488 2097271BD911_$GPGGA,113214.00,5706.405264,N,00834.849206,E,1,11,0.4,8.1,M,44.0,M,,*6E
1777635135.007091 2097271BD911_$GPGGA,113215.00,5706.401623,N,00834.845171,E,1,11,0.4,7.8,M,44.0,M,,*65
1777635136.007627 2097271BD911_$GPGGA,113216.00,5706.398087,N,00834.841252,E,1,11,0.4,8.0,M,44.0,M,,*68
1777635137.007290 2097271BD911_$GPGGA,113217.00,5706.394666,N,00834.837384,E,1,11,0.4,8.0,M,44.0,M,,*67
1777635138.005990 2097271BD911_$GPGGA,113218.00,5706.391036,N,00834.833448,E,1,11,0.4,7.9,M,44.0,M,,*6B
1777635139.007342 2097271BD911_$GPGGA,113219.00,5706.387400,N,00834.829539,E,1,11,0.4,7.8,M,44.0,M,,*61
1777635140.005460 2097271BD911_$GPGGA,113220.00,5706.383732,N,00834.825567,E,1,11,0.4,8.0,M,44.0,M,,*6D
1777635141.001091 2097271BD911_$GPGGA,113221.00,5706.380063,N,00834.821626,E,1,11,0.4,8.0,M,44.0,M,,*6E
1777635142.001395 2097271BD911_$GPGGA,113222.00,5706.376402,N,00834.817660,E,1,11,0.4,8.1,M,44.0,M,,*61
1777635143.005280 2097271BD911_$GPGGA,113223.00,5706.372674,N,00834.813432,E,1,11,0.4,8.2,M,44.0,M,,*65
1777635144.006621 2097271BD911_$GPGGA,113224.00,5706.368901,N,00834.809302,E,1,11,0.4,8.3,M,44.0,M,,*6A
1777635145.006902 2097271BD911_$GPGGA,113225.00,5706.365165,N,00834.805251,E,1,11,0.4,8.3,M,44.0,M,,*67
1777635146.001371 2097271BD911_$GPGGA,113226.00,5706.361465,N,00834.801302,E,1,11,0.4,8.2,M,44.0,M,,*67
1777635147.007107 2097271BD911_$GPGGA,113227.00,5706.357692,N,00834.797165,E,1,11,0.4,8.2,M,44.0,M,,*6A
1777635148.006669 2097271BD911_$GPGGA,113228.00,5706.353982,N,00834.793104,E,1,11,0.4,8.2,M,44.0,M,,*6C
1777635149.001181 2097271BD911_$GPGGA,113229.00,5706.350340,N,00834.789224,E,1,11,0.4,8.1,M,44.0,M,,*63
1777635150.004136 2097271BD911_$GPGGA,113230.00,5706.346697,N,00834.785241,E,1,11,0.4,8.2,M,44.0,M,,*6F
1777635151.008303 2097271BD911_$GPGGA,113231.00,5706.343103,N,00834.781264,E,1,11,0.4,8.2,M,44.0,M,,*62
1777635152.006811 2097271BD911_$GPGGA,113232.00,5706.339515,N,00834.777373,E,1,11,0.4,8.3,M,44.0,M,,*60
1777635153.000524 2097271BD911_$GPGGA,113233.00,5706.335996,N,00834.773420,E,1,11,0.4,8.4,M,44.0,M,,*68
1777635154.007076 2097271BD911_$GPGGA,113234.00,5706.332291,N,00834.769481,E,1,11,0.4,8.3,M,44.0,M,,*63
1777635155.007155 2097271BD911_$GPGGA,113235.00,5706.328675,N,00834.765553,E,1,11,0.4,8.5,M,44.0,M,,*63
1777635156.001384 2097271BD911_$GPGGA,113236.00,5706.325209,N,00834.761557,E,1,11,0.4,8.6,M,44.0,M,,*61
1777635157.007920 2097271BD911_$GPGGA,113237.00,5706.321732,N,00834.757533,E,1,11,0.4,8.6,M,44.0,M,,*6E
1777635158.006882 2097271BD911_$GPGGA,113238.00,5706.318115,N,00834.753643,E,1,11,0.4,8.6,M,44.0,M,,*68
1777635159.007224 2097271BD911_$GPGGA,113239.00,5706.314652,N,00834.749651,E,1,11,0.4,8.8,M,44.0,M,,*67
1777635160.001750 2097271BD911_$GPGGA,113240.00,5706.311063,N,00834.745704,E,1,11,0.4,8.9,M,44.0,M,,*64
1777635161.007694 2097271BD911_$GPGGA,113241.00,5706.307490,N,00834.741815,E,1,11,0.4,9.0,M,44.0,M,,*69
1777635162.005029 2097271BD911_$GPGGA,113242.00,5706.303864,N,00834.737896,E,1,11,0.4,9.1,M,44.0,M,,*62
1777635163.007140 2097271BD911_$GPGGA,113243.00,5706.300230,N,00834.734029,E,1,11,0.4,9.2,M,44.0,M,,*67
1777635164.001059 2097271BD911_$GPGGA,113244.00,5706.296700,N,00834.730151,E,1,11,0.4,9.2,M,44.0,M,,*62
1777635165.006413 2097271BD911_$GPGGA,113245.00,5706.293193,N,00834.726349,E,1,11,0.4,9.3,M,44.0,M,,*67
1777635166.006063 2097271BD911_$GPGGA,113246.00,5706.289664,N,00834.722482,E,1,11,0.4,9.3,M,44.0,M,,*64
1777635167.006699 2097271BD911_$GPGGA,113247.00,5706.286165,N,00834.718648,E,1,11,0.4,9.2,M,44.0,M,,*60
1777635168.000398 2097271BD911_$GPGGA,113248.00,5706.282672,N,00834.714811,E,1,11,0.4,9.4,M,44.0,M,,*62
1777635169.007737 2097271BD911_$GPGGA,113249.00,5706.279191,N,00834.710859,E,1,11,0.4,9.2,M,44.0,M,,*63
1777635170.007062 2097271BD911_$GPGGA,113250.00,5706.275543,N,00834.706907,E,1,11,0.4,9.4,M,44.0,M,,*67
1777635171.000714 2097271BD911_$GPGGA,113251.00,5706.271904,N,00834.702860,E,1,11,0.4,9.4,M,44.0,M,,*69
1777635172.000874 2097271BD911_$GPGGA,113252.00,5706.268246,N,00834.698840,E,1,11,0.4,9.4,M,44.0,M,,*6F
1777635173.007414 2097271BD911_$GPGGA,113253.00,5706.264628,N,00834.694807,E,1,11,0.4,9.3,M,44.0,M,,*66
1777635174.006635 2097271BD911_$GPGGA,113254.00,5706.260938,N,00834.690840,E,1,11,0.4,9.6,M,44.0,M,,*69
1777635175.007156 2097271BD911_$GPGGA,113255.00,5706.257297,N,00834.686717,E,1,11,0.4,9.4,M,44.0,M,,*6A
1777635176.006904 2097271BD911_$GPGGA,113256.00,5706.253546,N,00834.682622,E,1,11,0.4,9.3,M,44.0,M,,*62
1777635177.006447 2097271BD911_$GPGGA,113257.00,5706.249883,N,00834.678600,E,1,11,0.4,9.3,M,44.0,M,,*69
1777635178.005617 2097271BD911_$GPGGA,113258.00,5706.246156,N,00834.674554,E,1,11,0.4,9.2,M,44.0,M,,*67
1777635179.001301 2097271BD911_$GPGGA,113259.00,5706.242541,N,00834.670415,E,1,11,0.4,9.4,M,44.0,M,,*66
1777635180.000758 2097271BD911_$GPGGA,113300.00,5706.238792,N,00834.666306,E,1,11,0.4,9.4,M,44.0,M,,*68
1777635181.006871 2097271BD911_$GPGGA,113301.00,5706.235226,N,00834.662390,E,1,11,0.4,9.3,M,44.0,M,,*62
1777635182.006384 2097271BD911_$GPGGA,113302.00,5706.231505,N,00834.658258,E,1,11,0.4,9.3,M,44.0,M,,*6F
1777635183.001436 2097271BD911_$GPGGA,113303.00,5706.227950,N,00834.654266,E,1,11,0.4,9.4,M,44.0,M,,*63
1777635184.001511 2097271BD911_$GPGGA,113304.00,5706.224238,N,00834.650367,E,1,11,0.4,9.2,M,44.0,M,,*60
1777635185.007483 2097271BD911_$GPGGA,113305.00,5706.220535,N,00834.646373,E,1,11,0.4,9.3,M,44.0,M,,*6C
1777635186.006255 2097271BD911_$GPGGA,113306.00,5706.217013,N,00834.642309,E,1,11,0.4,9.3,M,44.0,M,,*63
1777635187.000991 2097271BD911_$GPGGA,113307.00,5706.213398,N,00834.638273,E,1,11,0.4,9.4,M,44.0,M,,*60
1777635188.007803 2097271BD911_$GPGGA,113308.00,5706.209831,N,00834.634445,E,1,11,0.4,9.4,M,44.0,M,,*63
1777635189.005586 2097271BD911_$GPGGA,113309.00,5706.206162,N,00834.630478,E,1,11,0.4,9.4,M,44.0,M,,*68
1777635190.000588 2097271BD911_$GPGGA,113310.00,5706.202706,N,00834.626569,E,1,11,0.4,9.6,M,44.0,M,,*64
1777635191.001101 2097271BD911_$GPGGA,113311.00,5706.199242,N,00834.622707,E,1,11,0.4,9.6,M,44.0,M,,*6F
1777635192.006932 2097271BD911_$GPGGA,113312.00,5706.195716,N,00834.618863,E,1,11,0.4,9.6,M,44.0,M,,*60
1777635193.007467 2097271BD911_$GPGGA,113313.00,5706.192209,N,00834.614980,E,1,11,0.4,9.7,M,44.0,M,,*6C
1777635194.000759 2097271BD911_$GPGGA,113314.00,5706.188685,N,00834.610990,E,1,11,0.4,9.8,M,44.0,M,,*6A
1777635195.005720 2097271BD911_$GPGGA,113315.00,5706.185297,N,00834.607100,E,1,11,0.4,9.9,M,44.0,M,,*67
1777635196.007671 2097271BD911_$GPGGA,113316.00,5706.181714,N,00834.603226,E,1,11,0.4,9.7,M,44.0,M,,*63
1777635197.006923 2097271BD911_$GPGGA,113317.00,5706.178292,N,00834.599281,E,1,11,0.4,9.8,M,44.0,M,,*6D
1777635198.000427 2097271BD911_$GPGGA,113318.00,5706.174726,N,00834.595319,E,1,11,0.4,9.7,M,44.0,M,,*67
1777635199.006395 2097271BD911_$GPGGA,113319.00,5706.171105,N,00834.591417,E,1,11,0.4,9.6,M,44.0,M,,*68
1777635200.007748 2097271BD911_$GPGGA,113320.00,5706.167525,N,00834.587617,E,1,11,0.4,9.6,M,44.0,M,,*66
1777635201.006501 2097271BD911_$GPGGA,113321.00,5706.163988,N,00834.583638,E,1,11,0.4,9.6,M,44.0,M,,*61
1777635202.001400 2097271BD911_$GPGGA,113322.00,5706.160419,N,00834.579664,E,1,11,0.4,9.7,M,44.0,M,,*69
1777635203.007247 2097271BD911_$GPGGA,113323.00,5706.156838,N,00834.575736,E,1,11,0.4,9.5,M,44.0,M,,*6A
1777635204.006859 2097271BD911_$GPGGA,113324.00,5706.153182,N,00834.571717,E,1,11,0.4,9.5,M,44.0,M,,*67
1777635205.001776 2097271BD911_$GPGGA,113325.00,5706.149425,N,00834.567786,E,1,11,0.4,9.5,M,44.0,M,,*6A
1777635206.006931 2097271BD911_$GPGGA,113326.00,5706.145725,N,00834.563709,E,1,11,0.4,9.3,M,44.0,M,,*63
1777635207.007285 2097271BD911_$GPGGA,113327.00,5706.142015,N,00834.559585,E,1,11,0.4,9.3,M,44.0,M,,*6E
1777635208.007308 2097271BD911_$GPGGA,113328.00,5706.138207,N,00834.555421,E,1,11,0.4,9.1,M,44.0,M,,*6C
1777635209.000864 2097271BD911_$GPGGA,113329.00,5706.134417,N,00834.551219,E,1,11,0.4,9.1,M,44.0,M,,*6F
1777635210.007366 2097271BD911_$GPGGA,113330.00,5706.130702,N,00834.547023,E,1,11,0.4,9.2,M,44.0,M,,*6B
1777635211.007794 2097271BD911_$GPGGA,113331.00,5706.127037,N,00834.543069,E,1,11,0.4,9.3,M,44.0,M,,*66
1777635212.007521 2097271BD911_$GPGGA,113332.00,5706.123371,N,00834.539017,E,1,11,0.4,9.5,M,44.0,M,,*62
1777635213.000745 2097271BD911_$GPGGA,113333.00,5706.119650,N,00834.535018,E,1,11,0.4,9.5,M,44.0,M,,*6F
1777635214.000977 2097271BD911_$GPGGA,113334.00,5706.115854,N,00834.531062,E,1,11,0.4,9.5,M,44.0,M,,*67
1777635215.007994 2097271BD911_$GPGGA,113335.00,5706.112176,N,00834.526986,E,1,11,0.4,9.3,M,44.0,M,,*6B
1777635216.007240 2097271BD911_$GPGGA,113336.00,5706.108515,N,00834.522983,E,1,11,0.4,9.1,M,44.0,M,,*61
1777635217.007109 2097271BD911_$GPGGA,113337.00,5706.104829,N,00834.518934,E,1,11,0.4,9.2,M,44.0,M,,*68
1777635218.007626 2097271BD911_$GPGGA,113338.00,5706.101093,N,00834.514880,E,1,11,0.4,9.4,M,44.0,M,,*6F
1777635219.007378 2097271BD911_$GPGGA,113339.00,5706.097383,N,00834.510734,E,1,11,0.4,9.3,M,44.0,M,,*61
1777635220.001658 2097271BD911_$GPGGA,113340.00,5706.093594,N,00834.506502,E,1,11,0.4,9.2,M,44.0,M,,*6A
1777635221.001502 2097271BD911_$GPGGA,113341.00,5706.089751,N,00834.502287,E,1,11,0.4,9.3,M,44.0,M,,*64
1777635222.006521 2097271BD911_$GPGGA,113342.00,5706.085945,N,00834.497998,E,1,11,0.4,9.1,M,44.0,M,,*6A
1777635223.005600 2097271BD911_$GPGGA,113343.00,5706.082091,N,00834.493907,E,1,11,0.4,9.1,M,44.0,M,,*6E
1777635224.001427 2097271BD911_$GPGGA,113344.00,5706.078322,N,00834.489722,E,1,11,0.4,9.2,M,44.0,M,,*66
1777635225.006839 2097271BD911_$GPGGA,113345.00,5706.074343,N,00834.485561,E,1,11,0.4,9.3,M,44.0,M,,*64
1777635226.006328 2097271BD911_$GPGGA,113346.00,5706.070445,N,00834.481137,E,1,11,0.4,9.4,M,44.0,M,,*66
1777635227.007101 2097271BD911_$GPGGA,113347.00,5706.066582,N,00834.476923,E,1,11,0.4,9.3,M,44.0,M,,*68
1777635228.001790 2097271BD911_$GPGGA,113348.00,5706.062637,N,00834.472551,E,1,11,0.4,9.4,M,44.0,M,,*64
1777635229.008406 2097271BD911_$GPGGA,113349.00,5706.058768,N,00834.468075,E,1,11,0.4,9.2,M,44.0,M,,*69
1777635230.007873 2097271BD911_$GPGGA,113350.00,5706.054784,N,00834.463729,E,1,11,0.4,9.4,M,44.0,M,,*6C
1777635231.007993 2097271BD911_$GPGGA,113351.00,5706.050893,N,00834.459341,E,1,11,0.4,9.4,M,44.0,M,,*63
1777635232.002085 2097271BD911_$GPGGA,113352.00,5706.047002,N,00834.454942,E,1,11,0.4,9.4,M,44.0,M,,*62
1777635233.008083 2097271BD911_$GPGGA,113353.00,5706.043170,N,00834.450591,E,1,11,0.4,9.5,M,44.0,M,,*64
1777635234.008930 2097271BD911_$GPGGA,113354.00,5706.039263,N,00834.446326,E,1,11,0.4,9.4,M,44.0,M,,*63
1777635235.001577 2097271BD911_$GPGGA,113355.00,5706.035280,N,00834.442017,E,1,11,0.4,9.5,M,44.0,M,,*67
1777635236.009030 2097271BD911_$GPGGA,113356.00,5706.031442,N,00834.437858,E,1,11,0.4,9.5,M,44.0,M,,*69
1777635237.008144 2097271BD911_$GPGGA,113357.00,5706.027510,N,00834.433487,E,1,11,0.4,9.5,M,44.0,M,,*63
1777635238.008557 2097271BD911_$GPGGA,113358.00,5706.023521,N,00834.429109,E,1,11,0.4,9.7,M,44.0,M,,*60
1777635239.002254 2097271BD911_$GPGGA,113359.00,5706.019701,N,00834.424785,E,1,11,0.4,9.6,M,44.0,M,,*66
1777635240.009389 2097271BD911_$GPGGA,113400.00,5706.015776,N,00834.420530,E,1,11,0.4,9.7,M,44.0,M,,*68
1777635241.009390 2097271BD911_$GPGGA,113401.00,5706.011778,N,00834.416004,E,1,11,0.4,9.8,M,44.0,M,,*6B
1777635242.011484 2097271BD911_$GPGGA,113402.00,5706.007750,N,00834.411819,E,1,11,0.4,10.1,M,44.0,M,,*57
1777635243.009928 2097271BD911_$GPGGA,113403.00,5706.003808,N,00834.407522,E,1,11,0.4,9.9,M,44.0,M,,*62
1777635244.009101 2097271BD911_$GPGGA,113404.00,5705.999818,N,00834.403141,E,1,11,0.4,10.0,M,44.0,M,,*59
1777635245.009232 2097271BD911_$GPGGA,113405.00,5705.995868,N,00834.399024,E,1,11,0.4,10.0,M,44.0,M,,*55
1777635246.003644 2097271BD911_$GPGGA,113406.00,5705.991782,N,00834.394550,E,1,11,0.4,10.1,M,44.0,M,,*53
1777635247.004261 2097271BD911_$GPGGA,113407.00,5705.987760,N,00834.390111,E,1,11,0.4,10.2,M,44.0,M,,*5F
1777635248.009078 2097271BD911_$GPGGA,113408.00,5705.983758,N,00834.385515,E,1,11,0.4,10.1,M,44.0,M,,*58
1777635249.008836 2097271BD911_$GPGGA,113409.00,5705.979787,N,00834.381017,E,1,11,0.4,10.3,M,44.0,M,,*5F
1777635250.001855 2097271BD911_$GPGGA,113410.00,5705.975694,N,00834.376513,E,1,11,0.4,10.3,M,44.0,M,,*51
1777635251.008251 2097271BD911_$GPGGA,113411.00,5705.971681,N,00834.372129,E,1,11,0.4,10.2,M,44.0,M,,*58
1777635252.008364 2097271BD911_$GPGGA,113412.00,5705.967711,N,00834.367575,E,1,11,0.4,10.4,M,44.0,M,,*5B
1777635253.005476 2097271BD911_$GPGGA,113413.00,5705.963610,N,00834.363112,E,1,11,0.4,10.5,M,44.0,M,,*5E
1777635254.008421 2097271BD911_$GPGGA,113414.00,5705.959599,N,00834.358751,E,1,11,0.4,10.6,M,44.0,M,,*58
1777635255.008948 2097271BD911_$GPGGA,113415.00,5705.955452,N,00834.354006,E,1,11,0.4,10.6,M,44.0,M,,*5A
1777635256.009854 2097271BD911_$GPGGA,113416.00,5705.951313,N,00834.349351,E,1,11,0.4,10.6,M,44.0,M,,*52
1777635257.008463 2097271BD911_$GPGGA,113417.00,5705.947185,N,00834.344849,E,1,11,0.4,10.4,M,44.0,M,,*54
1777635258.007043 2097271BD911_$GPGGA,113418.00,5705.943018,N,00834.340362,E,1,11,0.4,10.5,M,44.0,M,,*5D
1777635259.008254 2097271BD911_$GPGGA,113419.00,5705.938902,N,00834.335941,E,1,11,0.4,10.4,M,44.0,M,,*5A
1777635260.007744 2097271BD911_$GPGGA,113420.00,5705.934846,N,00834.331365,E,1,11,0.4,10.3,M,44.0,M,,*52
1777635261.002061 2097271BD911_$GPGGA,113421.00,5705.930786,N,00834.326854,E,1,11,0.4,10.2,M,44.0,M,,*5A
1777635262.001103 2097271BD911_$GPGGA,113422.00,5705.926757,N,00834.322525,E,1,11,0.4,10.2,M,44.0,M,,*5D
1777635262.999959 2097271BD911_$GPGGA,113423.00,5705.922757,N,00834.318169,E,1,11,0.4,10.1,M,44.0,M,,*5E
1777635264.008336 2097271BD911_$GPGGA,113424.00,5705.918768,N,00834.313763,E,1,11,0.4,10.2,M,44.0,M,,*58
1777635265.004103 2097271BD911_$GPGGA,113425.00,5705.914785,N,00834.309488,E,1,11,0.4,10.2,M,44.0,M,,*5B
1777635266.009266 2097271BD911_$GPGGA,113426.00,5705.910797,N,00834.305179,E,1,11,0.4,10.3,M,44.0,M,,*59
1777635267.011366 2097271BD911_$GPGGA,113427.00,5705.906891,N,00834.300709,E,1,11,0.4,10.2,M,44.0,M,,*53
1777635268.001820 2097271BD911_$GPGGA,113428.00,5705.902953,N,00834.296542,E,1,11,0.4,10.0,M,44.0,M,,*56
1777635269.009051 2097271BD911_$GPGGA,113429.00,5705.899179,N,00834.292362,E,1,11,0.4,10.1,M,44.0,M,,*55
1777635270.008779 2097271BD911_$GPGGA,113430.00,5705.895395,N,00834.288164,E,1,11,0.4,10.1,M,44.0,M,,*5E
1777635271.006252 2097271BD911_$GPGGA,113431.00,5705.891647,N,00834.284142,E,1,11,0.4,10.1,M,44.0,M,,*59
1777635272.009552 2097271BD911_$GPGGA,113432.00,5705.887939,N,00834.280215,E,1,11,0.4,10.2,M,44.0,M,,*5D
1777635273.002247 2097271BD911_$GPGGA,113433.00,5705.884213,N,00834.276050,E,1,11,0.4,10.1,M,44.0,M,,*55
1777635274.008572 2097271BD911_$GPGGA,113434.00,5705.880478,N,00834.271850,E,1,11,0.4,10.1,M,44.0,M,,*52
1777635275.006060 2097271BD911_$GPGGA,113435.00,5705.876681,N,00834.267779,E,1,11,0.4,10.1,M,44.0,M,,*5D
1777635276.008827 2097271BD911_$GPGGA,113436.00,5705.872863,N,00834.263621,E,1,11,0.4,10.0,M,44.0,M,,*51
1777635277.003209 2097271BD911_$GPGGA,113437.00,5705.868982,N,00834.259352,E,1,11,0.4,10.1,M,44.0,M,,*5C
1777635278.010495 2097271BD911_$GPGGA,113438.00,5705.865121,N,00834.254969,E,1,11,0.4,10.1,M,44.0,M,,*50
1777635279.009703 2097271BD911_$GPGGA,113439.00,5705.861483,N,00834.250783,E,1,11,0.4,10.3,M,44.0,M,,*54
1777635280.004110 2097271BD911_$GPGGA,113440.00,5705.857706,N,00834.246421,E,1,11,0.4,10.2,M,44.0,M,,*5C
1777635281.007622 2097271BD911_$GPGGA,113441.00,5705.853838,N,00834.242371,E,1,11,0.4,10.2,M,44.0,M,,*5D
1777635282.007941 2097271BD911_$GPGGA,113442.00,5705.850030,N,00834.238410,E,1,11,0.4,10.0,M,44.0,M,,*52
1777635283.008919 2097271BD911_$GPGGA,113443.00,5705.846311,N,00834.234623,E,1,11,0.4,10.0,M,44.0,M,,*5A
1777635284.005428 2097271BD911_$GPGGA,113444.00,5705.842672,N,00834.230506,E,1,11,0.4,10.2,M,44.0,M,,*5B
1777635285.007358 2097271BD911_$GPGGA,113445.00,5705.838901,N,00834.226641,E,1,11,0.4,10.2,M,44.0,M,,*5B
1777635286.008007 2097271BD911_$GPGGA,113446.00,5705.835175,N,00834.222580,E,1,11,0.4,9.9,M,44.0,M,,*67
1777635287.009064 2097271BD911_$GPGGA,113447.00,5705.831470,N,00834.218404,E,1,11,0.4,10.1,M,44.0,M,,*56
1777635288.008724 2097271BD911_$GPGGA,113448.00,5705.827762,N,00834.214340,E,1,11,0.4,10.0,M,44.0,M,,*54
1777635289.007820 2097271BD911_$GPGGA,113449.00,5705.824047,N,00834.210139,E,1,11,0.4,10.1,M,44.0,M,,*5F
1777635290.008478 2097271BD911_$GPGGA,113450.00,5705.820518,N,00834.205932,E,1,11,0.4,10.2,M,44.0,M,,*58
1777635291.003701 2097271BD911_$GPGGA,113451.00,5705.816896,N,00834.201959,E,1,11,0.4,10.3,M,44.0,M,,*5F
1777635292.009137 2097271BD911_$GPGGA,113452.00,5705.813270,N,00834.198020,E,1,11,0.4,10.1,M,44.0,M,,*5D
1777635293.008116 2097271BD911_$GPGGA,113453.00,5705.809706,N,00834.194035,E,1,11,0.4,10.2,M,44.0,M,,*58
1777635294.009427 2097271BD911_$GPGGA,113454.00,5705.805978,N,00834.190005,E,1,11,0.4,10.2,M,44.0,M,,*53
1777635295.002561 2097271BD911_$GPGGA,113455.00,5705.802254,N,00834.185922,E,1,11,0.4,10.2,M,44.0,M,,*58
1777635296.008969 2097271BD911_$GPGGA,113456.00,5705.798533,N,00834.181749,E,1,11,0.4,9.9,M,44.0,M,,*65
1777635297.008100 2097271BD911_$GPGGA,113457.00,5705.794836,N,00834.177421,E,1,11,0.4,10.1,M,44.0,M,,*54
1777635298.007260 2097271BD911_$GPGGA,113458.00,5705.791082,N,00834.173296,E,1,11,0.4,10.1,M,44.0,M,,*57
1777635299.005702 2097271BD911_$GPGGA,113459.00,5705.787358,N,00834.169165,E,1,11,0.4,10.0,M,44.0,M,,*50
1777635300.008893 2097271BD911_$GPGGA,113500.00,5705.783642,N,00834.165084,E,1,11,0.4,9.9,M,44.0,M,,*64
1777635301.008475 2097271BD911_$GPGGA,113501.00,5705.779737,N,00834.161019,E,1,11,0.4,9.8,M,44.0,M,,*62
1777635301.998314 2097271BD911_$GPGGA,113502.00,5705.775913,N,00834.156959,E,1,11,0.4,9.7,M,44.0,M,,*63
1777635303.008006 2097271BD911_$GPGGA,113503.00,5705.772056,N,00834.152688,E,1,11,0.4,9.8,M,44.0,M,,*65
1777635304.008199 2097271BD911_$GPGGA,113504.00,5705.768177,N,00834.148346,E,1,10,0.4,9.7,M,44.0,M,,*69
1777635305.007550 2097271BD911_$GPGGA,113505.00,5705.764272,N,00834.143947,E,1,10,0.4,9.8,M,44.0,M,,*6D
1777635306.001752 2097271BD911_$GPGGA,113506.00,5705.760402,N,00834.139806,E,1,10,0.4,9.8,M,44.0,M,,*62
1777635307.008842 2097271BD911_$GPGGA,113507.00,5705.756512,N,00834.135511,E,1,10,0.4,9.8,M,44.0,M,,*61
1777635308.008959 2097271BD911_$GPGGA,113508.00,5705.752596,N,00834.131307,E,1,10,0.4,10.0,M,44.0,M,,*53
1777635309.009535 2097271BD911_$GPGGA,113509.00,5705.748727,N,00834.126968,E,1,10,0.4,9.8,M,44.0,M,,*64
1777635310.010396 2097271BD911_$GPGGA,113510.00,5705.744793,N,00834.122524,E,1,10,0.4,9.6,M,44.0,M,,*61
1777635311.011101 2097271BD911_$GPGGA,113511.00,5705.740878,N,00834.118148,E,1,10,0.4,9.5,M,44.0,M,,*6A
1777635312.006566 2097271BD911_$GPGGA,113512.00,5705.736933,N,00834.113880,E,1,10,0.4,9.5,M,44.0,M,,*60
1777635313.009019 2097271BD911_$GPGGA,113513.00,5705.733052,N,00834.109610,E,1,10,0.4,9.4,M,44.0,M,,*67
1777635314.001062 2097271BD911_$GPGGA,113514.00,5705.729255,N,00834.105646,E,1,10,0.4,9.4,M,44.0,M,,*61
1777635315.008270 2097271BD911_$GPGGA,113515.00,5705.725387,N,00834.101315,E,1,10,0.4,9.4,M,44.0,M,,*65
1777635316.005984 2097271BD911_$GPGGA,113516.00,5705.721513,N,00834.096932,E,1,10,0.4,9.4,M,44.0,M,,*69
1777635317.007476 2097271BD911_$GPGGA,113517.00,5705.717639,N,00834.092654,E,1,10,0.4,9.2,M,44.0,M,,*6B
1777635318.001392 2097271BD911_$GPGGA,113518.00,5705.713694,N,00834.088418,E,1,10,0.4,9.2,M,44.0,M,,*66
1777635319.008079 2097271BD911_$GPGGA,113519.00,5705.709893,N,00834.084291,E,1,10,0.4,9.1,M,44.0,M,,*6D
1777635320.009124 2097271BD911_$GPGGA,113520.00,5705.706027,N,00834.080058,E,1,10,0.4,9.2,M,44.0,M,,*6F
1777635321.001735 2097271BD911_$GPGGA,113521.00,5705.702214,N,00834.075971,E,1,10,0.4,8.9,M,44.0,M,,*6A
1777635322.009035 2097271BD911_$GPGGA,113522.00,5705.698325,N,00834.071722,E,1,10,0.4,8.8,M,44.0,M,,*65
1777635323.007930 2097271BD911_$GPGGA,113523.00,5705.694478,N,00834.067398,E,1,10,0.4,8.8,M,44.0,M,,*65
1777635324.009068 2097271BD911_$GPGGA,113524.00,5705.690709,N,00834.063153,E,1,10,0.4,8.9,M,44.0,M,,*63
1777635325.001191 2097271BD911_$GPGGA,113525.00,5705.686866,N,00834.059035,E,1,10,0.4,8.9,M,44.0,M,,*6B
1777635326.008435 2097271BD911_$GPGGA,113526.00,5705.683061,N,00834.054772,E,1,10,0.4,8.9,M,44.0,M,,*6B
1777635327.007902 2097271BD911_$GPGGA,113527.00,5705.679157,N,00834.050788,E,1,10,0.4,8.9,M,44.0,M,,*6A
1777635328.008623 2097271BD911_$GPGGA,113528.00,5705.675327,N,00834.046500,E,1,10,0.4,8.7,M,44.0,M,,*67
1777635329.011229 2097271BD911_$GPGGA,113529.00,5705.671575,N,00834.042498,E,1,10,0.4,8.7,M,44.0,M,,*67
1777635330.008671 2097271BD911_$GPGGA,113530.00,5705.667785,N,00834.038258,E,1,10,0.4,8.7,M,44.0,M,,*62
1777635331.009458 2097271BD911_$GPGGA,113531.00,5705.664020,N,00834.033982,E,1,10,0.4,8.8,M,44.0,M,,*60
1777635332.003806 2097271BD911_$GPGGA,113532.00,5705.660281,N,00834.029815,E,1,10,0.4,8.9,M,44.0,M,,*6B
1777635333.010185 2097271BD911_$GPGGA,113533.00,5705.656407,N,00834.025568,E,1,10,0.4,9.0,M,44.0,M,,*64
1777635334.010595 2097271BD911_$GPGGA,113534.00,5705.652528,N,00834.021287,E,1,10,0.4,8.9,M,44.0,M,,*61
1777635335.009109 2097271BD911_$GPGGA,113535.00,5705.648730,N,00834.016957,E,1,10,0.4,8.8,M,44.0,M,,*63
1777635336.006063 2097271BD911_$GPGGA,113536.00,5705.644838,N,00834.012675,E,1,10,0.4,8.8,M,44.0,M,,*60
1777635337.010589 2097271BD911_$GPGGA,113537.00,5705.640956,N,00834.008612,E,1,10,0.4,8.8,M,44.0,M,,*66
1777635338.008877 2097271BD911_$GPGGA,113538.00,5705.637051,N,00834.004337,E,1,10,0.4,8.7,M,44.0,M,,*66
1777635339.012879 2097271BD911_$GPGGA,113539.00,5705.633136,N,00834.000195,E,1,10,0.4,8.7,M,44.0,M,,*6D
1777635340.006179 2097271BD911_$GPGGA,113540.00,5705.629408,N,00833.995807,E,1,10,0.4,8.6,M,44.0,M,,*61
1777635341.013717 2097271BD911_$GPGGA,113541.00,5705.625577,N,00833.991632,E,1,10,0.4,8.5,M,44.0,M,,*6A
1777635342.011082 2097271BD911_$GPGGA,113542.00,5705.621754,N,00833.987341,E,1,10,0.4,8.4,M,44.0,M,,*69
1777635343.011618 2097271BD911_$GPGGA,113543.00,5705.617963,N,00833.983281,E,1,10,0.4,8.4,M,44.0,M,,*6E
1777635344.011754 2097271BD911_$GPGGA,113544.00,5705.614129,N,00833.979089,E,1,10,0.4,8.6,M,44.0,M,,*61
1777635345.013614 2097271BD911_$GPGGA,113545.00,5705.610339,N,00833.974969,E,1,10,0.4,8.4,M,44.0,M,,*6F
1777635346.011545 2097271BD911_$GPGGA,113546.00,5705.606528,N,00833.970562,E,1,10,0.4,8.6,M,44.0,M,,*6C
1777635347.013388 2097271BD911_$GPGGA,113547.00,5705.602725,N,00833.966395,E,1,10,0.4,8.5,M,44.0,M,,*6C
1777635348.009475 2097271BD911_$GPGGA,113548.00,5705.598951,N,00833.962142,E,1,10,0.4,8.4,M,44.0,M,,*63
1777635349.011765 2097271BD911_$GPGGA,113549.00,5705.595188,N,00833.957906,E,1,10,0.4,8.3,M,44.0,M,,*6A
1777635350.009602 2097271BD911_$GPGGA,113550.00,5705.591466,N,00833.953757,E,1,10,0.4,8.2,M,44.0,M,,*6C
1777635351.014021 2097271BD911_$GPGGA,113551.00,5705.587835,N,00833.949601,E,1,10,0.4,8.3,M,44.0,M,,*68
1777635352.014192 2097271BD911_$GPGGA,113552.00,5705.584193,N,00833.945515,E,1,10,0.4,8.1,M,44.0,M,,*65
1777635353.011253 2097271BD911_$GPGGA,113553.00,5705.580503,N,00833.941441,E,1,10,0.4,7.9,M,44.0,M,,*6E
1777635354.013105 2097271BD911_$GPGGA,113554.00,5705.576923,N,00833.937575,E,1,10,0.4,7.8,M,44.0,M,,*68
1777635355.011225 2097271BD911_$GPGGA,113555.00,5705.573342,N,00833.933698,E,1,10,0.4,7.8,M,44.0,M,,*65
1777635356.008381 2097271BD911_$GPGGA,113556.00,5705.569841,N,00833.929815,E,1,10,0.4,7.7,M,44.0,M,,*6A
1777635357.006575 2097271BD911_$GPGGA,113557.00,5705.566166,N,00833.925981,E,1,10,0.4,7.8,M,44.0,M,,*67
1777635358.007138 2097271BD911_$GPGGA,113558.00,5705.562578,N,00833.922153,E,1,10,0.4,7.7,M,44.0,M,,*68
1777635359.001464 2097271BD911_$GPGGA,113559.00,5705.559163,N,00833.918357,E,1,10,0.4,7.8,M,44.0,M,,*6F
1777635360.007320 2097271BD911_$GPGGA,113600.00,5705.555661,N,00833.914435,E,1,10,0.4,7.7,M,44.0,M,,*69
1777635361.006820 2097271BD911_$GPGGA,113601.00,5705.552185,N,00833.910411,E,1,10,0.4,7.9,M,44.0,M,,*6E
1777635362.005595 2097271BD911_$GPGGA,113602.00,5705.548576,N,00833.906464,E,1,10,0.4,7.9,M,44.0,M,,*6B
1777635363.007532 2097271BD911_$GPGGA,113603.00,5705.544924,N,00833.902506,E,1,10,0.4,8.0,M,44.0,M,,*6A
1777635364.007534 2097271BD911_$GPGGA,113604.00,5705.541349,N,00833.898524,E,1,10,0.4,7.9,M,44.0,M,,*6D
1777635365.005197 2097271BD911_$GPGGA,113605.00,5705.537627,N,00833.894690,E,1,10,0.4,7.9,M,44.0,M,,*60
1777635366.006785 2097271BD911_$GPGGA,113606.00,5705.533937,N,00833.890687,E,1,10,0.4,8.0,M,44.0,M,,*6D
1777635367.007402 2097271BD911_$GPGGA,113607.00,5705.530198,N,00833.886605,E,1,10,0.4,8.1,M,44.0,M,,*6E
1777635368.007662 2097271BD911_$GPGGA,113608.00,5705.526331,N,00833.882480,E,1,10,0.4,8.2,M,44.0,M,,*6F
1777635369.004642 2097271BD911_$GPGGA,113609.00,5705.522396,N,00833.878399,E,1,10,0.4,8.0,M,44.0,M,,*6F
1777635370.007483 2097271BD911_$GPGGA,113610.00,5705.518617,N,00833.874057,E,1,10,0.4,8.0,M,44.0,M,,*6F
1777635371.009244 2097271BD911_$GPGGA,113611.00,5705.514811,N,00833.869964,E,1,10,0.4,8.0,M,44.0,M,,*6F
1777635372.008521 2097271BD911_$GPGGA,113612.00,5705.511040,N,00833.865766,E,1,10,0.4,7.9,M,44.0,M,,*63
1777635373.008374 2097271BD911_$GPGGA,113613.00,5705.507162,N,00833.861661,E,1,10,0.4,7.8,M,44.0,M,,*67
1777635374.001533 2097271BD911_$GPGGA,113614.00,5705.503338,N,00833.857366,E,1,10,0.4,7.9,M,44.0,M,,*6F
1777635375.007507 2097271BD911_$GPGGA,113615.00,5705.499401,N,00833.853237,E,1,10,0.4,7.9,M,44.0,M,,*60
1777635376.008088 2097271BD911_$GPGGA,113616.00,5705.495491,N,00833.849045,E,1,10,0.4,7.8,M,44.0,M,,*6B
1777635377.008989 2097271BD911_$GPGGA,113617.00,5705.491497,N,00833.844950,E,1,10,0.4,7.8,M,44.0,M,,*68
1777635378.006360 2097271BD911_$GPGGA,113618.00,5705.487470,N,00833.840438,E,1,10,0.4,7.7,M,44.0,M,,*61
1777635379.008495 2097271BD911_$GPGGA,113619.00,5705.483451,N,00833.835980,E,1,10,0.4,7.8,M,44.0,M,,*64
1777635380.005045 2097271BD911_$GPGGA,113620.00,5705.479500,N,00833.831545,E,1,10,0.4,7.9,M,44.0,M,,*6E
1777635381.005055 2097271BD911_$GPGGA,113621.00,5705.475471,N,00833.827345,E,1,10,0.4,8.0,M,44.0,M,,*63
1777635382.002168 2097271BD911_$GPGGA,113622.00,5705.471392,N,00833.822988,E,1,10,0.4,8.0,M,44.0,M,,*60
1777635383.006874 2097271BD911_$GPGGA,113623.00,5705.467234,N,00833.818646,E,1,10,0.4,8.0,M,44.0,M,,*6F
1777635384.008329 2097271BD911_$GPGGA,113624.00,5705.463167,N,00833.814381,E,1,10,0.4,8.0,M,44.0,M,,*6B
1777635385.001387 2097271BD911_$GPGGA,113625.00,5705.459146,N,00833.810096,E,1,10,0.4,7.9,M,44.0,M,,*67
1777635386.008689 2097271BD911_$GPGGA,113626.00,5705.455026,N,00833.805905,E,1,10,0.4,8.1,M,44.0,M,,*6F
1777635387.006886 2097271BD911_$GPGGA,113627.00,5705.450989,N,00833.801752,E,1,10,0.4,8.0,M,44.0,M,,*6E
1777635388.008227 2097271BD911_$GPGGA,113628.00,5705.447001,N,00833.797553,E,1,10,0.4,8.0,M,44.0,M,,*6D
1777635389.009322 2097271BD911_$GPGGA,113629.00,5705.442939,N,00833.793614,E,1,10,0.4,7.8,M,44.0,M,,*68
1777635390.009160 2097271BD911_$GPGGA,113630.00,5705.438848,N,00833.789429,E,1,10,0.4,7.8,M,44.0,M,,*6D
1777635391.007382 2097271BD911_$GPGGA,113631.00,5705.434823,N,00833.785409,E,1,10,0.4,7.6,M,44.0,M,,*6D
1777635392.007861 2097271BD911_$GPGGA,113632.00,5705.430878,N,00833.781401,E,1,10,0.4,7.5,M,44.0,M,,*6B
1777635393.009577 2097271BD911_$GPGGA,113633.00,5705.426925,N,00833.777242,E,1,10,0.4,7.6,M,44.0,M,,*6F
1777635394.011252 2097271BD911_$GPGGA,113634.00,5705.422769,N,00833.773270,E,1,10,0.4,7.5,M,44.0,M,,*6C
1777635395.010264 2097271BD911_$GPGGA,113635.00,5705.418835,N,00833.769447,E,1,10,0.4,7.4,M,44.0,M,,*6A
1777635396.007310 2097271BD911_$GPGGA,113636.00,5705.414932,N,00833.765521,E,1,10,0.4,7.4,M,44.0,M,,*6E
1777635397.002777 2097271BD911_$GPGGA,113637.00,5705.411008,N,00833.761529,E,1,10,0.4,7.4,M,44.0,M,,*66
1777635398.006800 2097271BD911_$GPGGA,113638.00,5705.407025,N,00833.757671,E,1,10,0.4,7.5,M,44.0,M,,*6B
1777635399.006446 2097271BD911_$GPGGA,113639.00,5705.403052,N,00833.753650,E,1,10,0.4,7.4,M,44.0,M,,*68
1777635400.008987 2097271BD911_$GPGGA,113640.00,5705.399071,N,00833.749887,E,1,10,0.4,7.4,M,44.0,M,,*6C
1777635401.006792 2097271BD911_$GPGGA,113641.00,5705.395126,N,00833.745932,E,1,10,0.4,7.6,M,44.0,M,,*63
1777635402.008810 2097271BD911_$GPGGA,113642.00,5705.391134,N,00833.741936,E,1,10,0.4,7.6,M,44.0,M,,*67
1777635403.008465 2097271BD911_$GPGGA,113643.00,5705.387287,N,00833.738157,E,1,10,0.4,7.8,M,44.0,M,,*65
1777635404.002127 2097271BD911_$GPGGA,113644.00,5705.383384,N,00833.734496,E,1,10,0.4,7.9,M,44.0,M,,*61
1777635405.002237 2097271BD911_$GPGGA,113645.00,5705.379413,N,00833.730788,E,1,10,0.4,7.8,M,44.0,M,,*65
1777635406.008805 2097271BD911_$GPGGA,113646.00,5705.375500,N,00833.727138,E,1,10,0.4,7.8,M,44.0,M,,*62
1777635407.008291 2097271BD911_$GPGGA,113647.00,5705.371678,N,00833.723585,E,1,10,0.4,7.9,M,44.0,M,,*6C
1777635408.003265 2097271BD911_$GPGGA,113648.00,5705.367607,N,00833.720152,E,1,10,0.4,7.9,M,44.0,M,,*61
1777635409.009483 2097271BD911_$GPGGA,113649.00,5705.363764,N,00833.716734,E,1,10,0.4,8.1,M,44.0,M,,*64
1777635410.007592 2097271BD911_$GPGGA,113650.00,5705.359976,N,00833.712997,E,1,10,0.4,8.2,M,44.0,M,,*68
1777635411.007864 2097271BD911_$GPGGA,113651.00,5705.356136,N,00833.709555,E,1,10,0.4,8.0,M,44.0,M,,*60
1777635412.003046 2097271BD911_$GPGGA,113652.00,5705.352464,N,00833.706078,E,1,10,0.4,7.9,M,44.0,M,,*66
1777635413.009165 2097271BD911_$GPGGA,113653.00,5705.348707,N,00833.702747,E,1,10,0.4,7.9,M,44.0,M,,*65
1777635413.999221 2097271BD911_$GPGGA,113654.00,5705.344873,N,00833.699269,E,1,10,0.4,8.0,M,44.0,M,,*6E
1777635415.002072 2097271BD911_$GPGGA,113655.00,5705.341129,N,00833.695834,E,1,10,0.4,8.1,M,44.0,M,,*63
1777635416.002059 2097271BD911_$GPGGA,113656.00,5705.337301,N,00833.692444,E,1,10,0.4,8.0,M,44.0,M,,*64
1777635417.007911 2097271BD911_$GPGGA,113657.00,5705.333524,N,00833.689157,E,1,10,0.4,7.9,M,44.0,M,,*6B
1777635418.009403 2097271BD911_$GPGGA,113658.00,5705.329668,N,00833.685800,E,1,10,0.4,7.9,M,44.0,M,,*63
1777635419.008489 2097271BD911_$GPGGA,113659.00,5705.325912,N,00833.682366,E,1,10,0.4,7.9,M,44.0,M,,*60
1777635420.010206 2097271BD911_$GPGGA,113700.00,5705.322087,N,00833.679186,E,1,10,0.4,7.8,M,44.0,M,,*66
1777635421.011258 2097271BD911_$GPGGA,113701.00,5705.318215,N,00833.676057,E,1,10,0.4,7.7,M,44.0,M,,*6A
1777635422.010797 2097271BD911_$GPGGA,113702.00,5705.314425,N,00833.672735,E,1,10,0.4,7.6,M,44.0,M,,*66
1777635423.004602 2097271BD911_$GPGGA,113703.00,5705.310663,N,00833.669719,E,1,10,0.4,7.4,M,44.0,M,,*65
1777635424.008062 2097271BD911_$GPGGA,113704.00,5705.306738,N,00833.666278,E,1,10,0.4,7.5,M,44.0,M,,*66
1777635425.007704 2097271BD911_$GPGGA,113705.00,5705.302965,N,00833.663037,E,1,10,0.4,7.4,M,44.0,M,,*68
1777635426.008188 2097271BD911_$GPGGA,113706.00,5705.299088,N,00833.659897,E,1,10,0.4,7.3,M,44.0,M,,*6E
1777635427.002756 2097271BD911_$GPGGA,113707.00,5705.295165,N,00833.656646,E,1,10,0.4,7.3,M,44.0,M,,*6C
1777635428.012000 2097271BD911_$GPGGA,113708.00,5705.291384,N,00833.653275,E,1,10,0.4,7.4,M,44.0,M,,*6C
1777635429.008626 2097271BD911_$GPGGA,113709.00,5705.287430,N,00833.649961,E,1,10,0.4,7.3,M,44.0,M,,*60
1777635430.008421 2097271BD911_$GPGGA,113710.00,5705.283636,N,00833.646887,E,1,10,0.4,7.3,M,44.0,M,,*6E
1777635431.008831 2097271BD911_$GPGGA,113711.00,5705.279747,N,00833.643704,E,1,10,0.4,7.4,M,44.0,M,,*6B
1777635432.008556 2097271BD911_$GPGGA,113712.00,5705.275796,N,00833.640381,E,1,10,0.4,7.4,M,44.0,M,,*62
1777635433.009273 2097271BD911_$GPGGA,113713.00,5705.272007,N,00833.637212,E,1,10,0.4,7.5,M,44.0,M,,*61
1777635434.001644 2097271BD911_$GPGGA,113714.00,5705.268129,N,00833.633991,E,1,10,0.4,7.5,M,44.0,M,,*64
1777635435.006905 2097271BD911_$GPGGA,113715.00,5705.264256,N,00833.630869,E,1,10,0.4,7.6,M,44.0,M,,*64
1777635436.008611 2097271BD911_$GPGGA,113716.00,5705.260207,N,00833.627547,E,1,10,0.4,7.5,M,44.0,M,,*63
1777635437.009791 2097271BD911_$GPGGA,113717.00,5705.256323,N,00833.624388,E,1,10,0.4,7.3,M,44.0,M,,*60
1777635438.001812 2097271BD911_$GPGGA,113718.00,5705.252304,N,00833.621123,E,1,10,0.4,7.2,M,44.0,M,,*69
1777635439.008258 2097271BD911_$GPGGA,113719.00,5705.248395,N,00833.618069,E,1,10,0.4,7.0,M,44.0,M,,*6C
1777635440.009358 2097271BD911_$GPGGA,113720.00,5705.244545,N,00833.615012,E,1,10,0.4,7.0,M,44.0,M,,*60
1777635441.009460 2097271BD911_$GPGGA,113721.00,5705.240684,N,00833.611836,E,1,10,0.4,7.1,M,44.0,M,,*60
1777635442.001578 2097271BD911_$GPGGA,113722.00,5705.236851,N,00833.608615,E,1,10,0.4,7.1,M,44.0,M,,*63
1777635443.009513 2097271BD911_$GPGGA,113723.00,5705.232921,N,00833.605509,E,1,10,0.4,7.0,M,44.0,M,,*62
1777635444.009036 2097271BD911_$GPGGA,113724.00,5705.228954,N,00833.602437,E,1,10,0.4,6.9,M,44.0,M,,*6F
1777635445.008142 2097271BD911_$GPGGA,113725.00,5705.225026,N,00833.599395,E,1,10,0.4,6.8,M,44.0,M,,*60
1777635446.009590 2097271BD911_$GPGGA,113726.00,5705.221098,N,00833.596408,E,1,10,0.4,6.8,M,44.0,M,,*6E
1777635447.010521 2097271BD911_$GPGGA,113727.00,5705.217157,N,00833.593380,E,1,10,0.4,6.8,M,44.0,M,,*6A
1777635448.024578 2097271BD911_$GPGGA,113728.00,5705.213301,N,00833.590361,E,1,10,0.4,6.8,M,44.0,M,,*6C
1777635449.009491 2097271BD911_$GPGGA,113729.00,5705.209449,N,00833.587359,E,1,10,0.4,6.8,M,44.0,M,,*60
1777635450.002917 2097271BD911_$GPGGA,113730.00,5705.205535,N,00833.584329,E,1,10,0.4,6.9,M,44.0,M,,*6B
1777635451.010183 2097271BD911_$GPGGA,113731.00,5705.201611,N,00833.581220,E,1,10,0.4,7.0,M,44.0,M,,*6E
