2097271BD911_$GPGGA,083728.00,5706.759900,N,00835.301149,E,1,08,0.5,7.5,M,44.0,M,,*63
2097271BD911_$GPGGA,083729.00,5706.759900,N,00835.301149,E,1,08,0.5,7.5,M,44.0,M,,*62
2097271BD911_$GPGGA,083730.00,5706.759901,N,00835.301148,E,1,08,0.5,7.5,M,44.0,M,,*6A
2097271BD911_$GPGGA,083731.00,5706.759901,N,00835.301147,E,1,08,0.5,7.5,M,44.0,M,,*64
2097271BD911_$GPGGA,083732.00,5706.759901,N,00835.301147,E,1,08,0.5,7.5,M,44.0,M,,*67
2097271BD911_$GPGGA,083733.00,5706.759901,N,00835.301147,E,1,08,0.5,7.5,M,44.0,M,,*66
2097271BD911_$GPGGA,083734.00,5706.759902,N,00835.301146,E,1,09,0.5,7.5,M,44.0,M,,*62
2097271BD911_$GPGGA,083735.00,5706.759902,N,00835.301146,E,1,09,0.5,7.5,M,44.0,M,,*63
2097271BD911_$GPGGA,083736.00,5706.759903,N,00835.301145,E,1,09,0.5,7.5,M,44.0,M,,*62
2097271BD911_$GPGGA,083737.00,5706.759903,N,00835.301145,E,1,09,0.5,7.5,M,44.0,M,,*63
2097271BD911_$GPGGA,083738.00,5706.759904,N,00835.301145,E,1,09,0.5,7.5,M,44.0,M,,*6B
2097271BD911_$GPGGA,083739.00,5706.759904,N,00835.301144,E,1,09,0.5,7.5,M,44.0,M,,*6B
2097271BD911_$GPGGA,083740.00,5706.759904,N,00835.301144,E,1,09,0.5,7.5,M,44.0,M,,*65
2097271BD911_$GPGGA,083741.00,5706.759904,N,00835.301143,E,1,09,0.5,7.5,M,44.0,M,,*63
2097271BD911_$GPGGA,083742.00,5706.759905,N,00835.301143,E,1,09,0.5,7.5,M,44.0,M,,*61
2097271BD911_$GPGGA,083743.00,5706.759905,N,00835.301142,E,1,09,0.5,7.5,M,44.0,M,,*61
2097271BD911_$GPGGA,083744.00,5706.759905,N,00835.301142,E,1,09,0.5,7.5,M,44.0,M,,*66
2097271BD911_$GPGGA,083745.00,5706.759906,N,00835.301142,E,1,09,0.5,7.5,M,44.0,M,,*64
2097271BD911_$GPGGA,083746.00,5706.759906,N,00835.301142,E,1,09,0.5,7.5,M,44.0,M,,*67
2097271BD911_$GPGGA,083747.00,5706.759906,N,00835.301142,E,1,09,0.5,7.5,M,44.0,M,,*66
2097271BD911_$GPGGA,083748.00,5706.759907,N,00835.301142,E,1,09,0.5,7.5,M,44.0,M,,*68
2097271BD911_$GPGGA,083749.00,5706.759907,N,00835.301142,E,1,09,0.5,7.5,M,44.0,M,,*69
2097271BD911_$GPGGA,083750.00,5706.759908,N,00835.301142,E,1,09,0.5,7.5,M,44.0,M,,*6E
2097271BD911_$GPGGA,083751.00,5706.759908,N,00835.301142,E,1,08,0.5,7.5,M,44.0,M,,*6E
2097271BD911_$GPGGA,083752.00,5706.759908,N,00835.301142,E,1,08,0.5,7.5,M,44.0,M,,*6D
2097271BD911_$GPGGA,083753.00,5706.759908,N,00835.301142,E,1,08,0.5,7.5,M,44.0,M,,*6C
2097271BD911_$GPGGA,083754.00,5706.759909,N,00835.301142,E,1,08,0.5,7.5,M,44.0,M,,*6A
2097271BD911_$GPGGA,083755.00,5706.759909,N,00835.301141,E,1,08,0.5,7.5,M,44.0,M,,*68
2097271BD911_$GPGGA,083756.00,5706.759910,N,00835.301141,E,1,08,0.5,7.5,M,44.0,M,,*63
2097271BD911_$GPGGA,083757.00,5706.759910,N,00835.301141,E,1,08,0.5,7.5,M,44.0,M,,*62
2097271BD911_$GPGGA,083758.00,5706.759910,N,00835.301141,E,1,08,0.5,7.5,M,44.0,M,,*6D
2097271BD911_$GPGGA,083759.00,5706.759911,N,00835.301141,E,1,08,0.5,7.5,M,44.0,M,,*6D
2097271BD911_$GPGGA,083800.00,5706.759911,N,00835.301141,E,1,08,0.5,7.5,M,44.0,M,,*6E
2097271BD911_$GPGGA,083801.00,5706.759911,N,00835.301141,E,1,09,0.5,7.5,M,44.0,M,,*6E
2097271BD911_$GPGGA,083802.00,5706.759912,N,00835.301141,E,1,09,0.5,7.5,M,44.0,M,,*6E
2097271BD911_$GPGGA,083803.00,5706.759912,N,00835.301141,E,1,09,0.5,7.5,M,44.0,M,,*6F
2097271BD911_$GPGGA,083804.00,5706.759912,N,00835.301141,E,1,09,0.5,7.5,M,44.0,M,,*68
2097271BD911_$GPGGA,083805.00,5706.759913,N,00835.301141,E,1,09,0.5,7.5,M,44.0,M,,*68
2097271BD911_$GPGGA,083806.00,5706.759913,N,00835.301141,E,1,09,0.5,7.5,M,44.0,M,,*6B
2097271BD911_$GPGGA,083807.00,5706.759913,N,00835.301141,E,1,09,0.5,7.5,M,44.0,M,,*6A
2097271BD911_$GPGGA,083808.00,5706.759913,N,00835.301141,E,1,09,0.5,7.5,M,44.0,M,,*65
2097271BD911_$GPGGA,083809.00,5706.759913,N,00835.301141,E,1,09,0.5,7.5,M,44.0,M,,*64
2097271BD911_$GPGGA,083810.00,5706.759913,N,00835.301141,E,1,09,0.5,7.5,M,44.0,M,,*6C
2097271BD911_$GPGGA,083811.00,5706.759913,N,00835.301141,E,1,09,0.5,7.5,M,44.0,M,,*6D
2097271BD911_$GPGGA,083812.00,5706.759913,N,00835.301141,E,1,09,0.5,7.5,M,44.0,M,,*6E
2097271BD911_$GPGGA,083813.00,5706.759914,N,00835.301140,E,1,09,0.5,7.5,M,44.0,M,,*69
2097271BD911_$GPGGA,083814.00,5706.759914,N,00835.301140,E,1,09,0.5,7.5,M,44.0,M,,*6E
2097271BD911_$GPGGA,083815.00,5706.759914,N,00835.301140,E,1,09,0.5,7.5,M,44.0,M,,*6F
2097271BD911_$GPGGA,083816.00,5706.759914,N,00835.301140,E,1,09,0.5,7.5,M,44.0,M,,*6C
2097271BD911_$GPGGA,083817.00,5706.759914,N,00835.301139,E,1,09,0.5,7.5,M,44.0,M,,*63
2097271BD911_$GPGGA,083818.00,5706.759915,N,00835.301139,E,1,09,0.5,7.5,M,44.0,M,,*6D
2097271BD911_$GPGGA,083819.00,5706.759915,N,00835.301139,E,1,09,0.5,7.5,M,44.0,M,,*6C
2097271BD911_$GPGGA,083820.00,5706.759915,N,00835.301139,E,1,09,0.5,7.5,M,44.0,M,,*66
2097271BD911_$GPGGA,083821.00,5706.759915,N,00835.301139,E,1,08,0.5,7.5,M,44.0,M,,*66
2097271BD911_$GPGGA,083822.00,5706.759915,N,00835.301139,E,1,08,0.5,7.5,M,44.0,M,,*65
2097271BD911_$GPGGA,083823.00,5706.759915,N,00835.301138,E,1,08,0.5,7.5,M,44.0,M,,*65
2097271BD911_$GPGGA,083824.00,5706.759916,N,00835.301138,E,1,08,0.5,7.5,M,44.0,M,,*61
2097271BD911_$GPGGA,083825.00,5706.759916,N,00835.301138,E,1,08,0.5,7.5,M,44.0,M,,*60
2097271BD911_$GPGGA,083826.00,5706.759916,N,00835.301137,E,1,08,0.5,7.5,M,44.0,M,,*6C
2097271BD911_$GPGGA,083827.00,5706.759917,N,00835.301137,E,1,08,0.5,7.5,M,44.0,M,,*6C
2097271BD911_$GPGGA,083828.00,5706.759917,N,00835.301137,E,1,08,0.5,7.5,M,44.0,M,,*63
2097271BD911_$GPGGA,083829.00,5706.759917,N,00835.301136,E,1,08,0.5,7.5,M,44.0,M,,*63
2097271BD911_$GPGGA,083830.00,5706.759918,N,00835.301136,E,1,08,0.5,7.5,M,44.0,M,,*64
2097271BD911_$GPGGA,083831.00,5706.759918,N,00835.301136,E,1,08,0.5,7.5,M,44.0,M,,*65
2097271BD911_$GPGGA,083832.00,5706.759918,N,00835.301136,E,1,08,0.5,7.5,M,44.0,M,,*66
2097271BD911_$GPGGA,083833.00,5706.759918,N,00835.301135,E,1,08,0.5,7.5,M,44.0,M,,*64
2097271BD911_$GPGGA,083834.00,5706.759919,N,00835.301135,E,1,08,0.5,7.5,M,44.0,M,,*62
2097271BD911_$GPGGA,083835.00,5706.759919,N,00835.301135,E,1,08,0.5,7.5,M,44.0,M,,*63
2097271BD911_$GPGGA,083836.00,5706.759919,N,00835.301135,E,1,08,0.5,7.5,M,44.0,M,,*60
2097271BD911_$GPGGA,083837.00,5706.759920,N,00835.301134,E,1,08,0.5,7.5,M,44.0,M,,*6A
2097271BD911_$GPGGA,083838.00,5706.759920,N,00835.301134,E,1,08,0.5,7.5,M,44.0,M,,*65
2097271BD911_$GPGGA,083839.00,5706.759920,N,00835.301133,E,1,08,0.5,7.5,M,44.0,M,,*63
2097271BD911_$GPGGA,083840.00,5706.759921,N,00835.301133,E,1,08,0.5,7.5,M,44.0,M,,*6C
2097271BD911_$GPGGA,083841.00,5706.759921,N,00835.301132,E,1,08,0.5,7.5,M,44.0,M,,*6C
2097271BD911_$GPGGA,083842.00,5706.759921,N,00835.301132,E,1,08,0.5,7.5,M,44.0,M,,*6F
2097271BD911_$GPGGA,083843.00,5706.759921,N,00835.301132,E,1,08,0.5,7.5,M,44.0,M,,*6E
2097271BD911_$GPGGA,083844.00,5706.759922,N,00835.301132,E,1,08,0.5,7.5,M,44.0,M,,*6A
2097271BD911_$GPGGA,083845.00,5706.759922,N,00835.301131,E,1,08,0.5,7.5,M,44.0,M,,*68
2097271BD911_$GPGGA,083846.00,5706.759922,N,00835.301131,E,1,08,0.5,7.5,M,44.0,M,,*6B
2097271BD911_$GPGGA,083847.00,5706.759922,N,00835.301131,E,1,08,0.5,7.5,M,44.0,M,,*6A
2097271BD911_$GPGGA,083848.00,5706.759923,N,00835.301131,E,1,08,0.5,7.5,M,44.0,M,,*64
2097271BD911_$GPGGA,083849.00,5706.759923,N,00835.301131,E,1,08,0.5,7.5,M,44.0,M,,*65
2097271BD911_$GPGGA,083850.00,5706.759923,N,00835.301131,E,1,08,0.5,7.5,M,44.0,M,,*6D
2097271BD911_$GPGGA,083851.00,5706.759923,N,00835.301131,E,1,08,0.5,7.5,M,44.0,M,,*6C
2097271BD911_$GPGGA,083852.00,5706.759923,N,00835.301131,E,1,08,0.5,7.5,M,44.0,M,,*6F
2097271BD911_$GPGGA,083853.00,5706.759923,N,00835.301131,E,1,08,0.5,7.5,M,44.0,M,,*6E
2097271BD911_$GPGGA,083854.00,5706.759923,N,00835.301131,E,1,08,0.5,7.5,M,44.0,M,,*69
2097271BD911_$GPGGA,083855.00,5706.759923,N,00835.301132,E,1,08,0.5,7.5,M,44.0,M,,*6B
2097271BD911_$GPGGA,083856.00,5706.759923,N,00835.301132,E,1,08,0.5,7.5,M,44.0,M,,*68
2097271BD911_$GPGGA,083857.00,5706.759923,N,00835.301132,E,1,08,0.5,7.5,M,44.0,M,,*69
2097271BD911_$GPGGA,083858.00,5706.759924,N,00835.301132,E,1,08,0.5,7.5,M,44.0,M,,*61
2097271BD911_$GPGGA,083859.00,5706.759924,N,00835.301132,E,1,08,0.5,7.5,M,44.0,M,,*60
2097271BD911_$GPGGA,083900.00,5706.759924,N,00835.301133,E,1,08,0.5,7.5,M,44.0,M,,*6C
2097271BD911_$GPGGA,083901.00,5706.759924,N,00835.301133,E,1,08,0.5,7.5,M,44.0,M,,*6D
2097271BD911_$GPGGA,083902.00,5706.759924,N,00835.301133,E,1,08,0.5,7.5,M,44.0,M,,*6E
2097271BD911_$GPGGA,083903.00,5706.759924,N,00835.301134,E,1,08,0.5,7.5,M,44.0,M,,*68
2097271BD911_$GPGGA,083904.00,5706.759924,N,00835.301134,E,1,08,0.5,7.5,M,44.0,M,,*6F
2097271BD911_$GPGGA,083905.00,5706.759925,N,00835.301134,E,1,08,0.5,7.5,M,44.0,M,,*6F
2097271BD911_$GPGGA,083906.00,5706.759925,N,00835.301134,E,1,08,0.5,7.5,M,44.0,M,,*6C
2097271BD911_$GPGGA,083907.00,5706.759925,N,00835.301135,E,1,08,0.5,7.5,M,44.0,M,,*6C
2097271BD911_$GPGGA,083908.00,5706.759925,N,00835.301135,E,1,08,0.5,7.5,M,44.0,M,,*63
2097271BD911_$GPGGA,083909.00,5706.759926,N,00835.301135,E,1,08,0.5,7.5,M,44.0,M,,*61
2097271BD911_$GPGGA,083910.00,5706.759927,N,00835.301135,E,1,08,0.5,7.5,M,44.0,M,,*68
2097271BD911_$GPGGA,083911.00,5706.759927,N,00835.301135,E,1,08,0.5,7.5,M,44.0,M,,*69
2097271BD911_$GPGGA,083912.00,5706.759928,N,00835.301135,E,1,08,0.5,7.5,M,44.0,M,,*65
2097271BD911_$GPGGA,083913.00,5706.759928,N,00835.301135,E,1,08,0.5,7.5,M,44.0,M,,*64
2097271BD911_$GPGGA,083914.00,5706.759928,N,00835.301135,E,1,08,0.5,7.5,M,44.0,M,,*63
2097271BD911_$GPGGA,083915.00,5706.759929,N,00835.301135,E,1,08,0.5,7.5,M,44.0,M,,*63
2097271BD911_$GPGGA,083916.00,5706.759929,N,00835.301135,E,1,08,0.5,7.5,M,44.0,M,,*60
2097271BD911_$GPGGA,083917.00,5706.759929,N,00835.301135,E,1,08,0.5,7.5,M,44.0,M,,*61
2097271BD911_$GPGGA,083918.00,5706.759929,N,00835.301135,E,1,08,0.5,7.5,M,44.0,M,,*6E
2097271BD911_$GPGGA,083919.00,5706.759930,N,00835.301135,E,1,08,0.5,7.5,M,44.0,M,,*67
2097271BD911_$GPGGA,083920.00,5706.759930,N,00835.301135,E,1,08,0.5,7.5,M,44.0,M,,*6D
2097271BD911_$GPGGA,083921.00,5706.759930,N,00835.301135,E,1,08,0.5,7.5,M,44.0,M,,*6C
2097271BD911_$GPGGA,083922.00,5706.759931,N,00835.301135,E,1,08,0.5,7.5,M,44.0,M,,*6E
2097271BD911_$GPGGA,083923.00,5706.759931,N,00835.301135,E,1,08,0.5,7.5,M,44.0,M,,*6F
2097271BD911_$GPGGA,083924.00,5706.759931,N,00835.301134,E,1,08,0.5,7.5,M,44.0,M,,*69
2097271BD911_$GPGGA,083925.00,5706.759931,N,00835.301134,E,1,08,0.5,7.5,M,44.0,M,,*68
2097271BD911_$GPGGA,083926.00,5706.759932,N,00835.301134,E,1,08,0.5,7.5,M,44.0,M,,*68
2097271BD911_$GPGGA,083927.00,5706.759932,N,00835.301134,E,1,08,0.5,7.5,M,44.0,M,,*69
2097271BD911_$GPGGA,083928.00,5706.759933,N,00835.301134,E,1,08,0.5,7.5,M,44.0,M,,*67
2097271BD911_$GPGGA,083929.00,5706.759933,N,00835.301133,E,1,08,0.5,7.6,M,44.0,M,,*62
2097271BD911_$GPGGA,083930.00,5706.759933,N,00835.301133,E,1,08,0.5,7.6,M,44.0,M,,*6A
2097271BD911_$GPGGA,083931.00,5706.759933,N,00835.301132,E,1,08,0.5,7.6,M,44.0,M,,*6A
2097271BD911_$GPGGA,083932.00,5706.759934,N,00835.301132,E,1,08,0.5,7.6,M,44.0,M,,*6E
2097271BD911_$GPGGA,083933.00,5706.759934,N,00835.301132,E,1,08,0.5,7.6,M,44.0,M,,*6F
2097271BD911_$GPGGA,083934.00,5706.759934,N,00835.301131,E,1,08,0.5,7.6,M,44.0,M,,*6B
2097271BD911_$GPGGA,083935.00,5706.759935,N,00835.301131,E,1,08,0.5,7.6,M,44.0,M,,*6B
2097271BD911_$GPGGA,083936.00,5706.759935,N,00835.301131,E,1,08,0.5,7.6,M,44.0,M,,*68
2097271BD911_$GPGGA,083937.00,5706.759935,N,00835.301130,E,1,08,0.5,7.6,M,44.0,M,,*68
2097271BD911_$GPGGA,083938.00,5706.759935,N,00835.301130,E,1,08,0.5,7.6,M,44.0,M,,*67
2097271BD911_$GPGGA,083939.00,5706.759935,N,00835.301129,E,1,08,0.5,7.6,M,44.0,M,,*6E
2097271BD911_$GPGGA,083940.00,5706.759936,N,00835.301129,E,1,08,0.5,7.6,M,44.0,M,,*63
2097271BD911_$GPGGA,083941.00,5706.759936,N,00835.301129,E,1,08,0.5,7.6,M,44.0,M,,*62
2097271BD911_$GPGGA,083942.00,5706.759936,N,00835.301129,E,1,08,0.5,7.6,M,44.0,M,,*61
2097271BD911_$GPGGA,083943.00,5706.759936,N,00835.301128,E,1,08,0.5,7.6,M,44.0,M,,*61
2097271BD911_$GPGGA,083944.00,5706.759936,N,00835.301128,E,1,08,0.5,7.6,M,44.0,M,,*66
2097271BD911_$GPGGA,083945.00,5706.759936,N,00835.301127,E,1,08,0.5,7.6,M,44.0,M,,*68
2097271BD911_$GPGGA,083946.00,5706.759936,N,00835.301127,E,1,08,0.5,7.6,M,44.0,M,,*6B
2097271BD911_$GPGGA,083947.00,5706.759936,N,00835.301127,E,1,08,0.5,7.6,M,44.0,M,,*6A
2097271BD911_$GPGGA,083948.00,5706.759936,N,00835.301126,E,1,08,0.5,7.6,M,44.0,M,,*64
2097271BD911_$GPGGA,083949.00,5706.759936,N,00835.301126,E,1,08,0.5,7.6,M,44.0,M,,*65
2097271BD911_$GPGGA,083950.00,5706.759936,N,00835.301125,E,1,08,0.5,7.6,M,44.0,M,,*6E
2097271BD911_$GPGGA,083951.00,5706.759936,N,00835.301125,E,1,08,0.5,7.6,M,44.0,M,,*6F
2097271BD911_$GPGGA,083952.00,5706.759936,N,00835.301125,E,1,08,0.5,7.6,M,44.0,M,,*6C
2097271BD911_$GPGGA,083953.00,5706.759936,N,00835.301125,E,1,08,0.5,7.6,M,44.0,M,,*6D
2097271BD911_$GPGGA,083954.00,5706.759936,N,00835.301124,E,1,08,0.5,7.6,M,44.0,M,,*6B
2097271BD911_$GPGGA,083955.00,5706.759936,N,00835.301124,E,1,08,0.5,7.6,M,44.0,M,,*6A
2097271BD911_$GPGGA,083956.00,5706.759935,N,00835.301124,E,1,08,0.5,7.6,M,44.0,M,,*6A
2097271BD911_$GPGGA,083957.00,5706.759935,N,00835.301124,E,1,08,0.5,7.6,M,44.0,M,,*6B
2097271BD911_$GPGGA,083958.00,5706.759935,N,00835.301123,E,1,08,0.5,7.6,M,44.0,M,,*63
2097271BD911_$GPGGA,083959.00,5706.759935,N,00835.301123,E,1,08,0.5,7.6,M,44.0,M,,*62
2097271BD911_$GPGGA,084000.00,5706.759935,N,00835.301123,E,1,08,0.5,7.6,M,44.0,M,,*60
2097271BD911_$GPGGA,084001.00,5706.759935,N,00835.301123,E,1,08,0.5,7.6,M,44.0,M,,*61
2097271BD911_$GPGGA,084002.00,5706.759935,N,00835.301123,E,1,08,0.5,7.6,M,44.0,M,,*62
2097271BD911_$GPGGA,084003.00,5706.759935,N,00835.301122,E,1,08,0.5,7.6,M,44.0,M,,*62
2097271BD911_$GPGGA,084004.00,5706.759935,N,00835.301122,E,1,08,0.5,7.6,M,44.0,M,,*65
2097271BD911_$GPGGA,084005.00,5706.759935,N,00835.301122,E,1,08,0.5,7.6,M,44.0,M,,*64
2097271BD911_$GPGGA,084006.00,5706.759935,N,00835.301121,E,1,08,0.5,7.6,M,44.0,M,,*64
2097271BD911_$GPGGA,084007.00,5706.759935,N,00835.301121,E,1,08,0.5,7.6,M,44.0,M,,*65
2097271BD911_$GPGGA,084008.00,5706.759938,N,00835.301124,E,1,08,0.5,7.6,M,44.0,M,,*62
2097271BD911_$GPGGA,084009.00,5706.759942,N,00835.301129,E,1,08,0.5,7.6,M,44.0,M,,*63
2097271BD911_$GPGGA,084010.00,5706.759947,N,00835.301136,E,1,08,0.5,7.6,M,44.0,M,,*60
2097271BD911_$GPGGA,084011.00,5706.759949,N,00835.301139,E,1,08,0.5,7.6,M,44.0,M,,*60
2097271BD911_$GPGGA,084012.00,5706.759953,N,00835.301143,E,1,08,0.5,7.6,M,44.0,M,,*65
2097271BD911_$GPGGA,084013.00,5706.759957,N,00835.301149,E,1,08,0.5,7.6,M,44.0,M,,*6A
2097271BD911_$GPGGA,084014.00,5706.759961,N,00835.301154,E,1,08,0.5,7.6,M,44.0,M,,*64
2097271BD911_$GPGGA,084015.00,5706.759965,N,00835.301160,E,1,08,0.5,7.7,M,44.0,M,,*67
2097271BD911_$GPGGA,084016.00,5706.759970,N,00835.301167,E,1,08,0.5,7.7,M,44.0,M,,*67
2097271BD911_$GPGGA,084017.00,5706.759975,N,00835.301173,E,1,08,0.5,7.7,M,44.0,M,,*66
2097271BD911_$GPGGA,084018.00,5706.759979,N,00835.301179,E,1,09,0.5,7.7,M,44.0,M,,*6E
2097271BD911_$GPGGA,084019.00,5706.759983,N,00835.301185,E,1,09,0.5,7.7,M,44.0,M,,*69
2097271BD911_$GPGGA,084020.00,5706.759987,N,00835.301190,E,1,09,0.5,7.7,M,44.0,M,,*63
2097271BD911_$GPGGA,084021.00,5706.759989,N,00835.301194,E,1,09,0.5,7.7,M,44.0,M,,*68
2097271BD911_$GPGGA,084022.00,5706.759992,N,00835.301196,E,1,09,0.5,7.7,M,44.0,M,,*63
2097271BD911_$GPGGA,084023.00,5706.759993,N,00835.301198,E,1,09,0.5,7.7,M,44.0,M,,*6D
2097271BD911_$GPGGA,084024.00,5706.759995,N,00835.301200,E,1,09,0.5,7.7,M,44.0,M,,*6E
2097271BD911_$GPGGA,084025.00,5706.759995,N,00835.301201,E,1,09,0.5,7.7,M,44.0,M,,*6E
2097271BD911_$GPGGA,084026.00,5706.759996,N,00835.301201,E,1,09,0.5,7.7,M,44.0,M,,*6E
2097271BD911_$GPGGA,084027.00,5706.759997,N,00835.301202,E,1,09,0.5,7.7,M,44.0,M,,*6D
2097271BD911_$GPGGA,084028.00,5706.759997,N,00835.301202,E,1,09,0.5,7.7,M,44.0,M,,*62
2097271BD911_$GPGGA,084029.00,5706.759998,N,00835.301203,E,1,09,0.5,7.7,M,44.0,M,,*6D
2097271BD911_$GPGGA,084030.00,5706.759998,N,00835.301203,E,1,09,0.5,7.7,M,44.0,M,,*65
2097271BD911_$GPGGA,084031.00,5706.759999,N,00835.301203,E,1,09,0.5,7.7,M,44.0,M,,*65
2097271BD911_$GPGGA,084032.00,5706.759999,N,00835.301203,E,1,09,0.5,7.7,M,44.0,M,,*66
2097271BD911_$GPGGA,084033.00,5706.759999,N,00835.301203,E,1,09,0.5,7.7,M,44.0,M,,*67
2097271BD911_$GPGGA,084034.00,5706.760000,N,00835.301203,E,1,09,0.5,7.7,M,44.0,M,,*63
2097271BD911_$GPGGA,084035.00,5706.760000,N,00835.301203,E,1,09,0.5,7.7,M,44.0,M,,*62
2097271BD911_$GPGGA,084036.00,5706.760000,N,00835.301203,E,1,09,0.5,7.7,M,44.0,M,,*61
2097271BD911_$GPGGA,084037.00,5706.760000,N,00835.301203,E,1,09,0.5,7.7,M,44.0,M,,*60
2097271BD911_$GPGGA,084038.00,5706.760000,N,00835.301203,E,1,09,0.5,7.7,M,44.0,M,,*6F
2097271BD911_$GPGGA,084039.00,5706.760000,N,00835.301203,E,1,09,0.5,7.7,M,44.0,M,,*6E
2097271BD911_$GPGGA,084040.00,5706.760000,N,00835.301202,E,1,09,0.5,7.7,M,44.0,M,,*61
2097271BD911_$GPGGA,084041.00,5706.760000,N,00835.301202,E,1,09,0.5,7.7,M,44.0,M,,*60
2097271BD911_$GPGGA,084042.00,5706.760000,N,00835.301202,E,1,09,0.5,7.7,M,44.0,M,,*63
2097271BD911_$GPGGA,084043.00,5706.760001,N,00835.301201,E,1,09,0.5,7.7,M,44.0,M,,*60
2097271BD911_$GPGGA,084044.00,5706.760001,N,00835.301201,E,1,09,0.5,7.7,M,44.0,M,,*67
2097271BD911_$GPGGA,084045.00,5706.760001,N,00835.301201,E,1,09,0.5,7.7,M,44.0,M,,*66
2097271BD911_$GPGGA,084046.00,5706.760001,N,00835.301201,E,1,09,0.5,7.7,M,44.0,M,,*65
2097271BD911_$GPGGA,084047.00,5706.760002,N,00835.301201,E,1,09,0.5,7.7,M,44.0,M,,*67
2097271BD911_$GPGGA,084048.00,5706.760002,N,00835.301201,E,1,09,0.5,7.7,M,44.0,M,,*68
2097271BD911_$GPGGA,084049.00,5706.760002,N,00835.301201,E,1,09,0.5,7.7,M,44.0,M,,*69
2097271BD911_$GPGGA,084050.00,5706.760002,N,00835.301200,E,1,09,0.5,7.7,M,44.0,M,,*60
2097271BD911_$GPGGA,084051.00,5706.760002,N,00835.301200,E,1,09,0.5,7.8,M,44.0,M,,*6E
2097271BD911_$GPGGA,084052.00,5706.760002,N,00835.301200,E,1,09,0.5,7.7,M,44.0,M,,*62
2097271BD911_$GPGGA,084053.00,5706.760002,N,00835.301199,E,1,09,0.5,7.7,M,44.0,M,,*60
2097271BD911_$GPGGA,084054.00,5706.760002,N,00835.301199,E,1,09,0.5,7.7,M,44.0,M,,*67
2097271BD911_$GPGGA,084055.00,5706.760002,N,00835.301199,E,1,09,0.5,7.7,M,44.0,M,,*66
2097271BD911_$GPGGA,084056.00,5706.760002,N,00835.301199,E,1,09,0.5,7.7,M,44.0,M,,*65
2097271BD911_$GPGGA,084057.00,5706.760002,N,00835.301198,E,1,09,0.5,7.7,M,44.0,M,,*65
2097271BD911_$GPGGA,084058.00,5706.760002,N,00835.301198,E,1,09,0.5,7.7,M,44.0,M,,*6A
2097271BD911_$GPGGA,084059.00,5706.760002,N,00835.301198,E,1,09,0.5,7.7,M,44.0,M,,*6B
2097271BD911_$GPGGA,084100.00,5706.760003,N,00835.301198,E,1,09,0.5,7.7,M,44.0,M,,*67
2097271BD911_$GPGGA,084101.00,5706.760003,N,00835.301198,E,1,09,0.5,7.7,M,44.0,M,,*66
2097271BD911_$GPGGA,084102.00,5706.760003,N,00835.301198,E,1,09,0.5,7.7,M,44.0,M,,*65
2097271BD911_$GPGGA,084103.00,5706.760003,N,00835.301198,E,1,09,0.5,7.7,M,44.0,M,,*64
2097271BD911_$GPGGA,084104.00,5706.760003,N,00835.301198,E,1,09,0.5,7.7,M,44.0,M,,*63
2097271BD911_$GPGGA,084105.00,5706.760003,N,00835.301198,E,1,09,0.5,7.7,M,44.0,M,,*62
2097271BD911_$GPGGA,084106.00,5706.760003,N,00835.301198,E,1,09,0.5,7.7,M,44.0,M,,*61
2097271BD911_$GPGGA,084107.00,5706.760003,N,00835.301198,E,1,09,0.5,7.7,M,44.0,M,,*60
2097271BD911_$GPGGA,084108.00,5706.760004,N,00835.301198,E,1,09,0.5,7.7,M,44.0,M,,*68
2097271BD911_$GPGGA,084109.00,5706.760004,N,00835.301198,E,1,09,0.5,7.7,M,44.0,M,,*69
2097271BD911_$GPGGA,084110.00,5706.760004,N,00835.301198,E,1,09,0.5,7.7,M,44.0,M,,*61
2097271BD911_$GPGGA,084111.00,5706.760005,N,00835.301199,E,1,09,0.5,7.7,M,44.0,M,,*60
2097271BD911_$GPGGA,084112.00,5706.760005,N,00835.301199,E,1,09,0.5,7.7,M,44.0,M,,*63
2097271BD911_$GPGGA,084113.00,5706.760005,N,00835.301199,E,1,09,0.5,7.7,M,44.0,M,,*62
2097271BD911_$GPGGA,084114.00,5706.760006,N,00835.301200,E,1,09,0.5,7.7,M,44.0,M,,*65
2097271BD911_$GPGGA,084115.00,5706.760006,N,00835.301200,E,1,09,0.5,7.7,M,44.0,M,,*64
2097271BD911_$GPGGA,084116.00,5706.760006,N,00835.301200,E,1,09,0.5,7.7,M,44.0,M,,*67
2097271BD911_$GPGGA,084117.00,5706.760006,N,00835.301200,E,1,09,0.5,7.7,M,44.0,M,,*66
2097271BD911_$GPGGA,084118.00,5706.760006,N,00835.301200,E,1,09,0.5,7.7,M,44.0,M,,*69
2097271BD911_$GPGGA,084119.00,5706.760006,N,00835.301200,E,1,09,0.5,7.7,M,44.0,M,,*68
2097271BD911_$GPGGA,084120.00,5706.760007,N,00835.301200,E,1,09,0.5,7.7,M,44.0,M,,*63
2097271BD911_$GPGGA,084121.00,5706.760007,N,00835.301200,E,1,09,0.5,7.7,M,44.0,M,,*62
2097271BD911_$GPGGA,084122.00,5706.760007,N,00835.301200,E,1,09,0.5,7.7,M,44.0,M,,*61
2097271BD911_$GPGGA,084123.00,5706.760007,N,00835.301199,E,1,09,0.5,7.7,M,44.0,M,,*63
2097271BD911_$GPGGA,084124.00,5706.760008,N,00835.301199,E,1,09,0.5,7.7,M,44.0,M,,*6B
2097271BD911_$GPGGA,084125.00,5706.760008,N,00835.301199,E,1,09,0.5,7.7,M,44.0,M,,*6A
2097271BD911_$GPGGA,084126.00,5706.760008,N,00835.301199,E,1,09,0.5,7.8,M,44.0,M,,*66
2097271BD911_$GPGGA,084127.00,5706.760009,N,00835.301199,E,1,09,0.5,7.8,M,44.0,M,,*66
2097271BD911_$GPGGA,084128.00,5706.760009,N,00835.301198,E,1,09,0.5,7.8,M,44.0,M,,*68
2097271BD911_$GPGGA,084129.00,5706.760009,N,00835.301198,E,1,09,0.5,7.8,M,44.0,M,,*69
2097271BD911_$GPGGA,084130.00,5706.760010,N,00835.301198,E,1,09,0.5,7.8,M,44.0,M,,*69
2097271BD911_$GPGGA,084131.00,5706.760010,N,00835.301198,E,1,09,0.5,7.8,M,44.0,M,,*68
2097271BD911_$GPGGA,084132.00,5706.760010,N,00835.301198,E,1,09,0.5,7.8,M,44.0,M,,*6B
2097271BD911_$GPGGA,084133.00,5706.760011,N,00835.301197,E,1,09,0.5,7.8,M,44.0,M,,*64
2097271BD911_$GPGGA,084134.00,5706.760011,N,00835.301197,E,1,09,0.5,7.8,M,44.0,M,,*63
2097271BD911_$GPGGA,084135.00,5706.760011,N,00835.301196,E,1,09,0.5,7.8,M,44.0,M,,*63
2097271BD911_$GPGGA,084136.00,5706.760012,N,00835.301196,E,1,09,0.5,7.8,M,44.0,M,,*63
2097271BD911_$GPGGA,084137.00,5706.760012,N,00835.301196,E,1,09,0.5,7.8,M,44.0,M,,*62
2097271BD911_$GPGGA,084138.00,5706.760013,N,00835.301196,E,1,09,0.5,7.8,M,44.0,M,,*6C
2097271BD911_$GPGGA,084139.00,5706.760013,N,00835.301195,E,1,09,0.5,7.8,M,44.0,M,,*6E
2097271BD911_$GPGGA,084140.00,5706.760014,N,00835.301195,E,1,09,0.5,7.8,M,44.0,M,,*67
2097271BD911_$GPGGA,084141.00,5706.760014,N,00835.301195,E,1,09,0.5,7.8,M,44.0,M,,*66
2097271BD911_$GPGGA,084142.00,5706.760014,N,00835.301195,E,1,09,0.5,7.8,M,44.0,M,,*65
2097271BD911_$GPGGA,084143.00,5706.760015,N,00835.301194,E,1,09,0.5,7.8,M,44.0,M,,*64
2097271BD911_$GPGGA,084144.00,5706.760015,N,00835.301194,E,1,09,0.5,7.8,M,44.0,M,,*63
2097271BD911_$GPGGA,084145.00,5706.760016,N,00835.301193,E,1,09,0.5,7.8,M,44.0,M,,*66
2097271BD911_$GPGGA,084146.00,5706.760016,N,00835.301193,E,1,09,0.5,7.8,M,44.0,M,,*65
2097271BD911_$GPGGA,084147.00,5706.760016,N,00835.301192,E,1,09,0.5,7.8,M,44.0,M,,*65
2097271BD911_$GPGGA,084148.00,5706.760017,N,00835.301192,E,1,09,0.5,7.8,M,44.0,M,,*6B
2097271BD911_$GPGGA,084149.00,5706.760017,N,00835.301191,E,1,09,0.5,7.8,M,44.0,M,,*69
2097271BD911_$GPGGA,084150.00,5706.760018,N,00835.301191,E,1,09,0.5,7.8,M,44.0,M,,*6E
2097271BD911_$GPGGA,084151.00,5706.760018,N,00835.301191,E,1,09,0.5,7.8,M,44.0,M,,*6F
2097271BD911_$GPGGA,084152.00,5706.760018,N,00835.301190,E,1,09,0.5,7.8,M,44.0,M,,*6D
2097271BD911_$GPGGA,084153.00,5706.760019,N,00835.301190,E,1,09,0.5,7.8,M,44.0,M,,*6D
2097271BD911_$GPGGA,084154.00,5706.760019,N,00835.301190,E,1,09,0.5,7.8,M,44.0,M,,*6A
2097271BD911_$GPGGA,084155.00,5706.760019,N,00835.301189,E,1,09,0.5,7.8,M,44.0,M,,*63
2097271BD911_$GPGGA,084156.00,5706.760020,N,00835.301189,E,1,08,0.5,7.8,M,44.0,M,,*6B
2097271BD911_$GPGGA,084157.00,5706.760020,N,00835.301188,E,1,08,0.5,7.8,M,44.0,M,,*6B
2097271BD911_$GPGGA,084158.00,5706.760020,N,00835.301187,E,1,08,0.5,7.8,M,44.0,M,,*6B
2097271BD911_$GPGGA,084159.00,5706.760020,N,00835.301186,E,1,08,0.5,7.8,M,44.0,M,,*6B
2097271BD911_$GPGGA,084200.00,5706.760020,N,00835.301186,E,1,08,0.5,7.8,M,44.0,M,,*64
2097271BD911_$GPGGA,084201.00,5706.760020,N,00835.301185,E,1,08,0.5,7.8,M,44.0,M,,*66
2097271BD911_$GPGGA,084202.00,5706.760020,N,00835.301184,E,1,08,0.5,7.8,M,44.0,M,,*64
2097271BD911_$GPGGA,084203.00,5706.760020,N,00835.301183,E,1,08,0.5,7.8,M,44.0,M,,*62
2097271BD911_$GPGGA,084204.00,5706.760021,N,00835.301183,E,1,08,0.5,7.8,M,44.0,M,,*64
2097271BD911_$GPGGA,084205.00,5706.760021,N,00835.301182,E,1,08,0.5,7.8,M,44.0,M,,*64
2097271BD911_$GPGGA,084206.00,5706.760021,N,00835.301181,E,1,08,0.5,7.8,M,44.0,M,,*64
2097271BD911_$GPGGA,084207.00,5706.760021,N,00835.301181,E,1,08,0.5,7.8,M,44.0,M,,*65
2097271BD911_$GPGGA,084208.00,5706.760021,N,00835.301180,E,1,08,0.5,7.8,M,44.0,M,,*6B
2097271BD911_$GPGGA,084209.00,5706.760021,N,00835.301179,E,1,08,0.5,7.8,M,44.0,M,,*6C
2097271BD911_$GPGGA,084210.00,5706.760021,N,00835.301179,E,1,08,0.5,7.8,M,44.0,M,,*64
2097271BD911_$GPGGA,084211.00,5706.760021,N,00835.301178,E,1,08,0.5,7.8,M,44.0,M,,*64
2097271BD911_$GPGGA,084212.00,5706.760021,N,00835.301177,E,1,08,0.5,7.8,M,44.0,M,,*68
2097271BD911_$GPGGA,084213.00,5706.760021,N,00835.301176,E,1,08,0.5,7.8,M,44.0,M,,*68
2097271BD911_$GPGGA,084214.00,5706.760020,N,00835.301175,E,1,08,0.5,7.8,M,44.0,M,,*6D
2097271BD911_$GPGGA,084215.00,5706.760021,N,00835.301175,E,1,08,0.5,7.8,M,44.0,M,,*6D
2097271BD911_$GPGGA,084216.00,5706.760021,N,00835.301175,E,1,08,0.5,7.8,M,44.0,M,,*6E
2097271BD911_$GPGGA,084217.00,5706.760021,N,00835.301175,E,1,08,0.5,7.8,M,44.0,M,,*6F
2097271BD911_$GPGGA,084218.00,5706.760021,N,00835.301175,E,1,08,0.5,7.8,M,44.0,M,,*60
2097271BD911_$GPGGA,084219.00,5706.760021,N,00835.301175,E,1,08,0.5,7.8,M,44.0,M,,*61
2097271BD911_$GPGGA,084220.00,5706.760021,N,00835.301175,E,1,08,0.5,7.8,M,44.0,M,,*6B
2097271BD911_$GPGGA,084221.00,5706.760021,N,00835.301174,E,1,08,0.5,7.8,M,44.0,M,,*6B
2097271BD911_$GPGGA,084222.00,5706.760021,N,00835.301174,E,1,08,0.5,7.8,M,44.0,M,,*68
2097271BD911_$GPGGA,084223.00,5706.760021,N,00835.301174,E,1,08,0.5,7.8,M,44.0,M,,*69
2097271BD911_$GPGGA,084224.00,5706.760022,N,00835.301174,E,1,08,0.5,7.8,M,44.0,M,,*6D
2097271BD911_$GPGGA,084225.00,5706.760022,N,00835.301173,E,1,08,0.5,7.8,M,44.0,M,,*6B
2097271BD911_$GPGGA,084226.00,5706.760022,N,00835.301173,E,1,08,0.5,7.8,M,44.0,M,,*68
2097271BD911_$GPGGA,084227.00,5706.760022,N,00835.301174,E,1,08,0.5,7.8,M,44.0,M,,*6E
2097271BD911_$GPGGA,084228.00,5706.760023,N,00835.301174,E,1,08,0.5,7.8,M,44.0,M,,*60
2097271BD911_$GPGGA,084229.00,5706.760023,N,00835.301174,E,1,08,0.5,7.8,M,44.0,M,,*61
2097271BD911_$GPGGA,084230.00,5706.760023,N,00835.301174,E,1,08,0.5,7.8,M,44.0,M,,*69
2097271BD911_$GPGGA,084231.00,5706.760023,N,00835.301175,E,1,08,0.5,7.8,M,44.0,M,,*69
2097271BD911_$GPGGA,084232.00,5706.760024,N,00835.301175,E,1,08,0.5,7.8,M,44.0,M,,*6D
2097271BD911_$GPGGA,084233.00,5706.760024,N,00835.301176,E,1,08,0.5,7.8,M,44.0,M,,*6F
2097271BD911_$GPGGA,084234.00,5706.760024,N,00835.301176,E,1,08,0.5,7.8,M,44.0,M,,*68
2097271BD911_$GPGGA,084235.00,5706.760025,N,00835.301176,E,1,08,0.5,7.8,M,44.0,M,,*68
2097271BD911_$GPGGA,084236.00,5706.760025,N,00835.301177,E,1,08,0.5,7.8,M,44.0,M,,*6A
2097271BD911_$GPGGA,084237.00,5706.760025,N,00835.301177,E,1,08,0.5,7.8,M,44.0,M,,*6B
2097271BD911_$GPGGA,084238.00,5706.760025,N,00835.301177,E,1,08,0.5,7.8,M,44.0,M,,*64
2097271BD911_$GPGGA,084239.00,5706.760026,N,00835.301177,E,1,08,0.5,7.8,M,44.0,M,,*66
2097271BD911_$GPGGA,084240.00,5706.760026,N,00835.301177,E,1,08,0.5,7.8,M,44.0,M,,*68
2097271BD911_$GPGGA,084241.00,5706.760026,N,00835.301178,E,1,08,0.5,7.8,M,44.0,M,,*66
2097271BD911_$GPGGA,084242.00,5706.760027,N,00835.301178,E,1,08,0.5,7.8,M,44.0,M,,*64
2097271BD911_$GPGGA,084243.00,5706.760027,N,00835.301179,E,1,08,0.5,7.8,M,44.0,M,,*64
2097271BD911_$GPGGA,084244.00,5706.760028,N,00835.301180,E,1,08,0.5,7.8,M,44.0,M,,*6A
2097271BD911_$GPGGA,084245.00,5706.760028,N,00835.301181,E,1,08,0.5,7.8,M,44.0,M,,*6A
2097271BD911_$GPGGA,084246.00,5706.760028,N,00835.301181,E,1,08,0.5,7.8,M,44.0,M,,*69
2097271BD911_$GPGGA,084247.00,5706.760029,N,00835.301182,E,1,08,0.5,7.8,M,44.0,M,,*6A
2097271BD911_$GPGGA,084248.00,5706.760029,N,00835.301182,E,1,08,0.5,7.8,M,44.0,M,,*65
2097271BD911_$GPGGA,084249.00,5706.760029,N,00835.301183,E,1,08,0.5,7.8,M,44.0,M,,*65
2097271BD911_$GPGGA,084250.00,5706.760029,N,00835.301183,E,1,08,0.5,7.8,M,44.0,M,,*6D
2097271BD911_$GPGGA,084251.00,5706.760030,N,00835.301183,E,1,08,0.5,7.8,M,44.0,M,,*64
2097271BD911_$GPGGA,084252.00,5706.760030,N,00835.301183,E,1,08,0.5,7.8,M,44.0,M,,*67
2097271BD911_$GPGGA,084253.00,5706.760030,N,00835.301183,E,1,08,0.5,7.8,M,44.0,M,,*66
2097271BD911_$GPGGA,084254.00,5706.760030,N,00835.301184,E,1,08,0.5,7.8,M,44.0,M,,*66
2097271BD911_$GPGGA,084255.00,5706.760031,N,00835.301184,E,1,08,0.5,7.8,M,44.0,M,,*66
2097271BD911_$GPGGA,084256.00,5706.760031,N,00835.301184,E,1,08,0.5,7.8,M,44.0,M,,*65
2097271BD911_$GPGGA,084257.00,5706.760031,N,00835.301184,E,1,08,0.5,7.8,M,44.0,M,,*64
2097271BD911_$GPGGA,084258.00,5706.760032,N,00835.301185,E,1,08,0.5,7.8,M,44.0,M,,*69
2097271BD911_$GPGGA,084259.00,5706.760032,N,00835.301185,E,1,08,0.5,7.8,M,44.0,M,,*68
2097271BD911_$GPGGA,084300.00,5706.760032,N,00835.301186,E,1,08,0.5,7.8,M,44.0,M,,*66
2097271BD911_$GPGGA,084301.00,5706.760033,N,00835.301186,E,1,08,0.5,7.8,M,44.0,M,,*66
2097271BD911_$GPGGA,084302.00,5706.760033,N,00835.301186,E,1,08,0.5,7.8,M,44.0,M,,*65
2097271BD911_$GPGGA,084303.00,5706.760033,N,00835.301186,E,1,08,0.5,7.8,M,44.0,M,,*64
2097271BD911_$GPGGA,084304.00,5706.760033,N,00835.301186,E,1,08,0.5,7.8,M,44.0,M,,*63
2097271BD911_$GPGGA,084305.00,5706.760034,N,00835.301186,E,1,08,0.5,7.8,M,44.0,M,,*65
2097271BD911_$GPGGA,084306.00,5706.760034,N,00835.301186,E,1,08,0.5,7.8,M,44.0,M,,*66
2097271BD911_$GPGGA,084307.00,5706.760034,N,00835.301186,E,1,08,0.5,7.8,M,44.0,M,,*67
2097271BD911_$GPGGA,084308.00,5706.760034,N,00835.301186,E,1,08,0.5,7.8,M,44.0,M,,*68
2097271BD911_$GPGGA,084309.00,5706.760034,N,00835.301186,E,1,08,0.5,7.8,M,44.0,M,,*69
2097271BD911_$GPGGA,084310.00,5706.760035,N,00835.301186,E,1,08,0.5,7.8,M,44.0,M,,*60
2097271BD911_$GPGGA,084311.00,5706.760035,N,00835.301185,E,1,08,0.5,7.8,M,44.0,M,,*62
2097271BD911_$GPGGA,084312.00,5706.760035,N,00835.301185,E,1,08,0.5,7.8,M,44.0,M,,*61
2097271BD911_$GPGGA,084313.00,5706.760035,N,00835.301185,E,1,08,0.5,7.8,M,44.0,M,,*60
2097271BD911_$GPGGA,084314.00,5706.760035,N,00835.301184,E,1,08,0.5,7.8,M,44.0,M,,*66
2097271BD911_$GPGGA,084315.00,5706.760035,N,00835.301184,E,1,08,0.5,7.8,M,44.0,M,,*67
2097271BD911_$GPGGA,084316.00,5706.760035,N,00835.301184,E,1,08,0.5,7.7,M,44.0,M,,*6B
2097271BD911_$GPGGA,084317.00,5706.760036,N,00835.301183,E,1,08,0.5,7.7,M,44.0,M,,*6E
2097271BD911_$GPGGA,084318.00,5706.760036,N,00835.301183,E,1,08,0.5,7.7,M,44.0,M,,*61
2097271BD911_$GPGGA,084319.00,5706.760036,N,00835.301182,E,1,08,0.5,7.7,M,44.0,M,,*61
2097271BD911_$GPGGA,084320.00,5706.760036,N,00835.301182,E,1,08,0.5,7.7,M,44.0,M,,*6B
2097271BD911_$GPGGA,084321.00,5706.760036,N,00835.301182,E,1,08,0.5,7.7,M,44.0,M,,*6A
2097271BD911_$GPGGA,084322.00,5706.760036,N,00835.301182,E,1,08,0.5,7.7,M,44.0,M,,*69
2097271BD911_$GPGGA,084323.00,5706.760037,N,00835.301182,E,1,08,0.5,7.7,M,44.0,M,,*69
2097271BD911_$GPGGA,084324.00,5706.760037,N,00835.301181,E,1,08,0.5,7.7,M,44.0,M,,*6D
2097271BD911_$GPGGA,084325.00,5706.760037,N,00835.301181,E,1,08,0.5,7.7,M,44.0,M,,*6C
2097271BD911_$GPGGA,084326.00,5706.760037,N,00835.301181,E,1,08,0.5,7.7,M,44.0,M,,*6F
2097271BD911_$GPGGA,084327.00,5706.760038,N,00835.301181,E,1,08,0.5,7.7,M,44.0,M,,*61
2097271BD911_$GPGGA,084328.00,5706.760038,N,00835.301181,E,1,08,0.5,7.7,M,44.0,M,,*6E
2097271BD911_$GPGGA,084329.00,5706.760038,N,00835.301181,E,1,08,0.5,7.7,M,44.0,M,,*6F
2097271BD911_$GPGGA,084330.00,5706.760039,N,00835.301181,E,1,08,0.5,7.7,M,44.0,M,,*66
2097271BD911_$GPGGA,084331.00,5706.760039,N,00835.301181,E,1,08,0.5,7.7,M,44.0,M,,*67
2097271BD911_$GPGGA,084332.00,5706.760040,N,00835.301181,E,1,08,0.5,7.7,M,44.0,M,,*6A
2097271BD911_$GPGGA,084333.00,5706.760040,N,00835.301181,E,1,08,0.5,7.7,M,44.0,M,,*6B
2097271BD911_$GPGGA,084334.00,5706.760041,N,00835.301181,E,1,08,0.5,7.7,M,44.0,M,,*6D
2097271BD911_$GPGGA,084335.00,5706.760041,N,00835.301181,E,1,08,0.5,7.7,M,44.0,M,,*6C
2097271BD911_$GPGGA,084336.00,5706.760041,N,00835.301181,E,1,08,0.5,7.7,M,44.0,M,,*6F
2097271BD911_$GPGGA,084337.00,5706.760042,N,00835.301180,E,1,08,0.5,7.7,M,44.0,M,,*6C
2097271BD911_$GPGGA,084338.00,5706.760042,N,00835.301180,E,1,08,0.5,7.7,M,44.0,M,,*63
2097271BD911_$GPGGA,084339.00,5706.760042,N,00835.301180,E,1,08,0.5,7.7,M,44.0,M,,*62
2097271BD911_$GPGGA,084340.00,5706.760043,N,00835.301179,E,1,08,0.5,7.7,M,44.0,M,,*6B
2097271BD911_$GPGGA,084341.00,5706.760043,N,00835.301178,E,1,08,0.5,7.7,M,44.0,M,,*6B
2097271BD911_$GPGGA,084342.00,5706.760043,N,00835.301178,E,1,08,0.5,7.7,M,44.0,M,,*68
2097271BD911_$GPGGA,084343.00,5706.760043,N,00835.301178,E,1,08,0.5,7.7,M,44.0,M,,*69
2097271BD911_$GPGGA,084344.00,5706.760044,N,00835.301177,E,1,08,0.5,7.7,M,44.0,M,,*66
2097271BD911_$GPGGA,084345.00,5706.760044,N,00835.301177,E,1,08,0.5,7.7,M,44.0,M,,*67
2097271BD911_$GPGGA,084346.00,5706.760044,N,00835.301177,E,1,08,0.5,7.7,M,44.0,M,,*64
2097271BD911_$GPGGA,084347.00,5706.760044,N,00835.301177,E,1,08,0.5,7.7,M,44.0,M,,*65
2097271BD911_$GPGGA,084348.00,5706.760044,N,00835.301177,E,1,08,0.5,7.7,M,44.0,M,,*6A
2097271BD911_$GPGGA,084349.00,5706.760045,N,00835.301177,E,1,08,0.5,7.7,M,44.0,M,,*6A
2097271BD911_$GPGGA,084350.00,5706.760045,N,00835.301177,E,1,08,0.5,7.7,M,44.0,M,,*62
2097271BD911_$GPGGA,084351.00,5706.760045,N,00835.301177,E,1,08,0.5,7.7,M,44.0,M,,*63
2097271BD911_$GPGGA,084352.00,5706.760045,N,00835.301177,E,1,08,0.5,7.7,M,44.0,M,,*60
2097271BD911_$GPGGA,084353.00,5706.760045,N,00835.301176,E,1,08,0.5,7.7,M,44.0,M,,*60
2097271BD911_$GPGGA,084354.00,5706.760045,N,00835.301176,E,1,08,0.5,7.7,M,44.0,M,,*67
2097271BD911_$GPGGA,084355.00,5706.760046,N,00835.301177,E,1,08,0.5,7.7,M,44.0,M,,*64
2097271BD911_$GPGGA,084356.00,5706.760046,N,00835.301177,E,1,08,0.5,7.7,M,44.0,M,,*67
2097271BD911_$GPGGA,084357.00,5706.760046,N,00835.301177,E,1,08,0.5,7.7,M,44.0,M,,*66
2097271BD911_$GPGGA,084358.00,5706.760047,N,00835.301176,E,1,08,0.5,7.7,M,44.0,M,,*69
2097271BD911_$GPGGA,084359.00,5706.760047,N,00835.301176,E,1,08,0.5,7.7,M,44.0,M,,*68
2097271BD911_$GPGGA,084400.00,5706.760047,N,00835.301176,E,1,08,0.5,7.7,M,44.0,M,,*63
2097271BD911_$GPGGA,084401.00,5706.760047,N,00835.301177,E,1,08,0.5,7.7,M,44.0,M,,*63
2097271BD911_$GPGGA,084402.00,5706.760048,N,00835.301177,E,1,08,0.5,7.7,M,44.0,M,,*6F
2097271BD911_$GPGGA,084403.00,5706.760048,N,00835.301177,E,1,08,0.5,7.7,M,44.0,M,,*6E
2097271BD911_$GPGGA,084404.00,5706.760048,N,00835.301177,E,1,08,0.5,7.7,M,44.0,M,,*69
2097271BD911_$GPGGA,084405.00,5706.760049,N,00835.301177,E,1,08,0.5,7.7,M,44.0,M,,*69
2097271BD911_$GPGGA,084406.00,5706.760049,N,00835.301176,E,1,08,0.5,7.7,M,44.0,M,,*6B
2097271BD911_$GPGGA,084407.00,5706.760049,N,00835.301177,E,1,08,0.5,7.7,M,44.0,M,,*6B
2097271BD911_$GPGGA,084408.00,5706.760049,N,00835.301176,E,1,08,0.5,7.7,M,44.0,M,,*65
2097271BD911_$GPGGA,084409.00,5706.760050,N,00835.301176,E,1,08,0.5,7.7,M,44.0,M,,*6C
2097271BD911_$GPGGA,084410.00,5706.760050,N,00835.301176,E,1,08,0.5,7.7,M,44.0,M,,*64
2097271BD911_$GPGGA,084411.00,5706.760050,N,00835.301176,E,1,08,0.5,7.7,M,44.0,M,,*65
2097271BD911_$GPGGA,084412.00,5706.760050,N,00835.301176,E,1,08,0.5,7.7,M,44.0,M,,*66
2097271BD911_$GPGGA,084413.00,5706.760051,N,00835.301176,E,1,08,0.5,7.7,M,44.0,M,,*66
2097271BD911_$GPGGA,084414.00,5706.760051,N,00835.301175,E,1,08,0.5,7.7,M,44.0,M,,*62
2097271BD911_$GPGGA,084415.00,5706.760051,N,00835.301175,E,1,08,0.5,7.7,M,44.0,M,,*63
2097271BD911_$GPGGA,084416.00,5706.760051,N,00835.301175,E,1,08,0.5,7.7,M,44.0,M,,*60
2097271BD911_$GPGGA,084417.00,5706.760051,N,00835.301174,E,1,08,0.5,7.7,M,44.0,M,,*60
2097271BD911_$GPGGA,084418.00,5706.760052,N,00835.301174,E,1,08,0.5,7.7,M,44.0,M,,*6C
2097271BD911_$GPGGA,084419.00,5706.760052,N,00835.301174,E,1,08,0.5,7.7,M,44.0,M,,*6D
2097271BD911_$GPGGA,084420.00,5706.760052,N,00835.301173,E,1,08,0.5,7.7,M,44.0,M,,*60
2097271BD911_$GPGGA,084421.00,5706.760052,N,00835.301173,E,1,08,0.5,7.7,M,44.0,M,,*61
2097271BD911_$GPGGA,084422.00,5706.760052,N,00835.301172,E,1,08,0.5,7.7,M,44.0,M,,*63
2097271BD911_$GPGGA,084423.00,5706.760052,N,00835.301172,E,1,08,0.5,7.7,M,44.0,M,,*62
2097271BD911_$GPGGA,084424.00,5706.760052,N,00835.301172,E,1,08,0.5,7.8,M,44.0,M,,*6A
2097271BD911_$GPGGA,084425.00,5706.760052,N,00835.301172,E,1,08,0.5,7.8,M,44.0,M,,*6B
2097271BD911_$GPGGA,084426.00,5706.760052,N,00835.301172,E,1,08,0.5,7.8,M,44.0,M,,*68
2097271BD911_$GPGGA,084427.00,5706.760053,N,00835.301172,E,1,08,0.5,7.8,M,44.0,M,,*68
2097271BD911_$GPGGA,084428.00,5706.760053,N,00835.301171,E,1,08,0.5,7.8,M,44.0,M,,*64
2097271BD911_$GPGGA,084429.00,5706.760053,N,00835.301171,E,1,08,0.5,7.8,M,44.0,M,,*65
2097271BD911_$GPGGA,084430.00,5706.760053,N,00835.301171,E,1,08,0.5,7.8,M,44.0,M,,*6D
2097271BD911_$GPGGA,084431.00,5706.760053,N,00835.301170,E,1,08,0.5,7.8,M,44.0,M,,*6D
2097271BD911_$GPGGA,084432.00,5706.760053,N,00835.301170,E,1,08,0.5,7.8,M,44.0,M,,*6E
2097271BD911_$GPGGA,084433.00,5706.760054,N,00835.301170,E,1,08,0.5,7.8,M,44.0,M,,*68
2097271BD911_$GPGGA,084434.00,5706.760054,N,00835.301169,E,1,08,0.5,7.8,M,44.0,M,,*67
2097271BD911_$GPGGA,084435.00,5706.760054,N,00835.301169,E,1,08,0.5,7.8,M,44.0,M,,*66
2097271BD911_$GPGGA,084436.00,5706.760054,N,00835.301168,E,1,08,0.5,7.8,M,44.0,M,,*64
2097271BD911_$GPGGA,084437.00,5706.760054,N,00835.301168,E,1,08,0.5,7.8,M,44.0,M,,*65
2097271BD911_$GPGGA,084438.00,5706.760055,N,00835.301168,E,1,08,0.5,7.8,M,44.0,M,,*6B
2097271BD911_$GPGGA,084439.00,5706.760055,N,00835.301167,E,1,08,0.5,7.8,M,44.0,M,,*65
2097271BD911_$GPGGA,084440.00,5706.760055,N,00835.301167,E,1,08,0.5,7.8,M,44.0,M,,*6B
2097271BD911_$GPGGA,084441.00,5706.760056,N,00835.301166,E,1,08,0.5,7.8,M,44.0,M,,*68
2097271BD911_$GPGGA,084442.00,5706.760056,N,00835.301166,E,1,08,0.5,7.8,M,44.0,M,,*6B
2097271BD911_$GPGGA,084443.00,5706.760056,N,00835.301165,E,1,08,0.5,7.8,M,44.0,M,,*69
2097271BD911_$GPGGA,084444.00,5706.760056,N,00835.301165,E,1,08,0.5,7.8,M,44.0,M,,*6E
2097271BD911_$GPGGA,084445.00,5706.760056,N,00835.301165,E,1,08,0.5,7.8,M,44.0,M,,*6F
2097271BD911_$GPGGA,084446.00,5706.760057,N,00835.301164,E,1,08,0.5,7.8,M,44.0,M,,*6C
2097271BD911_$GPGGA,084447.00,5706.760057,N,00835.301164,E,1,08,0.5,7.8,M,44.0,M,,*6D
2097271BD911_$GPGGA,084448.00,5706.760057,N,00835.301163,E,1,08,0.5,7.8,M,44.0,M,,*65
2097271BD911_$GPGGA,084449.00,5706.760057,N,00835.301163,E,1,08,0.5,7.8,M,44.0,M,,*64
2097271BD911_$GPGGA,084450.00,5706.760057,N,00835.301162,E,1,08,0.5,7.8,M,44.0,M,,*6D
2097271BD911_$GPGGA,084451.00,5706.760057,N,00835.301162,E,1,08,0.5,7.8,M,44.0,M,,*6C
2097271BD911_$GPGGA,084452.00,5706.760057,N,00835.301161,E,1,08,0.5,7.8,M,44.0,M,,*6C
2097271BD911_$GPGGA,084453.00,5706.760058,N,00835.301161,E,1,08,0.5,7.8,M,44.0,M,,*62
2097271BD911_$GPGGA,084454.00,5706.760058,N,00835.301160,E,1,08,0.5,7.8,M,44.0,M,,*64
2097271BD911_$GPGGA,084455.00,5706.760058,N,00835.301160,E,1,08,0.5,7.8,M,44.0,M,,*65
2097271BD911_$GPGGA,084456.00,5706.760058,N,00835.301159,E,1,08,0.5,7.8,M,44.0,M,,*6C
2097271BD911_$GPGGA,084457.00,5706.760059,N,00835.301159,E,1,08,0.5,7.8,M,44.0,M,,*6C
2097271BD911_$GPGGA,084458.00,5706.760059,N,00835.301159,E,1,08,0.5,7.8,M,44.0,M,,*63
2097271BD911_$GPGGA,084459.00,5706.760059,N,00835.301158,E,1,08,0.5,7.8,M,44.0,M,,*63
2097271BD911_$GPGGA,084500.00,5706.760059,N,00835.301158,E,1,08,0.5,7.8,M,44.0,M,,*6E
2097271BD911_$GPGGA,084501.00,5706.760059,N,00835.301158,E,1,08,0.5,7.8,M,44.0,M,,*6F
2097271BD911_$GPGGA,084502.00,5706.760059,N,00835.301157,E,1,08,0.5,7.8,M,44.0,M,,*63
2097271BD911_$GPGGA,084503.00,5706.760060,N,00835.301157,E,1,08,0.5,7.8,M,44.0,M,,*68
2097271BD911_$GPGGA,084504.00,5706.760060,N,00835.301157,E,1,08,0.5,7.8,M,44.0,M,,*6F
2097271BD911_$GPGGA,084505.00,5706.760060,N,00835.301157,E,1,08,0.5,7.8,M,44.0,M,,*6E
2097271BD911_$GPGGA,084506.00,5706.760060,N,00835.301156,E,1,08,0.5,7.8,M,44.0,M,,*6C
2097271BD911_$GPGGA,084507.00,5706.760060,N,00835.301156,E,1,08,0.5,7.8,M,44.0,M,,*6D
2097271BD911_$GPGGA,084508.00,5706.760061,N,00835.301156,E,1,08,0.5,7.8,M,44.0,M,,*63
2097271BD911_$GPGGA,084509.00,5706.760061,N,00835.301155,E,1,08,0.5,7.8,M,44.0,M,,*61
2097271BD911_$GPGGA,084510.00,5706.760061,N,00835.301155,E,1,08,0.5,7.8,M,44.0,M,,*69
2097271BD911_$GPGGA,084511.00,5706.760061,N,00835.301155,E,1,08,0.5,7.8,M,44.0,M,,*68
2097271BD911_$GPGGA,084512.00,5706.760061,N,00835.301154,E,1,08,0.5,7.8,M,44.0,M,,*6A
2097271BD911_$GPGGA,084513.00,5706.760061,N,00835.301154,E,1,08,0.5,7.8,M,44.0,M,,*6B
2097271BD911_$GPGGA,084514.00,5706.760061,N,00835.301153,E,1,08,0.5,7.8,M,44.0,M,,*6B
2097271BD911_$GPGGA,084515.00,5706.760061,N,00835.301153,E,1,08,0.5,7.8,M,44.0,M,,*6A
2097271BD911_$GPGGA,084516.00,5706.760061,N,00835.301152,E,1,08,0.5,7.8,M,44.0,M,,*68
2097271BD911_$GPGGA,084517.00,5706.760062,N,00835.301152,E,1,08,0.5,7.8,M,44.0,M,,*6A
2097271BD911_$GPGGA,084518.00,5706.760062,N,00835.301151,E,1,08,0.5,7.8,M,44.0,M,,*66
2097271BD911_$GPGGA,084519.00,5706.760062,N,00835.301151,E,1,08,0.5,7.8,M,44.0,M,,*67
2097271BD911_$GPGGA,084520.00,5706.760062,N,00835.301151,E,1,08,0.5,7.8,M,44.0,M,,*6D
2097271BD911_$GPGGA,084521.00,5706.760063,N,00835.301150,E,1,08,0.5,7.8,M,44.0,M,,*6C
2097271BD911_$GPGGA,084522.00,5706.760063,N,00835.301150,E,1,08,0.5,7.8,M,44.0,M,,*6F
2097271BD911_$GPGGA,084523.00,5706.760063,N,00835.301149,E,1,08,0.5,7.8,M,44.0,M,,*66
2097271BD911_$GPGGA,084524.00,5706.760062,N,00835.301149,E,1,08,0.5,7.8,M,44.0,M,,*60
2097271BD911_$GPGGA,084525.00,5706.760062,N,00835.301149,E,1,08,0.5,7.8,M,44.0,M,,*61
2097271BD911_$GPGGA,084526.00,5706.760062,N,00835.301149,E,1,08,0.5,7.8,M,44.0,M,,*62
2097271BD911_$GPGGA,084527.00,5706.760062,N,00835.301148,E,1,08,0.5,7.8,M,44.0,M,,*62
2097271BD911_$GPGGA,084528.00,5706.760063,N,00835.301148,E,1,08,0.5,7.8,M,44.0,M,,*6C
2097271BD911_$GPGGA,084529.00,5706.760062,N,00835.301148,E,1,08,0.5,7.8,M,44.0,M,,*6C
2097271BD911_$GPGGA,084530.00,5706.760063,N,00835.301148,E,1,08,0.5,7.8,M,44.0,M,,*65
2097271BD911_$GPGGA,084531.00,5706.760063,N,00835.301148,E,1,08,0.5,7.8,M,44.0,M,,*64
2097271BD911_$GPGGA,084532.00,5706.760063,N,00835.301147,E,1,08,0.5,7.8,M,44.0,M,,*68
2097271BD911_$GPGGA,084533.00,5706.760063,N,00835.301147,E,1,08,0.5,7.8,M,44.0,M,,*69
2097271BD911_$GPGGA,084534.00,5706.760063,N,00835.301147,E,1,08,0.5,7.8,M,44.0,M,,*6E
2097271BD911_$GPGGA,084535.00,5706.760063,N,00835.301147,E,1,08,0.5,7.8,M,44.0,M,,*6F
2097271BD911_$GPGGA,084536.00,5706.760063,N,00835.301147,E,1,08,0.5,7.8,M,44.0,M,,*6C
2097271BD911_$GPGGA,084537.00,5706.760063,N,00835.301146,E,1,08,0.5,7.8,M,44.0,M,,*6C
2097271BD911_$GPGGA,084538.00,5706.760063,N,00835.301146,E,1,08,0.5,7.8,M,44.0,M,,*63
2097271BD911_$GPGGA,084539.00,5706.760063,N,00835.301146,E,1,08,0.5,7.8,M,44.0,M,,*62
2097271BD911_$GPGGA,084540.00,5706.760062,N,00835.301145,E,1,08,0.5,7.8,M,44.0,M,,*6E
2097271BD911_$GPGGA,084541.00,5706.760062,N,00835.301145,E,1,08,0.5,7.8,M,44.0,M,,*6F
2097271BD911_$GPGGA,084542.00,5706.760062,N,00835.301144,E,1,08,0.5,7.8,M,44.0,M,,*6D
2097271BD911_$GPGGA,084543.00,5706.760062,N,00835.301144,E,1,08,0.5,7.8,M,44.0,M,,*6C
2097271BD911_$GPGGA,084544.00,5706.760062,N,00835.301144,E,1,08,0.5,7.8,M,44.0,M,,*6B
2097271BD911_$GPGGA,084545.00,5706.760062,N,00835.301144,E,1,08,0.5,7.8,M,44.0,M,,*6A
2097271BD911_$GPGGA,084546.00,5706.760062,N,00835.301144,E,1,08,0.5,7.8,M,44.0,M,,*69
2097271BD911_$GPGGA,084547.00,5706.760062,N,00835.301143,E,1,08,0.5,7.8,M,44.0,M,,*6F
2097271BD911_$GPGGA,084548.00,5706.760062,N,00835.301143,E,1,08,0.5,7.8,M,44.0,M,,*60
2097271BD911_$GPGGA,084549.00,5706.760063,N,00835.301143,E,1,08,0.5,7.8,M,44.0,M,,*60
2097271BD911_$GPGGA,084550.00,5706.760063,N,00835.301143,E,1,08,0.5,7.8,M,44.0,M,,*68
2097271BD911_$GPGGA,084551.00,5706.760063,N,00835.301143,E,1,08,0.5,7.8,M,44.0,M,,*69
2097271BD911_$GPGGA,084552.00,5706.760063,N,00835.301143,E,1,08,0.5,7.8,M,44.0,M,,*6A
2097271BD911_$GPGGA,084553.00,5706.760063,N,00835.301143,E,1,08,0.5,7.8,M,44.0,M,,*6B
2097271BD911_$GPGGA,084554.00,5706.760064,N,00835.301142,E,1,08,0.5,7.8,M,44.0,M,,*6A
2097271BD911_$GPGGA,084555.00,5706.760064,N,00835.301142,E,1,08,0.5,7.8,M,44.0,M,,*6B
2097271BD911_$GPGGA,084556.00,5706.760065,N,00835.301142,E,1,08,0.5,7.8,M,44.0,M,,*69
2097271BD911_$GPGGA,084557.00,5706.760065,N,00835.301142,E,1,08,0.5,7.8,M,44.0,M,,*68
2097271BD911_$GPGGA,084558.00,5706.760065,N,00835.301142,E,1,08,0.5,7.8,M,44.0,M,,*67
2097271BD911_$GPGGA,084559.00,5706.760066,N,00835.301142,E,1,08,0.5,7.8,M,44.0,M,,*65
2097271BD911_$GPGGA,084600.00,5706.760066,N,00835.301141,E,1,08,0.5,7.8,M,44.0,M,,*69
2097271BD911_$GPGGA,084601.00,5706.760067,N,00835.301141,E,1,08,0.5,7.8,M,44.0,M,,*69
2097271BD911_$GPGGA,084602.00,5706.760067,N,00835.301141,E,1,08,0.5,7.8,M,44.0,M,,*6A
2097271BD911_$GPGGA,084603.00,5706.760067,N,00835.301141,E,1,08,0.5,7.8,M,44.0,M,,*6B
2097271BD911_$GPGGA,084604.00,5706.760068,N,00835.301141,E,1,08,0.5,7.8,M,44.0,M,,*63
2097271BD911_$GPGGA,084605.00,5706.760068,N,00835.301141,E,1,08,0.5,7.8,M,44.0,M,,*62
2097271BD911_$GPGGA,084606.00,5706.760068,N,00835.301141,E,1,08,0.5,7.8,M,44.0,M,,*61
2097271BD911_$GPGGA,084607.00,5706.760068,N,00835.301140,E,1,08,0.5,7.8,M,44.0,M,,*61
2097271BD911_$GPGGA,084608.00,5706.760069,N,00835.301140,E,1,08,0.5,7.8,M,44.0,M,,*6F
2097271BD911_$GPGGA,084609.00,5706.760069,N,00835.301140,E,1,08,0.5,7.8,M,44.0,M,,*6E
2097271BD911_$GPGGA,084610.00,5706.760069,N,00835.301140,E,1,08,0.5,7.8,M,44.0,M,,*66
2097271BD911_$GPGGA,084611.00,5706.760069,N,00835.301139,E,1,08,0.5,7.8,M,44.0,M,,*69
2097271BD911_$GPGGA,084612.00,5706.760070,N,00835.301139,E,1,08,0.5,7.8,M,44.0,M,,*62
2097271BD911_$GPGGA,084613.00,5706.760070,N,00835.301139,E,1,08,0.5,7.8,M,44.0,M,,*63
2097271BD911_$GPGGA,084614.00,5706.760070,N,00835.301138,E,1,08,0.5,7.8,M,44.0,M,,*65
2097271BD911_$GPGGA,084615.00,5706.760070,N,00835.301138,E,1,08,0.5,7.8,M,44.0,M,,*64
2097271BD911_$GPGGA,084616.00,5706.760071,N,00835.301138,E,1,08,0.5,7.8,M,44.0,M,,*66
2097271BD911_$GPGGA,084617.00,5706.760071,N,00835.301138,E,1,08,0.5,7.8,M,44.0,M,,*67
2097271BD911_$GPGGA,084618.00,5706.760071,N,00835.301138,E,1,08,0.5,7.8,M,44.0,M,,*68
2097271BD911_$GPGGA,084619.00,5706.760072,N,00835.301138,E,1,08,0.5,7.8,M,44.0,M,,*6A
2097271BD911_$GPGGA,084620.00,5706.760072,N,00835.301138,E,1,08,0.5,7.8,M,44.0,M,,*60
2097271BD911_$GPGGA,084621.00,5706.760072,N,00835.301137,E,1,08,0.5,7.8,M,44.0,M,,*6E
2097271BD911_$GPGGA,084622.00,5706.760072,N,00835.301137,E,1,08,0.5,7.8,M,44.0,M,,*6D
2097271BD911_$GPGGA,084623.00,5706.760072,N,00835.301137,E,1,08,0.5,7.8,M,44.0,M,,*6C
2097271BD911_$GPGGA,084624.00,5706.760073,N,00835.301137,E,1,08,0.5,7.8,M,44.0,M,,*6A
2097271BD911_$GPGGA,084625.00,5706.760073,N,00835.301136,E,1,08,0.5,7.8,M,44.0,M,,*6A
2097271BD911_$GPGGA,084626.00,5706.760073,N,00835.301136,E,1,08,0.5,7.8,M,44.0,M,,*69
2097271BD911_$GPGGA,084627.00,5706.760073,N,00835.301136,E,1,08,0.5,7.8,M,44.0,M,,*68
2097271BD911_$GPGGA,084628.00,5706.760073,N,00835.301136,E,1,08,0.5,7.8,M,44.0,M,,*67
2097271BD911_$GPGGA,084629.00,5706.760073,N,00835.301135,E,1,08,0.5,7.8,M,44.0,M,,*65
2097271BD911_$GPGGA,084630.00,5706.760073,N,00835.301135,E,1,08,0.5,7.8,M,44.0,M,,*6D
2097271BD911_$GPGGA,084631.00,5706.760073,N,00835.301135,E,1,08,0.5,7.8,M,44.0,M,,*6C
2097271BD911_$GPGGA,084632.00,5706.760073,N,00835.301135,E,1,08,0.5,7.8,M,44.0,M,,*6F
2097271BD911_$GPGGA,084633.00,5706.760073,N,00835.301134,E,1,08,0.5,7.8,M,44.0,M,,*6F
2097271BD911_$GPGGA,084634.00,5706.760073,N,00835.301134,E,1,08,0.5,7.8,M,44.0,M,,*68
2097271BD911_$GPGGA,084635.00,5706.760073,N,00835.301133,E,1,08,0.5,7.8,M,44.0,M,,*6E
2097271BD911_$GPGGA,084636.00,5706.760073,N,00835.301133,E,1,08,0.5,7.8,M,44.0,M,,*6D
2097271BD911_$GPGGA,084637.00,5706.760073,N,00835.301133,E,1,08,0.5,7.8,M,44.0,M,,*6C
2097271BD911_$GPGGA,084638.00,5706.760073,N,00835.301133,E,1,08,0.5,7.8,M,44.0,M,,*63
2097271BD911_$GPGGA,084639.00,5706.760073,N,00835.301132,E,1,08,0.5,7.8,M,44.0,M,,*63
2097271BD911_$GPGGA,084640.00,5706.760073,N,00835.301132,E,1,08,0.5,7.8,M,44.0,M,,*6D
2097271BD911_$GPGGA,084641.00,5706.760073,N,00835.301132,E,1,08,0.5,7.8,M,44.0,M,,*6C
2097271BD911_$GPGGA,084642.00,5706.760073,N,00835.301132,E,1,08,0.5,7.8,M,44.0,M,,*6F
2097271BD911_$GPGGA,084643.00,5706.760073,N,00835.301131,E,1,08,0.5,7.8,M,44.0,M,,*6D
2097271BD911_$GPGGA,084644.00,5706.760073,N,00835.301131,E,1,08,0.5,7.8,M,44.0,M,,*6A
2097271BD911_$GPGGA,084645.00,5706.760074,N,00835.301130,E,1,08,0.5,7.8,M,44.0,M,,*6D
2097271BD911_$GPGGA,084646.00,5706.760074,N,00835.301130,E,1,08,0.5,7.8,M,44.0,M,,*6E
2097271BD911_$GPGGA,084647.00,5706.760074,N,00835.301129,E,1,08,0.5,7.8,M,44.0,M,,*67
2097271BD911_$GPGGA,084648.00,5706.760074,N,00835.301129,E,1,08,0.5,7.8,M,44.0,M,,*68
2097271BD911_$GPGGA,084649.00,5706.760074,N,00835.301128,E,1,08,0.5,7.8,M,44.0,M,,*68
2097271BD911_$GPGGA,084650.00,5706.760075,N,00835.301128,E,1,08,0.5,7.8,M,44.0,M,,*61
2097271BD911_$GPGGA,084651.00,5706.760075,N,00835.301127,E,1,08,0.5,7.8,M,44.0,M,,*6F
2097271BD911_$GPGGA,084652.00,5706.760075,N,00835.301126,E,1,08,0.5,7.8,M,44.0,M,,*6D
2097271BD911_$GPGGA,084653.00,5706.760075,N,00835.301126,E,1,08,0.5,7.8,M,44.0,M,,*6C
2097271BD911_$GPGGA,084654.00,5706.760075,N,00835.301126,E,1,08,0.5,7.8,M,44.0,M,,*6B
2097271BD911_$GPGGA,084655.00,5706.760076,N,00835.301125,E,1,08,0.5,7.8,M,44.0,M,,*6A
2097271BD911_$GPGGA,084656.00,5706.760076,N,00835.301125,E,1,08,0.5,7.8,M,44.0,M,,*69
2097271BD911_$GPGGA,084657.00,5706.760076,N,00835.301124,E,1,08,0.5,7.8,M,44.0,M,,*69
2097271BD911_$GPGGA,084658.00,5706.760076,N,00835.301123,E,1,08,0.5,7.8,M,44.0,M,,*61
2097271BD911_$GPGGA,084659.00,5706.760075,N,00835.301123,E,1,08,0.5,7.8,M,44.0,M,,*63
2097271BD911_$GPGGA,084700.00,5706.760076,N,00835.301122,E,1,08,0.5,7.8,M,44.0,M,,*6C
2097271BD911_$GPGGA,084701.00,5706.760076,N,00835.301122,E,1,08,0.5,7.8,M,44.0,M,,*6D
2097271BD911_$GPGGA,084702.00,5706.760075,N,00835.301121,E,1,08,0.5,7.8,M,44.0,M,,*6E
2097271BD911_$GPGGA,084703.00,5706.760075,N,00835.301121,E,1,08,0.5,7.8,M,44.0,M,,*6F
2097271BD911_$GPGGA,084704.00,5706.760075,N,00835.301120,E,1,08,0.5,7.8,M,44.0,M,,*69
2097271BD911_$GPGGA,084705.00,5706.760075,N,00835.301120,E,1,08,0.5,7.8,M,44.0,M,,*68
2097271BD911_$GPGGA,084706.00,5706.760075,N,00835.301119,E,1,08,0.5,7.8,M,44.0,M,,*61
2097271BD911_$GPGGA,084707.00,5706.760075,N,00835.301119,E,1,08,0.5,7.8,M,44.0,M,,*60
2097271BD911_$GPGGA,084708.00,5706.760075,N,00835.301118,E,1,08,0.5,7.8,M,44.0,M,,*6E
2097271BD911_$GPGGA,084709.00,5706.760075,N,00835.301118,E,1,08,0.5,7.8,M,44.0,M,,*6F
2097271BD911_$GPGGA,084710.00,5706.760075,N,00835.301118,E,1,08,0.5,7.8,M,44.0,M,,*67
2097271BD911_$GPGGA,084711.00,5706.760075,N,00835.301118,E,1,08,0.5,7.8,M,44.0,M,,*66
2097271BD911_$GPGGA,084712.00,5706.760075,N,00835.301118,E,1,08,0.5,7.8,M,44.0,M,,*65
2097271BD911_$GPGGA,084713.00,5706.760075,N,00835.301117,E,1,08,0.5,7.8,M,44.0,M,,*6B
2097271BD911_$GPGGA,084714.00,5706.760075,N,00835.301117,E,1,08,0.5,7.8,M,44.0,M,,*6C
2097271BD911_$GPGGA,084715.00,5706.760075,N,00835.301117,E,1,08,0.5,7.8,M,44.0,M,,*6D
2097271BD911_$GPGGA,084716.00,5706.760075,N,00835.301117,E,1,08,0.5,7.8,M,44.0,M,,*6E
2097271BD911_$GPGGA,084717.00,5706.760075,N,00835.301117,E,1,08,0.5,7.8,M,44.0,M,,*6F
2097271BD911_$GPGGA,084718.00,5706.760075,N,00835.301117,E,1,08,0.5,7.8,M,44.0,M,,*60
2097271BD911_$GPGGA,084719.00,5706.760076,N,00835.301117,E,1,08,0.5,7.8,M,44.0,M,,*62
2097271BD911_$GPGGA,084720.00,5706.760076,N,00835.301116,E,1,08,0.5,7.8,M,44.0,M,,*69
2097271BD911_$GPGGA,084721.00,5706.760076,N,00835.301116,E,1,08,0.5,7.8,M,44.0,M,,*68
2097271BD911_$GPGGA,084722.00,5706.760076,N,00835.301116,E,1,08,0.5,7.8,M,44.0,M,,*6B
2097271BD911_$GPGGA,084723.00,5706.760076,N,00835.301116,E,1,08,0.5,7.8,M,44.0,M,,*6A
2097271BD911_$GPGGA,084724.00,5706.760076,N,00835.301116,E,1,08,0.5,7.8,M,44.0,M,,*6D
2097271BD911_$GPGGA,084725.00,5706.760076,N,00835.301116,E,1,08,0.5,7.8,M,44.0,M,,*6C
2097271BD911_$GPGGA,084726.00,5706.760076,N,00835.301115,E,1,08,0.5,7.8,M,44.0,M,,*6C
2097271BD911_$GPGGA,084727.00,5706.760076,N,00835.301115,E,1,08,0.5,7.8,M,44.0,M,,*6D
2097271BD911_$GPGGA,084728.00,5706.760076,N,00835.301115,E,1,08,0.5,7.8,M,44.0,M,,*62
2097271BD911_$GPGGA,084729.00,5706.760076,N,00835.301115,E,1,08,0.5,7.8,M,44.0,M,,*63
2097271BD911_$GPGGA,084730.00,5706.760076,N,00835.301115,E,1,08,0.5,7.8,M,44.0,M,,*6B
2097271BD911_$GPGGA,084731.00,5706.760076,N,00835.301115,E,1,08,0.5,7.8,M,44.0,M,,*6A
2097271BD911_$GPGGA,084732.00,5706.760076,N,00835.301115,E,1,08,0.5,7.8,M,44.0,M,,*69
2097271BD911_$GPGGA,084733.00,5706.760076,N,00835.301115,E,1,08,0.5,7.8,M,44.0,M,,*68
2097271BD911_$GPGGA,084734.00,5706.760076,N,00835.301115,E,1,08,0.5,7.8,M,44.0,M,,*6F
2097271BD911_$GPGGA,084735.00,5706.760076,N,00835.301115,E,1,08,0.5,7.8,M,44.0,M,,*6E
2097271BD911_$GPGGA,084736.00,5706.760076,N,00835.301114,E,1,08,0.5,7.8,M,44.0,M,,*6C
2097271BD911_$GPGGA,084737.00,5706.760076,N,00835.301114,E,1,08,0.5,7.8,M,44.0,M,,*6D
2097271BD911_$GPGGA,084738.00,5706.760076,N,00835.301114,E,1,08,0.5,7.8,M,44.0,M,,*62
2097271BD911_$GPGGA,084739.00,5706.760076,N,00835.301114,E,1,08,0.5,7.8,M,44.0,M,,*63
2097271BD911_$GPGGA,084740.00,5706.760076,N,00835.301114,E,1,08,0.5,7.8,M,44.0,M,,*6D
2097271BD911_$GPGGA,084741.00,5706.760076,N,00835.301114,E,1,08,0.5,7.8,M,44.0,M,,*6C
2097271BD911_$GPGGA,084742.00,5706.760076,N,00835.301114,E,1,08,0.5,7.8,M,44.0,M,,*6F
2097271BD911_$GPGGA,084743.00,5706.760077,N,00835.301114,E,1,08,0.5,7.8,M,44.0,M,,*6F
2097271BD911_$GPGGA,084744.00,5706.760077,N,00835.301114,E,1,08,0.5,7.8,M,44.0,M,,*68
2097271BD911_$GPGGA,084745.00,5706.760077,N,00835.301114,E,1,08,0.5,7.8,M,44.0,M,,*69
2097271BD911_$GPGGA,084746.00,5706.760077,N,00835.301114,E,1,08,0.5,7.8,M,44.0,M,,*6A
2097271BD911_$GPGGA,084747.00,5706.760077,N,00835.301114,E,1,08,0.5,7.8,M,44.0,M,,*6B
2097271BD911_$GPGGA,084748.00,5706.760077,N,00835.301114,E,1,08,0.5,7.8,M,44.0,M,,*64
2097271BD911_$GPGGA,084749.00,5706.760077,N,00835.301114,E,1,08,0.5,7.8,M,44.0,M,,*65
2097271BD911_$GPGGA,084750.00,5706.760077,N,00835.301114,E,1,08,0.5,7.8,M,44.0,M,,*6D
2097271BD911_$GPGGA,084751.00,5706.760078,N,00835.301114,E,1,08,0.5,7.8,M,44.0,M,,*63
2097271BD911_$GPGGA,084752.00,5706.760078,N,00835.301114,E,1,08,0.5,7.8,M,44.0,M,,*60
2097271BD911_$GPGGA,084753.00,5706.760078,N,00835.301114,E,1,08,0.5,7.8,M,44.0,M,,*61
2097271BD911_$GPGGA,084754.00,5706.760078,N,00835.301114,E,1,08,0.5,7.8,M,44.0,M,,*66
2097271BD911_$GPGGA,084755.00,5706.760078,N,00835.301114,E,1,08,0.5,7.8,M,44.0,M,,*67
2097271BD911_$GPGGA,084756.00,5706.760078,N,00835.301114,E,1,08,0.5,7.8,M,44.0,M,,*64
2097271BD911_$GPGGA,084757.00,5706.760079,N,00835.301114,E,1,08,0.5,7.8,M,44.0,M,,*64
2097271BD911_$GPGGA,084758.00,5706.760078,N,00835.301114,E,1,08,0.5,7.8,M,44.0,M,,*6A
2097271BD911_$GPGGA,084759.00,5706.760078,N,00835.301113,E,1,08,0.5,7.8,M,44.0,M,,*6C
2097271BD911_$GPGGA,084800.00,5706.760078,N,00835.301113,E,1,08,0.5,7.8,M,44.0,M,,*6F
2097271BD911_$GPGGA,084801.00,5706.760078,N,00835.301113,E,1,08,0.5,7.8,M,44.0,M,,*6E
2097271BD911_$GPGGA,084802.00,5706.760078,N,00835.301113,E,1,08,0.5,7.8,M,44.0,M,,*6D
2097271BD911_$GPGGA,084803.00,5706.760078,N,00835.301112,E,1,08,0.5,7.8,M,44.0,M,,*6D
2097271BD911_$GPGGA,084804.00,5706.760078,N,00835.301112,E,1,08,0.5,7.8,M,44.0,M,,*6A
2097271BD911_$GPGGA,084805.00,5706.760078,N,00835.301112,E,1,08,0.5,7.8,M,44.0,M,,*6B
2097271BD911_$GPGGA,084806.00,5706.760077,N,00835.301112,E,1,08,0.5,7.8,M,44.0,M,,*67
2097271BD911_$GPGGA,084807.00,5706.760077,N,00835.301111,E,1,08,0.5,7.8,M,44.0,M,,*65
2097271BD911_$GPGGA,084808.00,5706.760077,N,00835.301111,E,1,08,0.5,7.8,M,44.0,M,,*6A
2097271BD911_$GPGGA,084809.00,5706.760077,N,00835.301110,E,1,08,0.5,7.8,M,44.0,M,,*6A
2097271BD911_$GPGGA,084810.00,5706.760077,N,00835.301110,E,1,08,0.5,7.8,M,44.0,M,,*62
2097271BD911_$GPGGA,084811.00,5706.760077,N,00835.301110,E,1,08,0.5,7.8,M,44.0,M,,*63
2097271BD911_$GPGGA,084812.00,5706.760077,N,00835.301109,E,1,08,0.5,7.8,M,44.0,M,,*68
2097271BD911_$GPGGA,084813.00,5706.760077,N,00835.301109,E,1,08,0.5,7.8,M,44.0,M,,*69
2097271BD911_$GPGGA,084814.00,5706.760077,N,00835.301109,E,1,08,0.5,7.8,M,44.0,M,,*6E
2097271BD911_$GPGGA,084815.00,5706.760078,N,00835.301108,E,1,08,0.5,7.8,M,44.0,M,,*61
2097271BD911_$GPGGA,084816.00,5706.760078,N,00835.301108,E,1,08,0.5,7.8,M,44.0,M,,*62
2097271BD911_$GPGGA,084817.00,5706.760078,N,00835.301107,E,1,08,0.5,7.8,M,44.0,M,,*6C
2097271BD911_$GPGGA,084818.00,5706.760078,N,00835.301107,E,1,08,0.5,7.8,M,44.0,M,,*63
2097271BD911_$GPGGA,084819.00,5706.760077,N,00835.301107,E,1,08,0.5,7.8,M,44.0,M,,*6D
2097271BD911_$GPGGA,084820.00,5706.760077,N,00835.301107,E,1,08,0.5,7.8,M,44.0,M,,*67
2097271BD911_$GPGGA,084821.00,5706.760077,N,00835.301107,E,1,08,0.5,7.8,M,44.0,M,,*66
2097271BD911_$GPGGA,084822.00,5706.760077,N,00835.301107,E,1,08,0.5,7.8,M,44.0,M,,*65
2097271BD911_$GPGGA,084823.00,5706.760077,N,00835.301106,E,1,08,0.5,7.8,M,44.0,M,,*65
2097271BD911_$GPGGA,084824.00,5706.760078,N,00835.301106,E,1,08,0.5,7.8,M,44.0,M,,*6D
2097271BD911_$GPGGA,084825.00,5706.760078,N,00835.301106,E,1,08,0.5,7.8,M,44.0,M,,*6C
2097271BD911_$GPGGA,084826.00,5706.760078,N,00835.301106,E,1,08,0.5,7.8,M,44.0,M,,*6F
2097271BD911_$GPGGA,084827.00,5706.760078,N,00835.301106,E,1,08,0.5,7.8,M,44.0,M,,*6E
2097271BD911_$GPGGA,084828.00,5706.760078,N,00835.301105,E,1,08,0.5,7.8,M,44.0,M,,*62
2097271BD911_$GPGGA,084829.00,5706.760078,N,00835.301105,E,1,08,0.5,7.8,M,44.0,M,,*63
2097271BD911_$GPGGA,084830.00,5706.760078,N,00835.301105,E,1,08,0.5,7.8,M,44.0,M,,*6B
2097271BD911_$GPGGA,084831.00,5706.760078,N,00835.301105,E,1,08,0.5,7.8,M,44.0,M,,*6A
2097271BD911_$GPGGA,084832.00,5706.760078,N,00835.301105,E,1,08,0.5,7.8,M,44.0,M,,*69
2097271BD911_$GPGGA,084833.00,5706.760078,N,00835.301105,E,1,08,0.5,7.8,M,44.0,M,,*68
2097271BD911_$GPGGA,084834.00,5706.760078,N,00835.301104,E,1,08,0.5,7.8,M,44.0,M,,*6E
2097271BD911_$GPGGA,084835.00,5706.760078,N,00835.301104,E,1,08,0.5,7.8,M,44.0,M,,*6F
2097271BD911_$GPGGA,084836.00,5706.760078,N,00835.301104,E,1,08,0.5,7.8,M,44.0,M,,*6C
2097271BD911_$GPGGA,084837.00,5706.760161,N,00835.301246,E,1,08,0.5,7.8,M,44.0,M,,*61
2097271BD911_$GPGGA,084838.00,5706.760291,N,00835.301555,E,1,08,0.5,7.9,M,44.0,M,,*66
2097271BD911_$GPGGA,084839.00,5706.760509,N,00835.301991,E,1,08,0.5,8.1,M,44.0,M,,*62
2097271BD911_$GPGGA,084840.00,5706.760819,N,00835.302584,E,1,08,0.5,8.1,M,44.0,M,,*6B
2097271BD911_$GPGGA,084841.00,5706.761273,N,00835.303431,E,1,08,0.5,8.0,M,44.0,M,,*62
2097271BD911_$GPGGA,084842.00,5706.761860,N,00835.304501,E,1,08,0.5,8.0,M,44.0,M,,*6C
2097271BD911_$GPGGA,084843.00,5706.762523,N,00835.305649,E,1,08,0.5,8.2,M,44.0,M,,*68
2097271BD911_$GPGGA,084844.00,5706.763216,N,00835.306809,E,1,08,0.5,8.1,M,44.0,M,,*65
2097271BD911_$GPGGA,084845.00,5706.763885,N,00835.307870,E,1,08,0.5,8.2,M,44.0,M,,*68
2097271BD911_$GPGGA,084846.00,5706.764541,N,00835.308889,E,1,08,0.5,8.3,M,44.0,M,,*61
2097271BD911_$GPGGA,084847.00,5706.765243,N,00835.309915,E,1,08,0.5,8.3,M,44.0,M,,*61
2097271BD911_$GPGGA,084848.00,5706.765978,N,00835.310980,E,1,08,0.5,8.4,M,44.0,M,,*6E
2097271BD911_$GPGGA,084849.00,5706.766755,N,00835.312046,E,1,08,0.5,8.3,M,44.0,M,,*6B
2097271BD911_$GPGGA,084850.00,5706.767637,N,00835.313141,E,1,08,0.5,8.4,M,44.0,M,,*67
2097271BD911_$GPGGA,084851.00,5706.768607,N,00835.314190,E,1,08,0.5,8.3,M,44.0,M,,*66
2097271BD911_$GPGGA,084852.00,5706.769591,N,00835.315039,E,1,08,0.5,8.4,M,44.0,M,,*6C
2097271BD911_$GPGGA,084853.00,5706.770573,N,00835.315611,E,1,08,0.5,8.4,M,44.0,M,,*65
2097271BD911_$GPGGA,084854.00,5706.771539,N,00835.315982,E,1,08,0.5,8.4,M,44.0,M,,*68
2097271BD911_$GPGGA,084855.00,5706.772462,N,00835.316204,E,1,08,0.5,8.4,M,44.0,M,,*63
2097271BD911_$GPGGA,084856.00,5706.773323,N,00835.316301,E,1,08,0.5,8.5,M,44.0,M,,*66
2097271BD911_$GPGGA,084857.00,5706.774140,N,00835.316309,E,1,08,0.5,8.6,M,44.0,M,,*6C
2097271BD911_$GPGGA,084858.00,5706.774931,N,00835.316238,E,1,08,0.5,8.7,M,44.0,M,,*6F
2097271BD911_$GPGGA,084859.00,5706.775678,N,00835.316094,E,1,08,0.5,8.7,M,44.0,M,,*69
2097271BD911_$GPGGA,084900.00,5706.776391,N,00835.315930,E,1,08,0.5,8.7,M,44.0,M,,*61
2097271BD911_$GPGGA,084901.00,5706.777062,N,00835.315735,E,1,08,0.5,8.8,M,44.0,M,,*6A
2097271BD911_$GPGGA,084902.00,5706.777702,N,00835.315557,E,1,08,0.5,8.9,M,44.0,M,,*6F
2097271BD911_$GPGGA,084903.00,5706.778263,N,00835.315468,E,1,08,0.5,8.8,M,44.0,M,,*6F
2097271BD911_$GPGGA,084904.00,5706.778792,N,00835.315576,E,1,08,0.5,8.8,M,44.0,M,,*6D
