1777632179.008822 2097271BD911_$GPGGA,104259.00,5706.760435,N,00835.301931,E,1,11,0.4,6.4,M,44.0,M,,*61
1777632180.010220 2097271BD911_$GPGGA,104300.00,5706.760435,N,00835.301931,E,1,11,0.4,6.4,M,44.0,M,,*6C
1777632181.009470 2097271BD911_$GPGGA,104301.00,5706.760435,N,00835.301931,E,1,11,0.4,6.4,M,44.0,M,,*6D
1777632182.008515 2097271BD911_$GPGGA,104302.00,5706.760435,N,00835.301931,E,1,11,0.4,6.4,M,44.0,M,,*6E
1777632183.009091 2097271BD911_$GPGGA,104303.00,5706.760435,N,00835.301930,E,1,11,0.4,6.4,M,44.0,M,,*6E
1777632184.009600 2097271BD911_$GPGGA,104304.00,5706.760435,N,00835.301930,E,1,11,0.4,6.4,M,44.0,M,,*69
1777632185.008094 2097271BD911_$GPGGA,104305.00,5706.760435,N,00835.301930,E,1,11,0.4,6.4,M,44.0,M,,*68
1777632186.010404 2097271BD911_$GPGGA,104306.00,5706.760435,N,00835.301930,E,1,11,0.4,6.4,M,44.0,M,,*6B
1777632187.003542 2097271BD911_$GPGGA,104307.00,5706.760435,N,00835.301930,E,1,11,0.4,6.4,M,44.0,M,,*6A
1777632188.009959 2097271BD911_$GPGGA,104308.00,5706.760435,N,00835.301930,E,1,11,0.4,6.4,M,44.0,M,,*65
1777632189.008783 2097271BD911_$GPGGA,104309.00,5706.760435,N,00835.301930,E,1,11,0.4,6.4,M,44.0,M,,*64
1777632190.010890 2097271BD911_$GPGGA,104310.00,5706.760435,N,00835.301929,E,1,11,0.4,6.4,M,44.0,M,,*64
1777632191.003291 2097271BD911_$GPGGA,104311.00,5706.760436,N,00835.301929,E,1,11,0.4,6.4,M,44.0,M,,*66
1777632192.009964 2097271BD911_$GPGGA,104312.00,5706.760436,N,00835.301929,E,1,11,0.4,6.4,M,44.0,M,,*65
1777632193.010420 2097271BD911_$GPGGA,104313.00,5706.760436,N,00835.301929,E,1,11,0.4,6.4,M,44.0,M,,*64
1777632194.010443 2097271BD911_$GPGGA,104314.00,5706.760436,N,00835.301929,E,1,11,0.4,6.4,M,44.0,M,,*63
1777632195.009728 2097271BD911_$GPGGA,104315.00,5706.760436,N,00835.301929,E,1,11,0.4,6.4,M,44.0,M,,*62
1777632196.009421 2097271BD911_$GPGGA,104316.00,5706.760436,N,00835.301929,E,1,11,0.4,6.4,M,44.0,M,,*61
1777632197.009090 2097271BD911_$GPGGA,104317.00,5706.760436,N,00835.301929,E,1,11,0.4,6.4,M,44.0,M,,*60
1777632198.008758 2097271BD911_$GPGGA,104318.00,5706.760436,N,00835.301929,E,1,11,0.4,6.4,M,44.0,M,,*6F
1777632199.009583 2097271BD911_$GPGGA,104319.00,5706.760436,N,00835.301929,E,1,11,0.4,6.4,M,44.0,M,,*6E
1777632200.007760 2097271BD911_$GPGGA,104320.00,5706.760436,N,00835.301929,E,1,11,0.4,6.4,M,44.0,M,,*64
1777632201.010324 2097271BD911_$GPGGA,104321.00,5706.760436,N,00835.301929,E,1,11,0.4,6.4,M,44.0,M,,*65
1777632202.003042 2097271BD911_$GPGGA,104322.00,5706.760436,N,00835.301929,E,1,11,0.4,6.4,M,44.0,M,,*66
1777632203.009447 2097271BD911_$GPGGA,104323.00,5706.760436,N,00835.301928,E,1,11,0.4,6.4,M,44.0,M,,*66
1777632204.008558 2097271BD911_$GPGGA,104324.00,5706.760436,N,00835.301928,E,1,11,0.4,6.4,M,44.0,M,,*61
1777632205.009990 2097271BD911_$GPGGA,104325.00,5706.760436,N,00835.301928,E,1,11,0.4,6.4,M,44.0,M,,*60
1777632206.002870 2097271BD911_$GPGGA,104326.00,5706.760436,N,00835.301928,E,1,11,0.4,6.4,M,44.0,M,,*63
1777632207.010246 2097271BD911_$GPGGA,104327.00,5706.760437,N,00835.301928,E,1,11,0.4,6.4,M,44.0,M,,*63
1777632208.009441 2097271BD911_$GPGGA,104328.00,5706.760437,N,00835.301927,E,1,11,0.4,6.4,M,44.0,M,,*63
1777632209.009674 2097271BD911_$GPGGA,104329.00,5706.760437,N,00835.301927,E,1,11,0.4,6.4,M,44.0,M,,*62
1777632210.009690 2097271BD911_$GPGGA,104330.00,5706.760437,N,00835.301927,E,1,11,0.4,6.4,M,44.0,M,,*6A
1777632211.008867 2097271BD911_$GPGGA,104331.00,5706.760437,N,00835.301927,E,1,11,0.4,6.4,M,44.0,M,,*6B
1777632212.009371 2097271BD911_$GPGGA,104332.00,5706.760437,N,00835.301927,E,1,11,0.4,6.4,M,44.0,M,,*68
1777632213.008543 2097271BD911_$GPGGA,104333.00,5706.760437,N,00835.301927,E,1,11,0.4,6.4,M,44.0,M,,*69
1777632214.003760 2097271BD911_$GPGGA,104334.00,5706.760437,N,00835.301927,E,1,11,0.4,6.4,M,44.0,M,,*6E
1777632215.008861 2097271BD911_$GPGGA,104335.00,5706.760437,N,00835.301926,E,1,11,0.4,6.4,M,44.0,M,,*6E
1777632216.008672 2097271BD911_$GPGGA,104336.00,5706.760437,N,00835.301926,E,1,11,0.4,6.4,M,44.0,M,,*6D
1777632217.006967 2097271BD911_$GPGGA,104337.00,5706.760437,N,00835.301926,E,1,11,0.4,6.4,M,44.0,M,,*6C
1777632218.009535 2097271BD911_$GPGGA,104338.00,5706.760437,N,00835.301926,E,1,11,0.4,6.4,M,44.0,M,,*63
1777632219.008394 2097271BD911_$GPGGA,104339.00,5706.760437,N,00835.301926,E,1,11,0.4,6.4,M,44.0,M,,*62
1777632220.009515 2097271BD911_$GPGGA,104340.00,5706.760437,N,00835.301926,E,1,11,0.4,6.4,M,44.0,M,,*6C
1777632221.003531 2097271BD911_$GPGGA,104341.00,5706.760437,N,00835.301926,E,1,11,0.4,6.4,M,44.0,M,,*6D
1777632222.002662 2097271BD911_$GPGGA,104342.00,5706.760438,N,00835.301926,E,1,11,0.4,6.4,M,44.0,M,,*61
1777632223.008203 2097271BD911_$GPGGA,104343.00,5706.760438,N,00835.301926,E,1,11,0.4,6.4,M,44.0,M,,*60
1777632224.009223 2097271BD911_$GPGGA,104344.00,5706.760438,N,00835.301926,E,1,11,0.4,6.4,M,44.0,M,,*67
1777632225.009002 2097271BD911_$GPGGA,104345.00,5706.760438,N,00835.301926,E,1,11,0.4,6.4,M,44.0,M,,*66
1777632226.009213 2097271BD911_$GPGGA,104346.00,5706.760438,N,00835.301926,E,1,11,0.4,6.4,M,44.0,M,,*65
1777632227.008392 2097271BD911_$GPGGA,104347.00,5706.760438,N,00835.301926,E,1,11,0.4,6.4,M,44.0,M,,*64
1777632228.009543 2097271BD911_$GPGGA,104348.00,5706.760438,N,00835.301926,E,1,11,0.4,6.4,M,44.0,M,,*6B
1777632229.002291 2097271BD911_$GPGGA,104349.00,5706.760438,N,00835.301926,E,1,11,0.4,6.4,M,44.0,M,,*6A
1777632230.000084 2097271BD911_$GPGGA,104350.00,5706.760438,N,00835.301926,E,1,11,0.4,6.4,M,44.0,M,,*62
1777632231.008080 2097271BD911_$GPGGA,104351.00,5706.760437,N,00835.301926,E,1,11,0.4,6.4,M,44.0,M,,*6C
1777632232.003630 2097271BD911_$GPGGA,104352.00,5706.760437,N,00835.301926,E,1,11,0.4,6.4,M,44.0,M,,*6F
1777632233.008501 2097271BD911_$GPGGA,104353.00,5706.760437,N,00835.301925,E,1,11,0.4,6.4,M,44.0,M,,*6D
1777632234.009139 2097271BD911_$GPGGA,104354.00,5706.760437,N,00835.301925,E,1,11,0.4,6.4,M,44.0,M,,*6A
1777632235.008410 2097271BD911_$GPGGA,104355.00,5706.760437,N,00835.301925,E,1,11,0.4,6.4,M,44.0,M,,*6B
1777632236.004279 2097271BD911_$GPGGA,104356.00,5706.760437,N,00835.301925,E,1,11,0.4,6.4,M,44.0,M,,*68
1777632237.010075 2097271BD911_$GPGGA,104357.00,5706.760437,N,00835.301925,E,1,11,0.4,6.4,M,44.0,M,,*69
1777632238.008651 2097271BD911_$GPGGA,104358.00,5706.760437,N,00835.301925,E,1,11,0.4,6.4,M,44.0,M,,*66
1777632239.008855 2097271BD911_$GPGGA,104359.00,5706.760437,N,00835.301925,E,1,11,0.4,6.4,M,44.0,M,,*67
1777632240.010195 2097271BD911_$GPGGA,104400.00,5706.760437,N,00835.301924,E,1,11,0.4,6.4,M,44.0,M,,*6D
1777632241.009150 2097271BD911_$GPGGA,104401.00,5706.760437,N,00835.301924,E,1,11,0.4,6.4,M,44.0,M,,*6C
1777632242.008939 2097271BD911_$GPGGA,104402.00,5706.760437,N,00835.301924,E,1,11,0.4,6.4,M,44.0,M,,*6F
1777632243.007911 2097271BD911_$GPGGA,104403.00,5706.760437,N,00835.301924,E,1,11,0.4,6.4,M,44.0,M,,*6E
1777632244.003623 2097271BD911_$GPGGA,104404.00,5706.760437,N,00835.301923,E,1,11,0.4,6.4,M,44.0,M,,*6E
1777632245.008202 2097271BD911_$GPGGA,104405.00,5706.760437,N,00835.301923,E,1,11,0.4,6.4,M,44.0,M,,*6F
1777632246.008711 2097271BD911_$GPGGA,104406.00,5706.760437,N,00835.301923,E,1,11,0.4,6.4,M,44.0,M,,*6C
1777632247.005789 2097271BD911_$GPGGA,104407.00,5706.760437,N,00835.301923,E,1,11,0.4,6.4,M,44.0,M,,*6D
1777632248.000428 2097271BD911_$GPGGA,104408.00,5706.760437,N,00835.301923,E,1,11,0.4,6.4,M,44.0,M,,*62
1777632249.008813 2097271BD911_$GPGGA,104409.00,5706.760437,N,00835.301923,E,1,11,0.4,6.4,M,44.0,M,,*63
1777632250.008766 2097271BD911_$GPGGA,104410.00,5706.760437,N,00835.301923,E,1,11,0.4,6.4,M,44.0,M,,*6B
1777632251.004312 2097271BD911_$GPGGA,104411.00,5706.760437,N,00835.301923,E,1,11,0.4,6.4,M,44.0,M,,*6A
1777632252.009439 2097271BD911_$GPGGA,104412.00,5706.760437,N,00835.301922,E,1,11,0.4,6.4,M,44.0,M,,*68
1777632253.017652 2097271BD911_$GPGGA,104413.00,5706.760437,N,00835.301922,E,1,11,0.4,6.4,M,44.0,M,,*69
1777632254.008688 2097271BD911_$GPGGA,104414.00,5706.760437,N,00835.301922,E,1,11,0.4,6.4,M,44.0,M,,*6E
1777632255.004537 2097271BD911_$GPGGA,104415.00,5706.760437,N,00835.301922,E,1,11,0.4,6.4,M,44.0,M,,*6F
1777632256.010064 2097271BD911_$GPGGA,104416.00,5706.760437,N,00835.301922,E,1,11,0.4,6.4,M,44.0,M,,*6C
1777632257.008849 2097271BD911_$GPGGA,104417.00,5706.760437,N,00835.301922,E,1,11,0.4,6.4,M,44.0,M,,*6D
1777632258.009775 2097271BD911_$GPGGA,104418.00,5706.760437,N,00835.301922,E,1,11,0.4,6.4,M,44.0,M,,*62
1777632259.010186 2097271BD911_$GPGGA,104419.00,5706.760437,N,00835.301922,E,1,11,0.4,6.4,M,44.0,M,,*63
1777632260.008241 2097271BD911_$GPGGA,104420.00,5706.760437,N,00835.301922,E,1,11,0.4,6.4,M,44.0,M,,*69
1777632261.008659 2097271BD911_$GPGGA,104421.00,5706.760437,N,00835.301922,E,1,11,0.4,6.4,M,44.0,M,,*68
1777632262.003598 2097271BD911_$GPGGA,104422.00,5706.760437,N,00835.301922,E,1,11,0.4,6.4,M,44.0,M,,*6B
1777632263.009822 2097271BD911_$GPGGA,104423.00,5706.760437,N,00835.301921,E,1,11,0.4,6.4,M,44.0,M,,*69
1777632264.008315 2097271BD911_$GPGGA,104424.00,5706.760437,N,00835.301921,E,1,11,0.4,6.4,M,44.0,M,,*6E
1777632265.008587 2097271BD911_$GPGGA,104425.00,5706.760437,N,00835.301921,E,1,11,0.4,6.4,M,44.0,M,,*6F
1777632266.009482 2097271BD911_$GPGGA,104426.00,5706.760437,N,00835.301921,E,1,11,0.4,6.4,M,44.0,M,,*6C
1777632267.010000 2097271BD911_$GPGGA,104427.00,5706.760437,N,00835.301921,E,1,11,0.4,6.4,M,44.0,M,,*6D
1777632268.008422 2097271BD911_$GPGGA,104428.00,5706.760437,N,00835.301920,E,1,11,0.4,6.4,M,44.0,M,,*63
1777632269.009616 2097271BD911_$GPGGA,104429.00,5706.760437,N,00835.301920,E,1,11,0.4,6.4,M,44.0,M,,*62
1777632270.009328 2097271BD911_$GPGGA,104430.00,5706.760437,N,00835.301920,E,1,11,0.4,6.4,M,44.0,M,,*6A
1777632271.010216 2097271BD911_$GPGGA,104431.00,5706.760437,N,00835.301920,E,1,11,0.4,6.4,M,44.0,M,,*6B
1777632272.008726 2097271BD911_$GPGGA,104432.00,5706.760437,N,00835.301920,E,1,11,0.4,6.4,M,44.0,M,,*68
1777632273.008721 2097271BD911_$GPGGA,104433.00,5706.760437,N,00835.301920,E,1,11,0.4,6.4,M,44.0,M,,*69
1777632274.003994 2097271BD911_$GPGGA,104434.00,5706.760437,N,00835.301920,E,1,11,0.4,6.4,M,44.0,M,,*6E
1777632275.008650 2097271BD911_$GPGGA,104435.00,5706.760437,N,00835.301920,E,1,11,0.4,6.4,M,44.0,M,,*6F
1777632276.008786 2097271BD911_$GPGGA,104436.00,5706.760437,N,00835.301920,E,1,11,0.4,6.4,M,44.0,M,,*6C
1777632277.008867 2097271BD911_$GPGGA,104437.00,5706.760437,N,00835.301920,E,1,11,0.4,6.4,M,44.0,M,,*6D
1777632278.003390 2097271BD911_$GPGGA,104438.00,5706.760437,N,00835.301920,E,1,11,0.4,6.4,M,44.0,M,,*62
1777632279.008637 2097271BD911_$GPGGA,104439.00,5706.760437,N,00835.301920,E,1,11,0.4,6.4,M,44.0,M,,*63
1777632280.010011 2097271BD911_$GPGGA,104440.00,5706.760437,N,00835.301920,E,1,11,0.4,6.4,M,44.0,M,,*6D
1777632281.003500 2097271BD911_$GPGGA,104441.00,5706.760437,N,00835.301920,E,1,11,0.4,6.4,M,44.0,M,,*6C
1777632282.010354 2097271BD911_$GPGGA,104442.00,5706.760438,N,00835.301919,E,1,11,0.4,6.4,M,44.0,M,,*6A
1777632283.009382 2097271BD911_$GPGGA,104443.00,5706.760438,N,00835.301919,E,1,11,0.4,6.4,M,44.0,M,,*6B
1777632284.010802 2097271BD911_$GPGGA,104444.00,5706.760438,N,00835.301919,E,1,11,0.4,6.4,M,44.0,M,,*6C
1777632285.002942 2097271BD911_$GPGGA,104445.00,5706.760438,N,00835.301919,E,1,11,0.4,6.4,M,44.0,M,,*6D
1777632286.010251 2097271BD911_$GPGGA,104446.00,5706.760437,N,00835.301919,E,1,11,0.4,6.4,M,44.0,M,,*61
1777632287.009413 2097271BD911_$GPGGA,104447.00,5706.760437,N,00835.301918,E,1,11,0.4,6.4,M,44.0,M,,*61
1777632288.009886 2097271BD911_$GPGGA,104448.00,5706.760437,N,00835.301918,E,1,11,0.4,6.4,M,44.0,M,,*6E
1777632289.003410 2097271BD911_$GPGGA,104449.00,5706.760437,N,00835.301918,E,1,11,0.4,6.4,M,44.0,M,,*6F
1777632290.009782 2097271BD911_$GPGGA,104450.00,5706.760437,N,00835.301918,E,1,11,0.4,6.4,M,44.0,M,,*67
1777632291.008914 2097271BD911_$GPGGA,104451.00,5706.760437,N,00835.301918,E,1,11,0.4,6.4,M,44.0,M,,*66
1777632292.010852 2097271BD911_$GPGGA,104452.00,5706.760437,N,00835.301918,E,1,11,0.4,6.4,M,44.0,M,,*65
1777632293.003108 2097271BD911_$GPGGA,104453.00,5706.760437,N,00835.301918,E,1,11,0.4,6.4,M,44.0,M,,*64
1777632294.008906 2097271BD911_$GPGGA,104454.00,5706.760437,N,00835.301918,E,1,11,0.4,6.4,M,44.0,M,,*63
1777632295.008138 2097271BD911_$GPGGA,104455.00,5706.760437,N,00835.301917,E,1,11,0.4,6.4,M,44.0,M,,*6D
1777632296.004322 2097271BD911_$GPGGA,104456.00,5706.760437,N,00835.301917,E,1,11,0.4,6.4,M,44.0,M,,*6E
1777632297.003487 2097271BD911_$GPGGA,104457.00,5706.760437,N,00835.301917,E,1,11,0.4,6.4,M,44.0,M,,*6F
1777632298.008066 2097271BD911_$GPGGA,104458.00,5706.760437,N,00835.301917,E,1,11,0.4,6.4,M,44.0,M,,*60
1777632299.010270 2097271BD911_$GPGGA,104459.00,5706.760437,N,00835.301917,E,1,11,0.4,6.4,M,44.0,M,,*61
1777632300.003827 2097271BD911_$GPGGA,104500.00,5706.760437,N,00835.301917,E,1,11,0.4,6.4,M,44.0,M,,*6C
1777632301.009921 2097271BD911_$GPGGA,104501.00,5706.760437,N,00835.301917,E,1,11,0.4,6.4,M,44.0,M,,*6D
1777632302.009014 2097271BD911_$GPGGA,104502.00,5706.760437,N,00835.301917,E,1,11,0.4,6.4,M,44.0,M,,*6E
1777632303.010320 2097271BD911_$GPGGA,104503.00,5706.760437,N,00835.301917,E,1,11,0.4,6.4,M,44.0,M,,*6F
1777632304.003612 2097271BD911_$GPGGA,104504.00,5706.760437,N,00835.301917,E,1,11,0.4,6.4,M,44.0,M,,*68
1777632305.010244 2097271BD911_$GPGGA,104505.00,5706.760437,N,00835.301917,E,1,11,0.4,6.4,M,44.0,M,,*69
1777632306.008503 2097271BD911_$GPGGA,104506.00,5706.760437,N,00835.301917,E,1,11,0.4,6.4,M,44.0,M,,*6A
1777632307.011024 2097271BD911_$GPGGA,104507.00,5706.760437,N,00835.301917,E,1,11,0.4,6.4,M,44.0,M,,*6B
1777632308.003951 2097271BD911_$GPGGA,104508.00,5706.760437,N,00835.301917,E,1,11,0.4,6.4,M,44.0,M,,*64
1777632309.008747 2097271BD911_$GPGGA,104509.00,5706.760437,N,00835.301917,E,1,11,0.4,6.4,M,44.0,M,,*65
1777632310.009061 2097271BD911_$GPGGA,104510.00,5706.760437,N,00835.301917,E,1,11,0.4,6.4,M,44.0,M,,*6D
1777632311.004089 2097271BD911_$GPGGA,104511.00,5706.760437,N,00835.301916,E,1,11,0.4,6.4,M,44.0,M,,*6D
1777632312.009881 2097271BD911_$GPGGA,104512.00,5706.760437,N,00835.301916,E,1,11,0.4,6.4,M,44.0,M,,*6E
1777632313.009574 2097271BD911_$GPGGA,104513.00,5706.760437,N,00835.301917,E,1,11,0.4,6.4,M,44.0,M,,*6E
1777632314.010097 2097271BD911_$GPGGA,104514.00,5706.760437,N,00835.301917,E,1,11,0.4,6.4,M,44.0,M,,*69
1777632315.004025 2097271BD911_$GPGGA,104515.00,5706.760437,N,00835.301917,E,1,11,0.4,6.4,M,44.0,M,,*68
1777632316.003582 2097271BD911_$GPGGA,104516.00,5706.760438,N,00835.301917,E,1,11,0.4,6.4,M,44.0,M,,*64
1777632317.010440 2097271BD911_$GPGGA,104517.00,5706.760438,N,00835.301917,E,1,11,0.4,6.4,M,44.0,M,,*65
1777632318.008194 2097271BD911_$GPGGA,104518.00,5706.760438,N,00835.301917,E,1,11,0.4,6.4,M,44.0,M,,*6A
1777632319.003592 2097271BD911_$GPGGA,104519.00,5706.760438,N,00835.301917,E,1,11,0.4,6.4,M,44.0,M,,*6B
1777632320.009572 2097271BD911_$GPGGA,104520.00,5706.760437,N,00835.301916,E,1,11,0.4,6.4,M,44.0,M,,*6F
1777632321.009310 2097271BD911_$GPGGA,104521.00,5706.760437,N,00835.301916,E,1,11,0.4,6.4,M,44.0,M,,*6E
1777632322.009190 2097271BD911_$GPGGA,104522.00,5706.760437,N,00835.301916,E,1,11,0.4,6.4,M,44.0,M,,*6D
1777632323.002869 2097271BD911_$GPGGA,104523.00,5706.760437,N,00835.301916,E,1,11,0.4,6.4,M,44.0,M,,*6C
1777632324.009035 2097271BD911_$GPGGA,104524.00,5706.760437,N,00835.301916,E,1,11,0.4,6.4,M,44.0,M,,*6B
1777632325.009618 2097271BD911_$GPGGA,104525.00,5706.760437,N,00835.301916,E,1,11,0.4,6.4,M,44.0,M,,*6A
1777632326.003911 2097271BD911_$GPGGA,104526.00,5706.760438,N,00835.301916,E,1,11,0.4,6.4,M,44.0,M,,*66
1777632327.010200 2097271BD911_$GPGGA,104527.00,5706.760437,N,00835.301916,E,1,11,0.4,6.4,M,44.0,M,,*68
1777632328.010202 2097271BD911_$GPGGA,104528.00,5706.760437,N,00835.301916,E,1,11,0.4,6.4,M,44.0,M,,*67
1777632329.008519 2097271BD911_$GPGGA,104529.00,5706.760438,N,00835.301916,E,1,12,0.4,6.4,M,44.0,M,,*6A
1777632330.010486 2097271BD911_$GPGGA,104530.00,5706.760438,N,00835.301916,E,1,12,0.4,6.4,M,44.0,M,,*62
1777632331.009996 2097271BD911_$GPGGA,104531.00,5706.760438,N,00835.301916,E,1,12,0.4,6.4,M,44.0,M,,*63
1777632332.009315 2097271BD911_$GPGGA,104532.00,5706.760438,N,00835.301916,E,1,12,0.4,6.4,M,44.0,M,,*60
1777632333.009877 2097271BD911_$GPGGA,104533.00,5706.760438,N,00835.301916,E,1,12,0.4,6.4,M,44.0,M,,*61
1777632334.003114 2097271BD911_$GPGGA,104534.00,5706.760437,N,00835.301916,E,1,12,0.4,6.4,M,44.0,M,,*69
1777632335.008623 2097271BD911_$GPGGA,104535.00,5706.760437,N,00835.301915,E,1,12,0.4,6.4,M,44.0,M,,*6B
1777632336.009184 2097271BD911_$GPGGA,104536.00,5706.760437,N,00835.301915,E,1,12,0.4,6.4,M,44.0,M,,*68
1777632337.008689 2097271BD911_$GPGGA,104537.00,5706.760437,N,00835.301915,E,1,12,0.4,6.4,M,44.0,M,,*69
1777632338.004884 2097271BD911_$GPGGA,104538.00,5706.760437,N,00835.301915,E,1,12,0.4,6.4,M,44.0,M,,*66
1777632339.009247 2097271BD911_$GPGGA,104539.00,5706.760437,N,00835.301915,E,1,12,0.4,6.4,M,44.0,M,,*67
1777632340.010748 2097271BD911_$GPGGA,104540.00,5706.760437,N,00835.301915,E,1,12,0.4,6.4,M,44.0,M,,*69
1777632341.009495 2097271BD911_$GPGGA,104541.00,5706.760437,N,00835.301915,E,1,12,0.4,6.4,M,44.0,M,,*68
1777632342.002985 2097271BD911_$GPGGA,104542.00,5706.760437,N,00835.301915,E,1,12,0.4,6.4,M,44.0,M,,*6B
1777632343.008802 2097271BD911_$GPGGA,104543.00,5706.760437,N,00835.301915,E,1,12,0.4,6.4,M,44.0,M,,*6A
1777632344.008470 2097271BD911_$GPGGA,104544.00,5706.760437,N,00835.301915,E,1,12,0.4,6.4,M,44.0,M,,*6D
1777632345.003951 2097271BD911_$GPGGA,104545.00,5706.760437,N,00835.301915,E,1,12,0.4,6.4,M,44.0,M,,*6C
1777632346.004156 2097271BD911_$GPGGA,104546.00,5706.760437,N,00835.301915,E,1,12,0.4,6.4,M,44.0,M,,*6F
1777632347.009785 2097271BD911_$GPGGA,104547.00,5706.760437,N,00835.301915,E,1,11,0.4,6.4,M,44.0,M,,*6D
1777632348.007822 2097271BD911_$GPGGA,104548.00,5706.760437,N,00835.301915,E,1,11,0.4,6.4,M,44.0,M,,*62
1777632349.004137 2097271BD911_$GPGGA,104549.00,5706.760437,N,00835.301915,E,1,11,0.4,6.4,M,44.0,M,,*63
1777632350.009222 2097271BD911_$GPGGA,104550.00,5706.760437,N,00835.301914,E,1,12,0.4,6.4,M,44.0,M,,*69
1777632351.010171 2097271BD911_$GPGGA,104551.00,5706.760437,N,00835.301914,E,1,12,0.4,6.4,M,44.0,M,,*68
1777632352.009683 2097271BD911_$GPGGA,104552.00,5706.760437,N,00835.301914,E,1,12,0.4,6.4,M,44.0,M,,*6B
1777632353.010215 2097271BD911_$GPGGA,104553.00,5706.760437,N,00835.301914,E,1,12,0.4,6.4,M,44.0,M,,*6A
1777632354.009559 2097271BD911_$GPGGA,104554.00,5706.760437,N,00835.301914,E,1,12,0.4,6.4,M,44.0,M,,*6D
1777632355.008559 2097271BD911_$GPGGA,104555.00,5706.760437,N,00835.301914,E,1,12,0.4,6.4,M,44.0,M,,*6C
1777632356.004054 2097271BD911_$GPGGA,104556.00,5706.760437,N,00835.301914,E,1,12,0.4,6.4,M,44.0,M,,*6F
1777632357.004542 2097271BD911_$GPGGA,104557.00,5706.760437,N,00835.301914,E,1,12,0.4,6.4,M,44.0,M,,*6E
1777632358.009098 2097271BD911_$GPGGA,104558.00,5706.760437,N,00835.301913,E,1,12,0.4,6.4,M,44.0,M,,*66
1777632359.009596 2097271BD911_$GPGGA,104559.00,5706.760437,N,00835.301913,E,1,12,0.4,6.4,M,44.0,M,,*67
1777632360.004378 2097271BD911_$GPGGA,104600.00,5706.760437,N,00835.301913,E,1,12,0.4,6.4,M,44.0,M,,*68
1777632361.009606 2097271BD911_$GPGGA,104601.00,5706.760437,N,00835.301913,E,1,12,0.4,6.4,M,44.0,M,,*69
1777632362.008718 2097271BD911_$GPGGA,104602.00,5706.760437,N,00835.301913,E,1,12,0.4,6.4,M,44.0,M,,*6A
1777632363.009318 2097271BD911_$GPGGA,104603.00,5706.760438,N,00835.301913,E,1,12,0.4,6.4,M,44.0,M,,*64
1777632364.004274 2097271BD911_$GPGGA,104604.00,5706.760438,N,00835.301913,E,1,12,0.4,6.4,M,44.0,M,,*63
1777632365.004761 2097271BD911_$GPGGA,104605.00,5706.760438,N,00835.301913,E,1,12,0.4,6.4,M,44.0,M,,*62
1777632366.010203 2097271BD911_$GPGGA,104606.00,5706.760438,N,00835.301912,E,1,12,0.4,6.4,M,44.0,M,,*60
1777632367.010576 2097271BD911_$GPGGA,104607.00,5706.760438,N,00835.301912,E,1,12,0.4,6.4,M,44.0,M,,*61
1777632368.008051 2097271BD911_$GPGGA,104608.00,5706.760438,N,00835.301913,E,1,12,0.4,6.4,M,44.0,M,,*6F
1777632369.009120 2097271BD911_$GPGGA,104609.00,5706.760437,N,00835.301913,E,1,11,0.4,6.4,M,44.0,M,,*62
1777632370.009182 2097271BD911_$GPGGA,104610.00,5706.760437,N,00835.301913,E,1,11,0.4,6.4,M,44.0,M,,*6A
1777632371.004412 2097271BD911_$GPGGA,104611.00,5706.760437,N,00835.301913,E,1,11,0.4,6.4,M,44.0,M,,*6B
1777632372.009988 2097271BD911_$GPGGA,104612.00,5706.760437,N,00835.301913,E,1,11,0.4,6.4,M,44.0,M,,*68
1777632373.008718 2097271BD911_$GPGGA,104613.00,5706.760437,N,00835.301913,E,1,11,0.4,6.4,M,44.0,M,,*69
1777632374.008424 2097271BD911_$GPGGA,104614.00,5706.760437,N,00835.301913,E,1,11,0.4,6.4,M,44.0,M,,*6E
1777632375.003566 2097271BD911_$GPGGA,104615.00,5706.760437,N,00835.301913,E,1,11,0.4,6.4,M,44.0,M,,*6F
1777632376.003734 2097271BD911_$GPGGA,104616.00,5706.760437,N,00835.301913,E,1,11,0.4,6.4,M,44.0,M,,*6C
1777632377.010650 2097271BD911_$GPGGA,104617.00,5706.760438,N,00835.301913,E,1,10,0.5,6.4,M,44.0,M,,*62
1777632378.010184 2097271BD911_$GPGGA,104618.00,5706.760438,N,00835.301913,E,1,10,0.5,6.4,M,44.0,M,,*6D
1777632379.009536 2097271BD911_$GPGGA,104619.00,5706.760437,N,00835.301913,E,1,10,0.5,6.4,M,44.0,M,,*63
1777632380.010857 2097271BD911_$GPGGA,104620.00,5706.760437,N,00835.301913,E,1,10,0.5,6.4,M,44.0,M,,*69
1777632381.009431 2097271BD911_$GPGGA,104621.00,5706.760438,N,00835.301913,E,1,10,0.5,6.4,M,44.0,M,,*67
1777632382.003577 2097271BD911_$GPGGA,104622.00,5706.760438,N,00835.301913,E,1,10,0.5,6.4,M,44.0,M,,*64
1777632383.003226 2097271BD911_$GPGGA,104623.00,5706.760438,N,00835.301912,E,1,10,0.5,6.4,M,44.0,M,,*64
1777632384.009022 2097271BD911_$GPGGA,104624.00,5706.760438,N,00835.301912,E,1,10,0.5,6.4,M,44.0,M,,*63
1777632385.008930 2097271BD911_$GPGGA,104625.00,5706.760438,N,00835.301912,E,1,10,0.5,6.4,M,44.0,M,,*62
1777632386.003601 2097271BD911_$GPGGA,104626.00,5706.760438,N,00835.301912,E,1,10,0.5,6.4,M,44.0,M,,*61
1777632387.010138 2097271BD911_$GPGGA,104627.00,5706.760438,N,00835.301912,E,1,11,0.5,6.4,M,44.0,M,,*61
1777632388.009176 2097271BD911_$GPGGA,104628.00,5706.760438,N,00835.301912,E,1,11,0.5,6.4,M,44.0,M,,*6E
1777632389.008083 2097271BD911_$GPGGA,104629.00,5706.760438,N,00835.301912,E,1,11,0.5,6.4,M,44.0,M,,*6F
1777632390.002955 2097271BD911_$GPGGA,104630.00,5706.760439,N,00835.301912,E,1,11,0.5,6.4,M,44.0,M,,*66
1777632391.008103 2097271BD911_$GPGGA,104631.00,5706.760439,N,00835.301912,E,1,11,0.5,6.4,M,44.0,M,,*67
1777632392.008787 2097271BD911_$GPGGA,104632.00,5706.760439,N,00835.301912,E,1,11,0.5,6.4,M,44.0,M,,*64
1777632393.008412 2097271BD911_$GPGGA,104633.00,5706.760439,N,00835.301912,E,1,11,0.5,6.4,M,44.0,M,,*65
1777632394.001705 2097271BD911_$GPGGA,104634.00,5706.760439,N,00835.301912,E,1,11,0.5,6.4,M,44.0,M,,*62
1777632395.001689 2097271BD911_$GPGGA,104635.00,5706.760439,N,00835.301912,E,1,11,0.5,6.4,M,44.0,M,,*63
1777632396.009070 2097271BD911_$GPGGA,104636.00,5706.760439,N,00835.301912,E,1,11,0.5,6.4,M,44.0,M,,*60
1777632397.009621 2097271BD911_$GPGGA,104637.00,5706.760439,N,00835.301912,E,1,11,0.5,6.3,M,44.0,M,,*66
1777632398.001638 2097271BD911_$GPGGA,104638.00,5706.760439,N,00835.301912,E,1,11,0.5,6.3,M,44.0,M,,*69
1777632399.008121 2097271BD911_$GPGGA,104639.00,5706.760439,N,00835.301912,E,1,11,0.5,6.3,M,44.0,M,,*68
1777632400.008063 2097271BD911_$GPGGA,104640.00,5706.760439,N,00835.301912,E,1,11,0.5,6.3,M,44.0,M,,*66
1777632401.009133 2097271BD911_$GPGGA,104641.00,5706.760439,N,00835.301912,E,1,11,0.5,6.3,M,44.0,M,,*67
1777632402.002297 2097271BD911_$GPGGA,104642.00,5706.760439,N,00835.301912,E,1,11,0.5,6.3,M,44.0,M,,*64
1777632403.009212 2097271BD911_$GPGGA,104643.00,5706.760439,N,00835.301912,E,1,11,0.5,6.3,M,44.0,M,,*65
1777632404.000558 2097271BD911_$GPGGA,104644.00,5706.760439,N,00835.301912,E,1,11,0.5,6.3,M,44.0,M,,*62
1777632405.002660 2097271BD911_$GPGGA,104645.00,5706.760439,N,00835.301912,E,1,11,0.5,6.3,M,44.0,M,,*63
1777632406.003378 2097271BD911_$GPGGA,104646.00,5706.760439,N,00835.301912,E,1,11,0.5,6.3,M,44.0,M,,*60
1777632407.009634 2097271BD911_$GPGGA,104647.00,5706.760439,N,00835.301912,E,1,11,0.5,6.3,M,44.0,M,,*61
1777632408.008946 2097271BD911_$GPGGA,104648.00,5706.760439,N,00835.301912,E,1,10,0.5,6.3,M,44.0,M,,*6F
1777632409.005957 2097271BD911_$GPGGA,104649.00,5706.760439,N,00835.301911,E,1,10,0.5,6.3,M,44.0,M,,*6D
1777632410.008226 2097271BD911_$GPGGA,104650.00,5706.760439,N,00835.301911,E,1,10,0.5,6.3,M,44.0,M,,*65
1777632411.007831 2097271BD911_$GPGGA,104651.00,5706.760439,N,00835.301911,E,1,10,0.5,6.3,M,44.0,M,,*64
1777632412.009130 2097271BD911_$GPGGA,104652.00,5706.760439,N,00835.301911,E,1,10,0.5,6.3,M,44.0,M,,*67
1777632413.003021 2097271BD911_$GPGGA,104653.00,5706.760439,N,00835.301911,E,1,10,0.5,6.3,M,44.0,M,,*66
1777632414.008572 2097271BD911_$GPGGA,104654.00,5706.760439,N,00835.301911,E,1,10,0.5,6.3,M,44.0,M,,*61
1777632415.008928 2097271BD911_$GPGGA,104655.00,5706.760439,N,00835.301911,E,1,10,0.5,6.3,M,44.0,M,,*60
1777632416.008952 2097271BD911_$GPGGA,104656.00,5706.760439,N,00835.301911,E,1,10,0.5,6.3,M,44.0,M,,*63
1777632417.003085 2097271BD911_$GPGGA,104657.00,5706.760439,N,00835.301910,E,1,10,0.5,6.3,M,44.0,M,,*63
1777632418.008567 2097271BD911_$GPGGA,104658.00,5706.760439,N,00835.301910,E,1,10,0.5,6.3,M,44.0,M,,*6C
1777632419.009008 2097271BD911_$GPGGA,104659.00,5706.760439,N,00835.301910,E,1,10,0.5,6.3,M,44.0,M,,*6D
1777632420.003192 2097271BD911_$GPGGA,104700.00,5706.760439,N,00835.301910,E,1,10,0.5,6.3,M,44.0,M,,*60
1777632421.009403 2097271BD911_$GPGGA,104701.00,5706.760439,N,00835.301910,E,1,10,0.5,6.3,M,44.0,M,,*61
1777632422.007416 2097271BD911_$GPGGA,104702.00,5706.760439,N,00835.301910,E,1,10,0.5,6.3,M,44.0,M,,*62
1777632423.008445 2097271BD911_$GPGGA,104703.00,5706.760439,N,00835.301910,E,1,10,0.5,6.3,M,44.0,M,,*63
1777632424.003255 2097271BD911_$GPGGA,104704.00,5706.760439,N,00835.301910,E,1,10,0.5,6.3,M,44.0,M,,*64
1777632425.002653 2097271BD911_$GPGGA,104705.00,5706.760438,N,00835.301910,E,1,10,0.5,6.3,M,44.0,M,,*64
1777632426.008951 2097271BD911_$GPGGA,104706.00,5706.760438,N,00835.301909,E,1,10,0.5,6.3,M,44.0,M,,*6F
1777632427.009584 2097271BD911_$GPGGA,104707.00,5706.760438,N,00835.301909,E,1,10,0.5,6.3,M,44.0,M,,*6E
1777632428.003022 2097271BD911_$GPGGA,104708.00,5706.760438,N,00835.301909,E,1,10,0.5,6.3,M,44.0,M,,*61
1777632429.002534 2097271BD911_$GPGGA,104709.00,5706.760438,N,00835.301909,E,1,10,0.5,6.3,M,44.0,M,,*60
1777632430.009653 2097271BD911_$GPGGA,104710.00,5706.760438,N,00835.301908,E,1,10,0.5,6.3,M,44.0,M,,*69
1777632431.007967 2097271BD911_$GPGGA,104711.00,5706.760438,N,00835.301908,E,1,10,0.5,6.3,M,44.0,M,,*68
1777632432.003915 2097271BD911_$GPGGA,104712.00,5706.760438,N,00835.301908,E,1,10,0.5,6.3,M,44.0,M,,*6B
1777632433.008321 2097271BD911_$GPGGA,104713.00,5706.760438,N,00835.301907,E,1,10,0.5,6.3,M,44.0,M,,*65
1777632434.008839 2097271BD911_$GPGGA,104714.00,5706.760438,N,00835.301907,E,1,10,0.5,6.3,M,44.0,M,,*62
1777632435.002071 2097271BD911_$GPGGA,104715.00,5706.760438,N,00835.301907,E,1,10,0.5,6.3,M,44.0,M,,*63
1777632436.009019 2097271BD911_$GPGGA,104716.00,5706.760438,N,00835.301907,E,1,10,0.5,6.3,M,44.0,M,,*60
1777632437.008314 2097271BD911_$GPGGA,104717.00,5706.760438,N,00835.301907,E,1,10,0.5,6.3,M,44.0,M,,*61
1777632438.010465 2097271BD911_$GPGGA,104718.00,5706.760438,N,00835.301906,E,1,10,0.5,6.3,M,44.0,M,,*6F
1777632439.002750 2097271BD911_$GPGGA,104719.00,5706.760438,N,00835.301906,E,1,10,0.5,6.3,M,44.0,M,,*6E
1777632440.009406 2097271BD911_$GPGGA,104720.00,5706.760438,N,00835.301906,E,1,10,0.5,6.3,M,44.0,M,,*64
1777632441.008230 2097271BD911_$GPGGA,104721.00,5706.760438,N,00835.301906,E,1,10,0.5,6.3,M,44.0,M,,*65
1777632442.009427 2097271BD911_$GPGGA,104722.00,5706.760438,N,00835.301906,E,1,10,0.5,6.3,M,44.0,M,,*66
1777632443.009014 2097271BD911_$GPGGA,104723.00,5706.760438,N,00835.301906,E,1,10,0.5,6.3,M,44.0,M,,*67
1777632444.009261 2097271BD911_$GPGGA,104724.00,5706.760438,N,00835.301906,E,1,10,0.5,6.3,M,44.0,M,,*60
1777632445.008289 2097271BD911_$GPGGA,104725.00,5706.760438,N,00835.301906,E,1,10,0.5,6.3,M,44.0,M,,*61
1777632446.013869 2097271BD911_$GPGGA,104726.00,5706.760438,N,00835.301906,E,1,10,0.5,6.3,M,44.0,M,,*62
1777632447.030676 2097271BD911_$GPGGA,104727.00,5706.760438,N,00835.301906,E,1,10,0.5,6.3,M,44.0,M,,*63
1777632448.008454 2097271BD911_$GPGGA,104728.00,5706.760438,N,00835.301906,E,1,10,0.5,6.3,M,44.0,M,,*6C
1777632449.008944 2097271BD911_$GPGGA,104729.00,5706.760438,N,00835.301906,E,1,10,0.5,6.3,M,44.0,M,,*6D
1777632450.009248 2097271BD911_$GPGGA,104730.00,5706.760438,N,00835.301906,E,1,10,0.5,6.3,M,44.0,M,,*65
1777632451.002217 2097271BD911_$GPGGA,104731.00,5706.760438,N,00835.301906,E,1,10,0.5,6.3,M,44.0,M,,*64
1777632452.009187 2097271BD911_$GPGGA,104732.00,5706.760438,N,00835.301906,E,1,10,0.5,6.3,M,44.0,M,,*67
1777632453.008486 2097271BD911_$GPGGA,104733.00,5706.760438,N,00835.301905,E,1,10,0.5,6.3,M,44.0,M,,*65
1777632454.003077 2097271BD911_$GPGGA,104734.00,5706.760438,N,00835.301905,E,1,10,0.5,6.3,M,44.0,M,,*62
1777632455.002662 2097271BD911_$GPGGA,104735.00,5706.760438,N,00835.301906,E,1,10,0.5,6.3,M,44.0,M,,*60
1777632456.011841 2097271BD911_$GPGGA,104736.00,5706.760437,N,00835.301906,E,1,10,0.5,6.3,M,44.0,M,,*6C
1777632457.007627 2097271BD911_$GPGGA,104737.00,5706.760437,N,00835.301906,E,1,10,0.5,6.3,M,44.0,M,,*6D
1777632458.002253 2097271BD911_$GPGGA,104738.00,5706.760437,N,00835.301906,E,1,10,0.5,6.3,M,44.0,M,,*62
1777632459.002869 2097271BD911_$GPGGA,104739.00,5706.760437,N,00835.301906,E,1,10,0.5,6.3,M,44.0,M,,*63
1777632460.009589 2097271BD911_$GPGGA,104740.00,5706.760437,N,00835.301906,E,1,11,0.5,6.3,M,44.0,M,,*6C
1777632461.008449 2097271BD911_$GPGGA,104741.00,5706.760437,N,00835.301906,E,1,11,0.5,6.3,M,44.0,M,,*6D
1777632462.003275 2097271BD911_$GPGGA,104742.00,5706.760437,N,00835.301906,E,1,11,0.5,6.3,M,44.0,M,,*6E
1777632463.008662 2097271BD911_$GPGGA,104743.00,5706.760437,N,00835.301906,E,1,11,0.5,6.3,M,44.0,M,,*6F
1777632464.007947 2097271BD911_$GPGGA,104744.00,5706.760437,N,00835.301906,E,1,11,0.5,6.3,M,44.0,M,,*68
1777632465.003568 2097271BD911_$GPGGA,104745.00,5706.760437,N,00835.301905,E,1,11,0.5,6.3,M,44.0,M,,*6A
1777632466.003915 2097271BD911_$GPGGA,104746.00,5706.760437,N,00835.301905,E,1,11,0.5,6.3,M,44.0,M,,*69
1777632467.008912 2097271BD911_$GPGGA,104747.00,5706.760437,N,00835.301905,E,1,11,0.5,6.3,M,44.0,M,,*68
1777632468.010942 2097271BD911_$GPGGA,104748.00,5706.760437,N,00835.301905,E,1,11,0.5,6.3,M,44.0,M,,*67
1777632469.001962 2097271BD911_$GPGGA,104749.00,5706.760437,N,00835.301905,E,1,11,0.5,6.3,M,44.0,M,,*66
1777632470.008703 2097271BD911_$GPGGA,104750.00,5706.760437,N,00835.301905,E,1,11,0.5,6.3,M,44.0,M,,*6E
1777632471.009441 2097271BD911_$GPGGA,104751.00,5706.760437,N,00835.301905,E,1,10,0.5,6.3,M,44.0,M,,*6E
1777632472.010186 2097271BD911_$GPGGA,104752.00,5706.760437,N,00835.301905,E,1,10,0.5,6.3,M,44.0,M,,*6D
1777632473.002444 2097271BD911_$GPGGA,104753.00,5706.760437,N,00835.301905,E,1,11,0.5,6.3,M,44.0,M,,*6D
1777632474.010020 2097271BD911_$GPGGA,104754.00,5706.760437,N,00835.301905,E,1,11,0.5,6.3,M,44.0,M,,*6A
1777632475.008668 2097271BD911_$GPGGA,104755.00,5706.760437,N,00835.301905,E,1,11,0.5,6.3,M,44.0,M,,*6B
1777632476.011072 2097271BD911_$GPGGA,104756.00,5706.760436,N,00835.301904,E,1,11,0.5,6.3,M,44.0,M,,*68
1777632477.003747 2097271BD911_$GPGGA,104757.00,5706.760436,N,00835.301904,E,1,11,0.5,6.3,M,44.0,M,,*69
1777632478.008814 2097271BD911_$GPGGA,104758.00,5706.760436,N,00835.301904,E,1,11,0.5,6.3,M,44.0,M,,*66
1777632479.009647 2097271BD911_$GPGGA,104759.00,5706.760436,N,00835.301904,E,1,11,0.5,6.3,M,44.0,M,,*67
1777632480.002836 2097271BD911_$GPGGA,104800.00,5706.760436,N,00835.301904,E,1,11,0.5,6.3,M,44.0,M,,*64
1777632481.009079 2097271BD911_$GPGGA,104801.00,5706.760436,N,00835.301904,E,1,11,0.5,6.3,M,44.0,M,,*65
1777632482.009472 2097271BD911_$GPGGA,104802.00,5706.760436,N,00835.301904,E,1,10,0.5,6.3,M,44.0,M,,*67
1777632483.008223 2097271BD911_$GPGGA,104803.00,5706.760436,N,00835.301904,E,1,10,0.5,6.3,M,44.0,M,,*66
1777632484.003331 2097271BD911_$GPGGA,104804.00,5706.760436,N,00835.301904,E,1,10,0.5,6.3,M,44.0,M,,*61
1777632485.003537 2097271BD911_$GPGGA,104805.00,5706.760436,N,00835.301904,E,1,10,0.5,6.3,M,44.0,M,,*60
1777632486.005778 2097271BD911_$GPGGA,104806.00,5706.760436,N,00835.301904,E,1,10,0.5,6.3,M,44.0,M,,*63
1777632487.009829 2097271BD911_$GPGGA,104807.00,5706.760436,N,00835.301904,E,1,10,0.5,6.3,M,44.0,M,,*62
1777632488.001822 2097271BD911_$GPGGA,104808.00,5706.760436,N,00835.301904,E,1,10,0.5,6.3,M,44.0,M,,*6D
1777632489.008139 2097271BD911_$GPGGA,104809.00,5706.760436,N,00835.301904,E,1,10,0.5,6.3,M,44.0,M,,*6C
1777632490.008540 2097271BD911_$GPGGA,104810.00,5706.760436,N,00835.301904,E,1,11,0.4,6.3,M,44.0,M,,*64
1777632491.011548 2097271BD911_$GPGGA,104811.00,5706.760436,N,00835.301904,E,1,11,0.4,6.3,M,44.0,M,,*65
1777632492.008959 2097271BD911_$GPGGA,104812.00,5706.760436,N,00835.301904,E,1,11,0.4,6.3,M,44.0,M,,*66
1777632493.010576 2097271BD911_$GPGGA,104813.00,5706.760436,N,00835.301904,E,1,11,0.4,6.3,M,44.0,M,,*67
1777632494.008300 2097271BD911_$GPGGA,104814.00,5706.760436,N,00835.301904,E,1,11,0.4,6.3,M,44.0,M,,*60
1777632495.011101 2097271BD911_$GPGGA,104815.00,5706.760436,N,00835.301904,E,1,11,0.4,6.3,M,44.0,M,,*61
1777632496.008935 2097271BD911_$GPGGA,104816.00,5706.760436,N,00835.301904,E,1,11,0.4,6.3,M,44.0,M,,*62
1777632497.008461 2097271BD911_$GPGGA,104817.00,5706.760436,N,00835.301904,E,1,11,0.4,6.3,M,44.0,M,,*63
1777632498.008066 2097271BD911_$GPGGA,104818.00,5706.760436,N,00835.301904,E,1,11,0.4,6.3,M,44.0,M,,*6C
1777632499.003504 2097271BD911_$GPGGA,104819.00,5706.760436,N,00835.301904,E,1,11,0.4,6.3,M,44.0,M,,*6D
1777632500.003224 2097271BD911_$GPGGA,104820.00,5706.760436,N,00835.301904,E,1,11,0.4,6.3,M,44.0,M,,*67
1777632501.008235 2097271BD911_$GPGGA,104821.00,5706.760436,N,00835.301905,E,1,11,0.4,6.3,M,44.0,M,,*67
1777632502.009262 2097271BD911_$GPGGA,104822.00,5706.760436,N,00835.301905,E,1,11,0.4,6.3,M,44.0,M,,*64
1777632503.009179 2097271BD911_$GPGGA,104823.00,5706.760436,N,00835.301905,E,1,11,0.4,6.3,M,44.0,M,,*65
1777632504.007630 2097271BD911_$GPGGA,104824.00,5706.760436,N,00835.301905,E,1,11,0.4,6.3,M,44.0,M,,*62
1777632505.008822 2097271BD911_$GPGGA,104825.00,5706.760435,N,00835.301904,E,1,11,0.4,6.3,M,44.0,M,,*61
1777632506.009780 2097271BD911_$GPGGA,104826.00,5706.760436,N,00835.301904,E,1,11,0.4,6.3,M,44.0,M,,*61
1777632507.002824 2097271BD911_$GPGGA,104827.00,5706.760436,N,00835.301904,E,1,11,0.4,6.3,M,44.0,M,,*60
1777632508.010626 2097271BD911_$GPGGA,104828.00,5706.760436,N,00835.301904,E,1,11,0.4,6.3,M,44.0,M,,*6F
1777632509.005771 2097271BD911_$GPGGA,104829.00,5706.760436,N,00835.301904,E,1,11,0.4,6.3,M,44.0,M,,*6E
1777632510.003189 2097271BD911_$GPGGA,104830.00,5706.760436,N,00835.301904,E,1,11,0.4,6.3,M,44.0,M,,*66
1777632511.003217 2097271BD911_$GPGGA,104831.00,5706.760436,N,00835.301904,E,1,11,0.4,6.3,M,44.0,M,,*67
1777632512.010091 2097271BD911_$GPGGA,104832.00,5706.760436,N,00835.301904,E,1,11,0.4,6.3,M,44.0,M,,*64
1777632513.009200 2097271BD911_$GPGGA,104833.00,5706.760436,N,00835.301904,E,1,11,0.4,6.3,M,44.0,M,,*65
1777632514.003953 2097271BD911_$GPGGA,104834.00,5706.760436,N,00835.301904,E,1,11,0.4,6.3,M,44.0,M,,*62
1777632515.003436 2097271BD911_$GPGGA,104835.00,5706.760436,N,00835.301904,E,1,11,0.4,6.3,M,44.0,M,,*63
1777632516.009953 2097271BD911_$GPGGA,104836.00,5706.760436,N,00835.301904,E,1,11,0.4,6.3,M,44.0,M,,*60
1777632517.009152 2097271BD911_$GPGGA,104837.00,5706.760436,N,00835.301904,E,1,11,0.4,6.3,M,44.0,M,,*61
1777632518.003211 2097271BD911_$GPGGA,104838.00,5706.760436,N,00835.301904,E,1,11,0.4,6.3,M,44.0,M,,*6E
1777632519.003578 2097271BD911_$GPGGA,104839.00,5706.760436,N,00835.301904,E,1,11,0.4,6.3,M,44.0,M,,*6F
1777632520.009912 2097271BD911_$GPGGA,104840.00,5706.760436,N,00835.301904,E,1,11,0.4,6.3,M,44.0,M,,*61
1777632521.009331 2097271BD911_$GPGGA,104841.00,5706.760436,N,00835.301904,E,1,11,0.4,6.3,M,44.0,M,,*60
1777632522.007816 2097271BD911_$GPGGA,104842.00,5706.760436,N,00835.301904,E,1,11,0.4,6.3,M,44.0,M,,*63
1777632523.008542 2097271BD911_$GPGGA,104843.00,5706.760436,N,00835.301904,E,1,11,0.4,6.3,M,44.0,M,,*62
1777632524.009199 2097271BD911_$GPGGA,104844.00,5706.760436,N,00835.301904,E,1,11,0.4,6.3,M,44.0,M,,*65
1777632525.003076 2097271BD911_$GPGGA,104845.00,5706.760436,N,00835.301904,E,1,11,0.4,6.3,M,44.0,M,,*64
1777632526.002569 2097271BD911_$GPGGA,104846.00,5706.760436,N,00835.301904,E,1,11,0.4,6.3,M,44.0,M,,*67
1777632527.009383 2097271BD911_$GPGGA,104847.00,5706.760436,N,00835.301904,E,1,11,0.4,6.3,M,44.0,M,,*66
1777632528.009037 2097271BD911_$GPGGA,104848.00,5706.760436,N,00835.301904,E,1,11,0.4,6.3,M,44.0,M,,*69
1777632529.002990 2097271BD911_$GPGGA,104849.00,5706.760436,N,00835.301904,E,1,11,0.4,6.3,M,44.0,M,,*68
1777632530.009104 2097271BD911_$GPGGA,104850.00,5706.760436,N,00835.301904,E,1,11,0.4,6.3,M,44.0,M,,*60
1777632531.009219 2097271BD911_$GPGGA,104851.00,5706.760436,N,00835.301904,E,1,11,0.4,6.3,M,44.0,M,,*61
1777632532.009575 2097271BD911_$GPGGA,104852.00,5706.760436,N,00835.301904,E,1,11,0.4,6.3,M,44.0,M,,*62
1777632533.003234 2097271BD911_$GPGGA,104853.00,5706.760436,N,00835.301904,E,1,11,0.4,6.3,M,44.0,M,,*63
1777632534.007995 2097271BD911_$GPGGA,104854.00,5706.760436,N,00835.301904,E,1,11,0.4,6.3,M,44.0,M,,*64
1777632535.009132 2097271BD911_$GPGGA,104855.00,5706.760436,N,00835.301904,E,1,11,0.4,6.3,M,44.0,M,,*65
1777632536.008566 2097271BD911_$GPGGA,104856.00,5706.760436,N,00835.301903,E,1,11,0.4,6.3,M,44.0,M,,*61
1777632537.003406 2097271BD911_$GPGGA,104857.00,5706.760436,N,00835.301903,E,1,11,0.4,6.3,M,44.0,M,,*60
1777632538.008647 2097271BD911_$GPGGA,104858.00,5706.760437,N,00835.301903,E,1,11,0.4,6.3,M,44.0,M,,*6E
1777632539.009310 2097271BD911_$GPGGA,104859.00,5706.760437,N,00835.301903,E,1,11,0.4,6.3,M,44.0,M,,*6F
1777632540.003659 2097271BD911_$GPGGA,104900.00,5706.760388,N,00835.301827,E,1,11,0.4,6.2,M,44.0,M,,*67
1777632541.010140 2097271BD911_$GPGGA,104901.00,5706.760244,N,00835.301594,E,1,11,0.4,6.2,M,44.0,M,,*62
1777632542.009432 2097271BD911_$GPGGA,104902.00,5706.760021,N,00835.301213,E,1,12,0.4,6.2,M,44.0,M,,*6B
1777632543.010005 2097271BD911_$GPGGA,104903.00,5706.759734,N,00835.300681,E,1,12,0.4,6.2,M,44.0,M,,*6D
1777632544.002958 2097271BD911_$GPGGA,104904.00,5706.759404,N,00835.299979,E,1,12,0.4,5.9,M,44.0,M,,*6B
1777632545.000875 2097271BD911_$GPGGA,104905.00,5706.759075,N,00835.299157,E,1,12,0.4,5.8,M,44.0,M,,*6D
1777632546.009293 2097271BD911_$GPGGA,104906.00,5706.758773,N,00835.298295,E,1,12,0.4,5.7,M,44.0,M,,*6D
1777632547.010426 2097271BD911_$GPGGA,104907.00,5706.758566,N,00835.297495,E,1,12,0.4,5.6,M,44.0,M,,*62
1777632548.003102 2097271BD911_$GPGGA,104908.00,5706.758421,N,00835.296778,E,1,12,0.4,5.6,M,44.0,M,,*6E
1777632549.010149 2097271BD911_$GPGGA,104909.00,5706.758299,N,00835.296040,E,1,12,0.4,5.5,M,44.0,M,,*65
1777632550.007739 2097271BD911_$GPGGA,104910.00,5706.758174,N,00835.295215,E,1,12,0.4,5.3,M,44.0,M,,*6A
1777632551.008594 2097271BD911_$GPGGA,104911.00,5706.758049,N,00835.294352,E,1,12,0.4,5.3,M,44.0,M,,*67
1777632552.010699 2097271BD911_$GPGGA,104912.00,5706.757911,N,00835.293400,E,1,12,0.4,5.3,M,44.0,M,,*68
1777632553.008843 2097271BD911_$GPGGA,104913.00,5706.757743,N,00835.292296,E,1,12,0.4,5.3,M,44.0,M,,*68
1777632554.009992 2097271BD911_$GPGGA,104914.00,5706.757531,N,00835.291042,E,1,12,0.4,5.2,M,44.0,M,,*61
1777632555.002296 2097271BD911_$GPGGA,104915.00,5706.757329,N,00835.289694,E,1,12,0.4,5.3,M,44.0,M,,*6A
1777632556.003651 2097271BD911_$GPGGA,104916.00,5706.757170,N,00835.288348,E,1,12,0.4,5.3,M,44.0,M,,*62
1777632557.009064 2097271BD911_$GPGGA,104917.00,5706.757059,N,00835.287089,E,1,12,0.4,5.4,M,44.0,M,,*6F
1777632558.009141 2097271BD911_$GPGGA,104918.00,5706.756981,N,00835.285906,E,1,12,0.4,5.5,M,44.0,M,,*60
1777632559.003405 2097271BD911_$GPGGA,104919.00,5706.756920,N,00835.284709,E,1,12,0.4,5.4,M,44.0,M,,*6B
1777632560.011514 2097271BD911_$GPGGA,104920.00,5706.756888,N,00835.283431,E,1,12,0.4,5.5,M,44.0,M,,*6C
1777632561.008765 2097271BD911_$GPGGA,104921.00,5706.756905,N,00835.282059,E,1,12,0.4,5.5,M,44.0,M,,*62
1777632562.009776 2097271BD911_$GPGGA,104922.00,5706.756948,N,00835.280596,E,1,12,0.4,5.5,M,44.0,M,,*6C
1777632563.008948 2097271BD911_$GPGGA,104923.00,5706.756969,N,00835.279035,E,1,12,0.4,5.5,M,44.0,M,,*64
1777632564.010254 2097271BD911_$GPGGA,104924.00,5706.756887,N,00835.277389,E,1,12,0.4,5.4,M,44.0,M,,*69
1777632565.008752 2097271BD911_$GPGGA,104925.00,5706.756652,N,00835.275696,E,1,12,0.4,5.4,M,44.0,M,,*67
1777632566.010667 2097271BD911_$GPGGA,104926.00,5706.756238,N,00835.274062,E,1,12,0.4,5.4,M,44.0,M,,*60
1777632567.002943 2097271BD911_$GPGGA,104927.00,5706.755629,N,00835.272618,E,1,12,0.4,5.4,M,44.0,M,,*6B
1777632568.010626 2097271BD911_$GPGGA,104928.00,5706.754807,N,00835.271388,E,1,12,0.4,5.4,M,44.0,M,,*68
1777632569.008506 2097271BD911_$GPGGA,104929.00,5706.753816,N,00835.270510,E,1,12,0.4,5.4,M,44.0,M,,*68
1777632570.004218 2097271BD911_$GPGGA,104930.00,5706.752675,N,00835.270141,E,1,12,0.4,5.5,M,44.0,M,,*6B
1777632571.004024 2097271BD911_$GPGGA,104931.00,5706.751359,N,00835.270347,E,1,12,0.4,5.7,M,44.0,M,,*64
1777632572.009159 2097271BD911_$GPGGA,104932.00,5706.749996,N,00835.271271,E,1,12,0.4,5.6,M,44.0,M,,*63
1777632573.008422 2097271BD911_$GPGGA,104933.00,5706.748719,N,00835.272894,E,1,12,0.4,5.7,M,44.0,M,,*69
1777632574.002945 2097271BD911_$GPGGA,104934.00,5706.747588,N,00835.275195,E,1,12,0.4,5.7,M,44.0,M,,*64
1777632575.002851 2097271BD911_$GPGGA,104935.00,5706.746718,N,00835.277902,E,1,12,0.4,5.8,M,44.0,M,,*64
1777632576.008619 2097271BD911_$GPGGA,104936.00,5706.746158,N,00835.280612,E,1,12,0.4,5.8,M,44.0,M,,*63
1777632577.009410 2097271BD911_$GPGGA,104937.00,5706.745844,N,00835.283249,E,1,12,0.4,5.8,M,44.0,M,,*6C
1777632578.003529 2097271BD911_$GPGGA,104938.00,5706.745682,N,00835.285829,E,1,12,0.4,6.0,M,44.0,M,,*66
1777632579.009268 2097271BD911_$GPGGA,104939.00,5706.745631,N,00835.288127,E,1,12,0.4,6.0,M,44.0,M,,*65
1777632580.009104 2097271BD911_$GPGGA,104940.00,5706.745632,N,00835.290085,E,1,12,0.4,6.2,M,44.0,M,,*6A
1777632581.008582 2097271BD911_$GPGGA,104941.00,5706.745653,N,00835.291789,E,1,12,0.4,6.3,M,44.0,M,,*67
1777632582.002641 2097271BD911_$GPGGA,104942.00,5706.745677,N,00835.293317,E,1,12,0.4,6.4,M,44.0,M,,*64
1777632583.009912 2097271BD911_$GPGGA,104943.00,5706.745686,N,00835.294792,E,1,12,0.4,6.5,M,44.0,M,,*64
1777632584.009045 2097271BD911_$GPGGA,104944.00,5706.745676,N,00835.296347,E,1,12,0.4,6.7,M,44.0,M,,*60
1777632585.009886 2097271BD911_$GPGGA,104945.00,5706.745632,N,00835.298094,E,1,12,0.4,6.8,M,44.0,M,,*6D
1777632586.003553 2097271BD911_$GPGGA,104946.00,5706.745555,N,00835.300068,E,1,12,0.4,7.0,M,44.0,M,,*66
1777632587.009772 2097271BD911_$GPGGA,104947.00,5706.745451,N,00835.302276,E,1,12,0.4,7.1,M,44.0,M,,*6C
1777632588.009148 2097271BD911_$GPGGA,104948.00,5706.745343,N,00835.304602,E,1,12,0.4,7.2,M,44.0,M,,*65
1777632589.003192 2097271BD911_$GPGGA,104949.00,5706.745241,N,00835.306829,E,1,12,0.4,7.3,M,44.0,M,,*63
1777632590.009402 2097271BD911_$GPGGA,104950.00,5706.745155,N,00835.308845,E,1,12,0.4,7.4,M,44.0,M,,*6E
1777632591.010212 2097271BD911_$GPGGA,104951.00,5706.745078,N,00835.310659,E,1,12,0.4,7.5,M,44.0,M,,*6A
1777632592.010262 2097271BD911_$GPGGA,104952.00,5706.745017,N,00835.312251,E,1,12,0.4,7.6,M,44.0,M,,*6D
1777632593.003507 2097271BD911_$GPGGA,104953.00,5706.744951,N,00835.313652,E,1,12,0.4,7.6,M,44.0,M,,*60
1777632594.009276 2097271BD911_$GPGGA,104954.00,5706.744842,N,00835.315058,E,1,12,0.4,7.5,M,44.0,M,,*6D
1777632595.010081 2097271BD911_$GPGGA,104955.00,5706.744686,N,00835.316490,E,1,12,0.4,7.3,M,44.0,M,,*6F
1777632596.009210 2097271BD911_$GPGGA,104956.00,5706.744511,N,00835.317735,E,1,12,0.4,7.1,M,44.0,M,,*6E
1777632597.003557 2097271BD911_$GPGGA,104957.00,5706.744358,N,00835.318575,E,1,12,0.4,7.2,M,44.0,M,,*6E
1777632598.008727 2097271BD911_$GPGGA,104958.00,5706.744265,N,00835.318917,E,1,12,0.4,7.1,M,44.0,M,,*65
1777632599.008871 2097271BD911_$GPGGA,104959.00,5706.744171,N,00835.318593,E,1,12,0.4,6.8,M,44.0,M,,*6A
1777632600.003135 2097271BD911_$GPGGA,105000.00,5706.744078,N,00835.318330,E,1,12,0.4,6.6,M,44.0,M,,*67
1777632601.008834 2097271BD911_$GPGGA,105001.00,5706.744009,N,00835.318167,E,1,12,0.4,6.6,M,44.0,M,,*60
1777632602.008674 2097271BD911_$GPGGA,105002.00,5706.743973,N,00835.318116,E,1,12,0.4,6.6,M,44.0,M,,*66
1777632603.009032 2097271BD911_$GPGGA,105003.00,5706.743936,N,00835.318082,E,1,12,0.4,6.5,M,44.0,M,,*69
1777632604.003413 2097271BD911_$GPGGA,105004.00,5706.743918,N,00835.318090,E,1,12,0.4,6.4,M,44.0,M,,*60
1777632605.008775 2097271BD911_$GPGGA,105005.00,5706.743910,N,00835.318142,E,1,12,0.4,6.3,M,44.0,M,,*60
1777632606.009413 2097271BD911_$GPGGA,105006.00,5706.743899,N,00835.318215,E,1,12,0.4,6.3,M,44.0,M,,*62
1777632607.009651 2097271BD911_$GPGGA,105007.00,5706.743895,N,00835.318304,E,1,12,0.4,6.3,M,44.0,M,,*6E
1777632608.003633 2097271BD911_$GPGGA,105008.00,5706.743900,N,00835.318402,E,1,12,0.4,6.3,M,44.0,M,,*6D
1777632609.008729 2097271BD911_$GPGGA,105009.00,5706.743897,N,00835.318462,E,1,12,0.4,6.3,M,44.0,M,,*65
1777632610.009243 2097271BD911_$GPGGA,105010.00,5706.743897,N,00835.318498,E,1,12,0.4,6.3,M,44.0,M,,*68
1777632611.009123 2097271BD911_$GPGGA,105011.00,5706.743896,N,00835.318522,E,1,12,0.4,6.3,M,44.0,M,,*68
1777632612.003585 2097271BD911_$GPGGA,105012.00,5706.743895,N,00835.318538,E,1,12,0.4,6.3,M,44.0,M,,*63
1777632613.008424 2097271BD911_$GPGGA,105013.00,5706.743894,N,00835.318548,E,1,12,0.4,6.3,M,44.0,M,,*64
1777632614.000895 2097271BD911_$GPGGA,105014.00,5706.743892,N,00835.318554,E,1,12,0.4,6.3,M,44.0,M,,*68
1777632615.003881 2097271BD911_$GPGGA,105015.00,5706.743867,N,00835.318651,E,1,12,0.4,6.2,M,44.0,M,,*64
1777632616.008762 2097271BD911_$GPGGA,105016.00,5706.743775,N,00835.319059,E,1,12,0.4,6.2,M,44.0,M,,*64
1777632617.008955 2097271BD911_$GPGGA,105017.00,5706.743610,N,00835.319804,E,1,12,0.4,6.1,M,44.0,M,,*64
1777632618.009894 2097271BD911_$GPGGA,105018.00,5706.743307,N,00835.320901,E,1,12,0.4,6.1,M,44.0,M,,*66
1777632619.010069 2097271BD911_$GPGGA,105019.00,5706.742858,N,00835.322182,E,1,12,0.4,6.0,M,44.0,M,,*67
1777632620.010740 2097271BD911_$GPGGA,105020.00,5706.742252,N,00835.323460,E,1,12,0.4,5.9,M,44.0,M,,*6F
1777632621.009495 2097271BD911_$GPGGA,105021.00,5706.741488,N,00835.324578,E,1,12,0.4,5.9,M,44.0,M,,*63
1777632622.010514 2097271BD911_$GPGGA,105022.00,5706.740594,N,00835.325358,E,1,12,0.4,5.9,M,44.0,M,,*68
1777632623.003435 2097271BD911_$GPGGA,105023.00,5706.739642,N,00835.325793,E,1,12,0.4,6.0,M,44.0,M,,*66
1777632624.009740 2097271BD911_$GPGGA,105024.00,5706.738713,N,00835.325903,E,1,12,0.4,6.0,M,44.0,M,,*62
1777632625.007032 2097271BD911_$GPGGA,105025.00,5706.737837,N,00835.325852,E,1,12,0.4,5.9,M,44.0,M,,*6A
1777632626.008473 2097271BD911_$GPGGA,105026.00,5706.737002,N,00835.325713,E,1,12,0.4,6.0,M,44.0,M,,*67
1777632627.003401 2097271BD911_$GPGGA,105027.00,5706.736201,N,00835.325522,E,1,12,0.4,6.0,M,44.0,M,,*66
1777632628.009459 2097271BD911_$GPGGA,105028.00,5706.735413,N,00835.325269,E,1,12,0.4,5.8,M,44.0,M,,*6C
1777632629.010404 2097271BD911_$GPGGA,105029.00,5706.734648,N,00835.324959,E,1,12,0.4,5.9,M,44.0,M,,*68
1777632630.004014 2097271BD911_$GPGGA,105030.00,5706.733985,N,00835.324645,E,1,12,0.4,6.0,M,44.0,M,,*61
1777632631.009717 2097271BD911_$GPGGA,105031.00,5706.733432,N,00835.324395,E,1,11,0.4,6.1,M,44.0,M,,*6B
1777632632.008710 2097271BD911_$GPGGA,105032.00,5706.732955,N,00835.324148,E,1,11,0.4,6.1,M,44.0,M,,*67
1777632633.010428 2097271BD911_$GPGGA,105033.00,5706.732506,N,00835.323933,E,1,11,0.4,6.2,M,44.0,M,,*6C
1777632634.003246 2097271BD911_$GPGGA,105034.00,5706.732087,N,00835.323727,E,1,11,0.4,6.2,M,44.0,M,,*6C
1777632635.010341 2097271BD911_$GPGGA,105035.00,5706.731735,N,00835.323557,E,1,11,0.4,6.3,M,44.0,M,,*64
1777632636.011179 2097271BD911_$GPGGA,105036.00,5706.731554,N,00835.323482,E,1,11,0.4,6.2,M,44.0,M,,*6A
1777632637.010627 2097271BD911_$GPGGA,105037.00,5706.731552,N,00835.323358,E,1,11,0.4,6.4,M,44.0,M,,*6B
1777632638.003412 2097271BD911_$GPGGA,105038.00,5706.731594,N,00835.323291,E,1,11,0.4,6.5,M,44.0,M,,*6B
1777632639.010237 2097271BD911_$GPGGA,105039.00,5706.731594,N,00835.323247,E,1,11,0.4,6.5,M,44.0,M,,*61
1777632640.009689 2097271BD911_$GPGGA,105040.00,5706.731587,N,00835.323229,E,1,11,0.4,6.5,M,44.0,M,,*65
1777632641.009600 2097271BD911_$GPGGA,105041.00,5706.731569,N,00835.323248,E,1,11,0.4,6.5,M,44.0,M,,*63
1777632642.006175 2097271BD911_$GPGGA,105042.00,5706.731545,N,00835.323252,E,1,11,0.4,6.6,M,44.0,M,,*66
1777632643.009793 2097271BD911_$GPGGA,105043.00,5706.731523,N,00835.323257,E,1,11,0.4,6.6,M,44.0,M,,*62
1777632644.008786 2097271BD911_$GPGGA,105044.00,5706.731513,N,00835.323260,E,1,11,0.4,6.7,M,44.0,M,,*63
1777632645.003870 2097271BD911_$GPGGA,105045.00,5706.731511,N,00835.323291,E,1,11,0.4,6.7,M,44.0,M,,*6E
1777632646.009522 2097271BD911_$GPGGA,105046.00,5706.731510,N,00835.323319,E,1,11,0.4,6.7,M,44.0,M,,*6D
1777632647.009155 2097271BD911_$GPGGA,105047.00,5706.731522,N,00835.323324,E,1,11,0.4,6.7,M,44.0,M,,*63
1777632648.007140 2097271BD911_$GPGGA,105048.00,5706.731532,N,00835.323321,E,1,11,0.4,6.7,M,44.0,M,,*68
1777632649.002519 2097271BD911_$GPGGA,105049.00,5706.731537,N,00835.323317,E,1,11,0.4,6.7,M,44.0,M,,*69
1777632650.009112 2097271BD911_$GPGGA,105050.00,5706.731539,N,00835.323313,E,1,11,0.4,6.7,M,44.0,M,,*6B
1777632651.007621 2097271BD911_$GPGGA,105051.00,5706.731538,N,00835.323309,E,1,11,0.4,6.7,M,44.0,M,,*60
1777632652.008228 2097271BD911_$GPGGA,105052.00,5706.731537,N,00835.323306,E,1,11,0.4,6.7,M,44.0,M,,*63
1777632653.002555 2097271BD911_$GPGGA,105053.00,5706.731535,N,00835.323304,E,1,11,0.4,6.7,M,44.0,M,,*62
1777632654.009180 2097271BD911_$GPGGA,105054.00,5706.731533,N,00835.323303,E,1,11,0.4,6.7,M,44.0,M,,*64
1777632655.009016 2097271BD911_$GPGGA,105055.00,5706.731530,N,00835.323301,E,1,11,0.4,6.7,M,44.0,M,,*64
1777632656.008110 2097271BD911_$GPGGA,105056.00,5706.731528,N,00835.323300,E,1,11,0.4,6.7,M,44.0,M,,*6F
1777632657.008685 2097271BD911_$GPGGA,105057.00,5706.731526,N,00835.323298,E,1,11,0.4,6.7,M,44.0,M,,*60
1777632658.009799 2097271BD911_$GPGGA,105058.00,5706.731524,N,00835.323297,E,1,11,0.4,6.7,M,44.0,M,,*62
1777632659.008294 2097271BD911_$GPGGA,105059.00,5706.731521,N,00835.323295,E,1,11,0.4,6.7,M,44.0,M,,*64
1777632660.003574 2097271BD911_$GPGGA,105100.00,5706.731519,N,00835.323294,E,1,11,0.4,6.7,M,44.0,M,,*63
1777632661.009119 2097271BD911_$GPGGA,105101.00,5706.731517,N,00835.323293,E,1,11,0.4,6.7,M,44.0,M,,*6B
1777632662.008521 2097271BD911_$GPGGA,105102.00,5706.731515,N,00835.323292,E,1,11,0.4,6.7,M,44.0,M,,*6B
1777632663.009467 2097271BD911_$GPGGA,105103.00,5706.731512,N,00835.323290,E,1,11,0.4,6.7,M,44.0,M,,*6F
1777632664.005658 2097271BD911_$GPGGA,105104.00,5706.731510,N,00835.323289,E,1,11,0.4,6.7,M,44.0,M,,*62
1777632665.008535 2097271BD911_$GPGGA,105105.00,5706.731508,N,00835.323288,E,1,11,0.4,6.7,M,44.0,M,,*6B
1777632666.009702 2097271BD911_$GPGGA,105106.00,5706.731506,N,00835.323286,E,1,11,0.4,6.7,M,44.0,M,,*68
1777632667.009006 2097271BD911_$GPGGA,105107.00,5706.731503,N,00835.323285,E,1,11,0.4,6.7,M,44.0,M,,*6F
1777632668.009832 2097271BD911_$GPGGA,105108.00,5706.731501,N,00835.323284,E,1,11,0.4,6.7,M,44.0,M,,*63
1777632669.009493 2097271BD911_$GPGGA,105109.00,5706.731499,N,00835.323284,E,1,11,0.4,6.7,M,44.0,M,,*62
1777632670.007781 2097271BD911_$GPGGA,105110.00,5706.731497,N,00835.323283,E,1,11,0.4,6.7,M,44.0,M,,*63
1777632671.008064 2097271BD911_$GPGGA,105111.00,5706.731495,N,00835.323282,E,1,11,0.4,6.7,M,44.0,M,,*61
1777632672.009262 2097271BD911_$GPGGA,105112.00,5706.731493,N,00835.323282,E,1,11,0.4,6.7,M,44.0,M,,*64
1777632673.007257 2097271BD911_$GPGGA,105113.00,5706.731490,N,00835.323282,E,1,11,0.4,6.7,M,44.0,M,,*66
1777632674.009208 2097271BD911_$GPGGA,105114.00,5706.731488,N,00835.323282,E,1,11,0.4,6.7,M,44.0,M,,*68
1777632675.003048 2097271BD911_$GPGGA,105115.00,5706.731486,N,00835.323281,E,1,11,0.4,6.7,M,44.0,M,,*64
1777632676.007030 2097271BD911_$GPGGA,105116.00,5706.731484,N,00835.323281,E,1,11,0.4,6.7,M,44.0,M,,*65
1777632677.008423 2097271BD911_$GPGGA,105117.00,5706.731483,N,00835.323280,E,1,11,0.4,6.8,M,44.0,M,,*6D
1777632678.008555 2097271BD911_$GPGGA,105118.00,5706.731481,N,00835.323279,E,1,11,0.4,6.8,M,44.0,M,,*66
1777632679.008509 2097271BD911_$GPGGA,105119.00,5706.731479,N,00835.323278,E,1,11,0.4,6.8,M,44.0,M,,*61
1777632680.008499 2097271BD911_$GPGGA,105120.00,5706.731477,N,00835.323278,E,1,11,0.4,6.8,M,44.0,M,,*65
1777632681.006651 2097271BD911_$GPGGA,105121.00,5706.731475,N,00835.323277,E,1,11,0.4,6.8,M,44.0,M,,*69
1777632682.008614 2097271BD911_$GPGGA,105122.00,5706.731473,N,00835.323277,E,1,11,0.4,6.8,M,44.0,M,,*6C
1777632683.002535 2097271BD911_$GPGGA,105123.00,5706.731472,N,00835.323276,E,1,11,0.4,6.8,M,44.0,M,,*6D
1777632684.008592 2097271BD911_$GPGGA,105124.00,5706.731470,N,00835.323275,E,1,11,0.4,6.8,M,44.0,M,,*6B
1777632685.009431 2097271BD911_$GPGGA,105125.00,5706.731468,N,00835.323274,E,1,11,0.4,6.8,M,44.0,M,,*62
1777632686.002285 2097271BD911_$GPGGA,105126.00,5706.731466,N,00835.323273,E,1,11,0.4,6.8,M,44.0,M,,*68
1777632687.002715 2097271BD911_$GPGGA,105127.00,5706.731464,N,00835.323272,E,1,11,0.4,6.8,M,44.0,M,,*6A
1777632688.008932 2097271BD911_$GPGGA,105128.00,5706.731463,N,00835.323271,E,1,11,0.4,6.8,M,44.0,M,,*61
1777632689.008912 2097271BD911_$GPGGA,105129.00,5706.731461,N,00835.323270,E,1,11,0.4,6.8,M,44.0,M,,*63
1777632690.002489 2097271BD911_$GPGGA,105130.00,5706.731459,N,00835.323269,E,1,11,0.4,6.8,M,44.0,M,,*68
1777632691.008205 2097271BD911_$GPGGA,105131.00,5706.731458,N,00835.323269,E,1,11,0.4,6.8,M,44.0,M,,*68
1777632692.008964 2097271BD911_$GPGGA,105132.00,5706.731456,N,00835.323268,E,1,11,0.4,6.8,M,44.0,M,,*64
1777632693.009049 2097271BD911_$GPGGA,105133.00,5706.731455,N,00835.323267,E,1,11,0.4,6.8,M,44.0,M,,*69
1777632694.002826 2097271BD911_$GPGGA,105134.00,5706.731453,N,00835.323267,E,1,11,0.4,6.8,M,44.0,M,,*68
1777632695.008948 2097271BD911_$GPGGA,105135.00,5706.731452,N,00835.323267,E,1,11,0.4,6.8,M,44.0,M,,*68
1777632696.007210 2097271BD911_$GPGGA,105136.00,5706.731450,N,00835.323266,E,1,11,0.4,6.8,M,44.0,M,,*68
1777632697.010294 2097271BD911_$GPGGA,105137.00,5706.731449,N,00835.323265,E,1,11,0.4,6.8,M,44.0,M,,*62
1777632698.002947 2097271BD911_$GPGGA,105138.00,5706.731448,N,00835.323264,E,1,11,0.4,6.8,M,44.0,M,,*6D
1777632699.009227 2097271BD911_$GPGGA,105139.00,5706.731446,N,00835.323264,E,1,11,0.4,6.8,M,44.0,M,,*62
1777632700.009745 2097271BD911_$GPGGA,105140.00,5706.731445,N,00835.323264,E,1,11,0.4,6.8,M,44.0,M,,*6F
1777632701.007776 2097271BD911_$GPGGA,105141.00,5706.731443,N,00835.323263,E,1,11,0.4,6.8,M,44.0,M,,*6F
1777632702.002465 2097271BD911_$GPGGA,105142.00,5706.731442,N,00835.323263,E,1,11,0.4,6.8,M,44.0,M,,*6D
1777632703.007137 2097271BD911_$GPGGA,105143.00,5706.731440,N,00835.323262,E,1,11,0.4,6.8,M,44.0,M,,*6F
1777632704.007049 2097271BD911_$GPGGA,105144.00,5706.731438,N,00835.323261,E,1,11,0.4,6.8,M,44.0,M,,*64
1777632705.003500 2097271BD911_$GPGGA,105145.00,5706.731437,N,00835.323261,E,1,11,0.4,6.8,M,44.0,M,,*6A
1777632706.007860 2097271BD911_$GPGGA,105146.00,5706.731435,N,00835.323261,E,1,11,0.4,6.8,M,44.0,M,,*6B
1777632707.009113 2097271BD911_$GPGGA,105147.00,5706.731433,N,00835.323260,E,1,11,0.4,6.8,M,44.0,M,,*6D
1777632708.009985 2097271BD911_$GPGGA,105148.00,5706.731432,N,00835.323260,E,1,11,0.4,6.8,M,44.0,M,,*63
1777632709.003514 2097271BD911_$GPGGA,105149.00,5706.731430,N,00835.323260,E,1,11,0.4,6.8,M,44.0,M,,*60
1777632710.009005 2097271BD911_$GPGGA,105150.00,5706.731428,N,00835.323259,E,1,11,0.4,6.8,M,44.0,M,,*6B
1777632711.000338 2097271BD911_$GPGGA,105151.00,5706.731426,N,00835.323259,E,1,11,0.4,6.8,M,44.0,M,,*64
1777632712.008293 2097271BD911_$GPGGA,105152.00,5706.731425,N,00835.323258,E,1,11,0.4,6.8,M,44.0,M,,*65
1777632713.002533 2097271BD911_$GPGGA,105153.00,5706.731423,N,00835.323258,E,1,11,0.4,6.8,M,44.0,M,,*62
1777632714.009567 2097271BD911_$GPGGA,105154.00,5706.731422,N,00835.323257,E,1,11,0.4,6.8,M,44.0,M,,*6B
1777632715.008583 2097271BD911_$GPGGA,105155.00,5706.731420,N,00835.323257,E,1,11,0.4,6.8,M,44.0,M,,*68
1777632716.025834 2097271BD911_$GPGGA,105156.00,5706.731419,N,00835.323257,E,1,11,0.4,6.8,M,44.0,M,,*61
1777632717.007012 2097271BD911_$GPGGA,105157.00,5706.731417,N,00835.323257,E,1,11,0.4,6.8,M,44.0,M,,*6E
1777632718.009722 2097271BD911_$GPGGA,105158.00,5706.731416,N,00835.323257,E,1,11,0.4,6.8,M,44.0,M,,*60
1777632719.009053 2097271BD911_$GPGGA,105159.00,5706.731414,N,00835.323256,E,1,11,0.4,6.8,M,44.0,M,,*62
1777632720.003031 2097271BD911_$GPGGA,105200.00,5706.731413,N,00835.323256,E,1,11,0.4,6.8,M,44.0,M,,*6A
1777632721.008477 2097271BD911_$GPGGA,105201.00,5706.731411,N,00835.323256,E,1,11,0.4,6.8,M,44.0,M,,*69
1777632722.008051 2097271BD911_$GPGGA,105202.00,5706.731409,N,00835.323256,E,1,11,0.4,6.8,M,44.0,M,,*63
1777632723.006880 2097271BD911_$GPGGA,105203.00,5706.731408,N,00835.323256,E,1,11,0.4,6.8,M,44.0,M,,*63
1777632724.003431 2097271BD911_$GPGGA,105204.00,5706.731406,N,00835.323256,E,1,11,0.4,6.8,M,44.0,M,,*6A
1777632725.008805 2097271BD911_$GPGGA,105205.00,5706.731405,N,00835.323255,E,1,11,0.4,6.8,M,44.0,M,,*6B
1777632726.008372 2097271BD911_$GPGGA,105206.00,5706.731404,N,00835.323256,E,1,11,0.4,6.8,M,44.0,M,,*6A
1777632727.008503 2097271BD911_$GPGGA,105207.00,5706.731402,N,00835.323255,E,1,11,0.4,6.8,M,44.0,M,,*6E
1777632728.008741 2097271BD911_$GPGGA,105208.00,5706.731401,N,00835.323255,E,1,11,0.4,6.8,M,44.0,M,,*62
1777632729.008133 2097271BD911_$GPGGA,105209.00,5706.731400,N,00835.323254,E,1,11,0.4,6.8,M,44.0,M,,*63
1777632730.007689 2097271BD911_$GPGGA,105210.00,5706.731399,N,00835.323253,E,1,11,0.4,6.8,M,44.0,M,,*6B
1777632731.008373 2097271BD911_$GPGGA,105211.00,5706.731397,N,00835.323253,E,1,11,0.4,6.8,M,44.0,M,,*64
1777632732.003320 2097271BD911_$GPGGA,105212.00,5706.731396,N,00835.323252,E,1,11,0.4,6.8,M,44.0,M,,*67
1777632733.009910 2097271BD911_$GPGGA,105213.00,5706.731394,N,00835.323252,E,1,11,0.4,6.8,M,44.0,M,,*64
1777632734.007182 2097271BD911_$GPGGA,105214.00,5706.731392,N,00835.323252,E,1,11,0.4,6.8,M,44.0,M,,*65
1777632735.002802 2097271BD911_$GPGGA,105215.00,5706.731390,N,00835.323252,E,1,11,0.4,6.8,M,44.0,M,,*66
1777632736.009168 2097271BD911_$GPGGA,105216.00,5706.731389,N,00835.323252,E,1,11,0.4,6.8,M,44.0,M,,*6D
1777632737.009556 2097271BD911_$GPGGA,105217.00,5706.731387,N,00835.323251,E,1,11,0.4,6.8,M,44.0,M,,*61
1777632738.008719 2097271BD911_$GPGGA,105218.00,5706.731385,N,00835.323250,E,1,11,0.4,6.8,M,44.0,M,,*6D
1777632739.009341 2097271BD911_$GPGGA,105219.00,5706.731384,N,00835.323250,E,1,11,0.4,6.8,M,44.0,M,,*6D
1777632740.002737 2097271BD911_$GPGGA,105220.00,5706.731382,N,00835.323249,E,1,11,0.4,6.8,M,44.0,M,,*69
1777632741.009901 2097271BD911_$GPGGA,105221.00,5706.731380,N,00835.323249,E,1,11,0.4,6.8,M,44.0,M,,*6A
1777632742.006947 2097271BD911_$GPGGA,105222.00,5706.731379,N,00835.323248,E,1,11,0.4,6.8,M,44.0,M,,*6E
1777632743.003946 2097271BD911_$GPGGA,105223.00,5706.731378,N,00835.323249,E,1,11,0.4,6.8,M,44.0,M,,*6F
1777632744.009640 2097271BD911_$GPGGA,105224.00,5706.731376,N,00835.323249,E,1,11,0.4,6.8,M,44.0,M,,*66
1777632745.009293 2097271BD911_$GPGGA,105225.00,5706.731375,N,00835.323250,E,1,11,0.4,6.8,M,44.0,M,,*6C
1777632746.001991 2097271BD911_$GPGGA,105226.00,5706.731374,N,00835.323249,E,1,11,0.4,6.8,M,44.0,M,,*66
1777632747.003638 2097271BD911_$GPGGA,105227.00,5706.731373,N,00835.323249,E,1,11,0.4,6.8,M,44.0,M,,*60
1777632748.008363 2097271BD911_$GPGGA,105228.00,5706.731372,N,00835.323249,E,1,11,0.4,6.8,M,44.0,M,,*6E
1777632749.009293 2097271BD911_$GPGGA,105229.00,5706.731370,N,00835.323249,E,1,11,0.4,6.8,M,44.0,M,,*6D
1777632750.002932 2097271BD911_$GPGGA,105230.00,5706.731369,N,00835.323249,E,1,11,0.4,6.8,M,44.0,M,,*6D
1777632751.005249 2097271BD911_$GPGGA,105231.00,5706.731367,N,00835.323249,E,1,11,0.4,6.8,M,44.0,M,,*62
1777632752.009170 2097271BD911_$GPGGA,105232.00,5706.731366,N,00835.323248,E,1,11,0.4,6.8,M,44.0,M,,*61
1777632753.008744 2097271BD911_$GPGGA,105233.00,5706.731365,N,00835.323248,E,1,11,0.4,6.8,M,44.0,M,,*63
1777632754.008199 2097271BD911_$GPGGA,105234.00,5706.731363,N,00835.323248,E,1,11,0.4,6.8,M,44.0,M,,*62
