2097271B56F5_$GPGGA,112753.00,5706.741210,N,00835.270670,E,1,11,0.8,1.5,M,44.0,M,,*6C
2097271B56F5_$GPGGA,112754.00,5706.741214,N,00835.270667,E,1,11,0.8,1.5,M,44.0,M,,*69
2097271B56F5_$GPGGA,112755.00,5706.741218,N,00835.270665,E,1,11,0.8,1.5,M,44.0,M,,*66
2097271B56F5_$GPGGA,112756.00,5706.741218,N,00835.270664,E,1,11,0.8,1.5,M,44.0,M,,*64
2097271B56F5_$GPGGA,112757.00,5706.741216,N,00835.270659,E,1,11,0.8,1.5,M,44.0,M,,*65
2097271B56F5_$GPGGA,112758.00,5706.741217,N,00835.270655,E,1,11,0.8,1.5,M,44.0,M,,*67
2097271B56F5_$GPGGA,112759.00,5706.741216,N,00835.270654,E,1,11,0.8,1.5,M,44.0,M,,*66
2097271B56F5_$GPGGA,112800.00,5706.741220,N,00835.270653,E,1,11,0.8,1.5,M,44.0,M,,*67
2097271B56F5_$GPGGA,112801.00,5706.741219,N,00835.270648,E,1,11,0.8,1.5,M,44.0,M,,*66
2097271B56F5_$GPGGA,112802.00,5706.741219,N,00835.270644,E,1,11,0.8,1.5,M,44.0,M,,*69
2097271B56F5_$GPGGA,112803.00,5706.741218,N,00835.270648,E,1,11,0.8,1.5,M,44.0,M,,*65
2097271B56F5_$GPGGA,112804.00,5706.741205,N,00835.270711,E,1,11,0.8,1.5,M,44.0,M,,*63
2097271B56F5_$GPGGA,112805.00,5706.741208,N,00835.270673,E,1,11,0.8,1.5,M,44.0,M,,*6A
2097271B56F5_$GPGGA,112806.00,5706.741196,N,00835.270754,E,1,11,0.8,1.5,M,44.0,M,,*69
2097271B56F5_$GPGGA,112807.00,5706.741184,N,00835.270815,E,1,11,0.8,1.5,M,44.0,M,,*61
2097271B56F5_$GPGGA,112808.00,5706.741184,N,00835.270799,E,1,11,0.7,1.6,M,44.0,M,,*69
2097271B56F5_$GPGGA,112809.00,5706.741229,N,00835.270518,E,1,11,0.7,1.7,M,44.0,M,,*66
2097271B56F5_$GPGGA,112810.00,5706.741218,N,00835.270591,E,1,11,0.7,1.6,M,44.0,M,,*6C
2097271B56F5_$GPGGA,112811.00,5706.741211,N,00835.270632,E,1,11,0.7,1.6,M,44.0,M,,*6E
2097271B56F5_$GPGGA,112812.00,5706.741219,N,00835.270579,E,1,11,0.7,1.7,M,44.0,M,,*68
2097271B56F5_$GPGGA,112813.00,5706.741238,N,00835.270454,E,1,11,0.7,1.8,M,44.0,M,,*6B
2097271B56F5_$GPGGA,112814.00,5706.741243,N,00835.270426,E,1,11,0.7,1.8,M,44.0,M,,*65
2097271B56F5_$GPGGA,112815.00,5706.741248,N,00835.270369,E,1,11,0.7,1.9,M,44.0,M,,*62
2097271B56F5_$GPGGA,112816.00,5706.741253,N,00835.270346,E,1,11,0.7,2.0,M,44.0,M,,*6C
2097271B56F5_$GPGGA,112817.00,5706.741248,N,00835.270359,E,1,11,0.7,2.0,M,44.0,M,,*69
2097271B56F5_$GPGGA,112818.00,5706.741246,N,00835.270375,E,1,11,0.7,2.0,M,44.0,M,,*66
2097271B56F5_$GPGGA,112819.00,5706.741244,N,00835.270382,E,1,11,0.7,1.9,M,44.0,M,,*67
2097271B56F5_$GPGGA,112820.00,5706.741243,N,00835.270387,E,1,11,0.7,2.0,M,44.0,M,,*65
2097271B56F5_$GPGGA,112821.00,5706.741239,N,00835.270391,E,1,11,0.7,2.0,M,44.0,M,,*6E
2097271B56F5_$GPGGA,112822.00,5706.741240,N,00835.270391,E,1,11,0.7,2.0,M,44.0,M,,*63
2097271B56F5_$GPGGA,112823.00,5706.741236,N,00835.270396,E,1,11,0.7,2.0,M,44.0,M,,*64
2097271B56F5_$GPGGA,112824.00,5706.741236,N,00835.270400,E,1,11,0.7,2.0,M,44.0,M,,*6B
2097271B56F5_$GPGGA,112825.00,5706.741235,N,00835.270400,E,1,11,0.7,2.0,M,44.0,M,,*69
2097271B56F5_$GPGGA,112826.00,5706.741233,N,00835.270411,E,1,11,0.7,2.0,M,44.0,M,,*6C
2097271B56F5_$GPGGA,112827.00,5706.741233,N,00835.270406,E,1,11,0.7,2.0,M,44.0,M,,*6B
2097271B56F5_$GPGGA,112828.00,5706.741235,N,00835.270405,E,1,11,0.7,2.0,M,44.0,M,,*61
2097271B56F5_$GPGGA,112829.00,5706.741235,N,00835.270404,E,1,11,0.7,2.0,M,44.0,M,,*61
2097271B56F5_$GPGGA,112830.00,5706.741236,N,00835.270406,E,1,11,0.7,2.0,M,44.0,M,,*68
2097271B56F5_$GPGGA,112831.00,5706.741235,N,00835.270407,E,1,11,0.7,2.0,M,44.0,M,,*6B
2097271B56F5_$GPGGA,112832.00,5706.741235,N,00835.270406,E,1,11,0.7,2.0,M,44.0,M,,*69
2097271B56F5_$GPGGA,112833.00,5706.741237,N,00835.270403,E,1,11,0.7,2.1,M,44.0,M,,*6E
2097271B56F5_$GPGGA,112834.00,5706.741236,N,00835.270398,E,1,11,0.7,2.1,M,44.0,M,,*6D
2097271B56F5_$GPGGA,112835.00,5706.741231,N,00835.270396,E,1,11,0.7,2.1,M,44.0,M,,*65
2097271B56F5_$GPGGA,112836.00,5706.741231,N,00835.270393,E,1,11,0.7,2.1,M,44.0,M,,*63
2097271B56F5_$GPGGA,112837.00,5706.741233,N,00835.270389,E,1,11,0.7,2.1,M,44.0,M,,*6B
2097271B56F5_$GPGGA,112838.00,5706.741233,N,00835.270384,E,1,11,0.7,2.1,M,44.0,M,,*69
2097271B56F5_$GPGGA,112839.00,5706.741232,N,00835.270380,E,1,11,0.7,2.1,M,44.0,M,,*6D
2097271B56F5_$GPGGA,112840.00,5706.741231,N,00835.270381,E,1,11,0.7,2.1,M,44.0,M,,*61
2097271B56F5_$GPGGA,112841.00,5706.741232,N,00835.270376,E,1,11,0.7,2.1,M,44.0,M,,*6B
2097271B56F5_$GPGGA,112842.00,5706.741229,N,00835.270375,E,1,11,0.7,2.1,M,44.0,M,,*61
2097271B56F5_$GPGGA,112843.00,5706.741230,N,00835.270369,E,1,11,0.7,2.1,M,44.0,M,,*65
2097271B56F5_$GPGGA,112844.00,5706.741230,N,00835.270376,E,1,11,0.7,2.1,M,44.0,M,,*6C
2097271B56F5_$GPGGA,112845.00,5706.741232,N,00835.270370,E,1,11,0.7,2.2,M,44.0,M,,*6A
2097271B56F5_$GPGGA,112846.00,5706.741232,N,00835.270376,E,1,11,0.7,2.2,M,44.0,M,,*6F
2097271B56F5_$GPGGA,112847.00,5706.741230,N,00835.270376,E,1,11,0.7,2.2,M,44.0,M,,*6C
2097271B56F5_$GPGGA,112848.00,5706.741231,N,00835.270376,E,1,11,0.7,2.2,M,44.0,M,,*62
2097271B56F5_$GPGGA,112849.00,5706.741232,N,00835.270372,E,1,11,0.7,2.2,M,44.0,M,,*64
2097271B56F5_$GPGGA,112850.00,5706.741230,N,00835.270370,E,1,11,0.7,2.2,M,44.0,M,,*6C
2097271B56F5_$GPGGA,112851.00,5706.741228,N,00835.270371,E,1,11,0.7,2.2,M,44.0,M,,*65
2097271B56F5_$GPGGA,112852.00,5706.741227,N,00835.270369,E,1,11,0.7,2.2,M,44.0,M,,*60
2097271B56F5_$GPGGA,112853.00,5706.741225,N,00835.270367,E,1,11,0.7,2.2,M,44.0,M,,*6D
2097271B56F5_$GPGGA,112854.00,5706.741221,N,00835.270364,E,1,11,0.7,2.2,M,44.0,M,,*6D
2097271B56F5_$GPGGA,112855.00,5706.741219,N,00835.270364,E,1,11,0.7,2.2,M,44.0,M,,*67
2097271B56F5_$GPGGA,112856.00,5706.741216,N,00835.270365,E,1,11,0.7,2.2,M,44.0,M,,*6A
2097271B56F5_$GPGGA,112857.00,5706.741217,N,00835.270363,E,1,11,0.7,2.2,M,44.0,M,,*6C
2097271B56F5_$GPGGA,112858.00,5706.741217,N,00835.270365,E,1,11,0.7,2.2,M,44.0,M,,*65
2097271B56F5_$GPGGA,112859.00,5706.741218,N,00835.270365,E,1,11,0.7,2.2,M,44.0,M,,*6B
2097271B56F5_$GPGGA,112900.00,5706.741217,N,00835.270358,E,1,11,0.7,2.2,M,44.0,M,,*67
2097271B56F5_$GPGGA,112901.00,5706.741218,N,00835.270354,E,1,11,0.7,2.2,M,44.0,M,,*65
2097271B56F5_$GPGGA,112902.00,5706.741217,N,00835.270353,E,1,11,0.7,2.2,M,44.0,M,,*6E
2097271B56F5_$GPGGA,112903.00,5706.741216,N,00835.270357,E,1,11,0.7,2.2,M,44.0,M,,*6A
2097271B56F5_$GPGGA,112904.00,5706.741216,N,00835.270360,E,1,11,0.7,2.2,M,44.0,M,,*69
2097271B56F5_$GPGGA,112905.00,5706.741216,N,00835.270360,E,1,11,0.7,2.3,M,44.0,M,,*69
2097271B56F5_$GPGGA,112906.00,5706.741214,N,00835.270360,E,1,11,0.7,2.3,M,44.0,M,,*68
2097271B56F5_$GPGGA,112907.00,5706.741214,N,00835.270358,E,1,11,0.7,2.3,M,44.0,M,,*62
2097271B56F5_$GPGGA,112908.00,5706.741211,N,00835.270356,E,1,11,0.7,2.3,M,44.0,M,,*66
2097271B56F5_$GPGGA,112909.00,5706.741212,N,00835.270360,E,1,11,0.7,2.3,M,44.0,M,,*61
2097271B56F5_$GPGGA,112910.00,5706.741212,N,00835.270361,E,1,11,0.7,2.3,M,44.0,M,,*68
2097271B56F5_$GPGGA,112911.00,5706.741214,N,00835.270356,E,1,11,0.7,2.3,M,44.0,M,,*6B
2097271B56F5_$GPGGA,112912.00,5706.741214,N,00835.270358,E,1,11,0.7,2.3,M,44.0,M,,*66
2097271B56F5_$GPGGA,112913.00,5706.741213,N,00835.270363,E,1,11,0.7,2.3,M,44.0,M,,*68
2097271B56F5_$GPGGA,112914.00,5706.741210,N,00835.270363,E,1,11,0.7,2.3,M,44.0,M,,*6C
2097271B56F5_$GPGGA,112915.00,5706.741208,N,00835.270356,E,1,11,0.7,2.3,M,44.0,M,,*62
2097271B56F5_$GPGGA,112916.00,5706.741208,N,00835.270353,E,1,11,0.7,2.3,M,44.0,M,,*64
2097271B56F5_$GPGGA,112917.00,5706.741206,N,00835.270355,E,1,11,0.7,2.3,M,44.0,M,,*6D
2097271B56F5_$GPGGA,112918.00,5706.741206,N,00835.270352,E,1,11,0.7,2.3,M,44.0,M,,*65
2097271B56F5_$GPGGA,112919.00,5706.741203,N,00835.270355,E,1,11,0.7,2.3,M,44.0,M,,*66
2097271B56F5_$GPGGA,112920.00,5706.741203,N,00835.270352,E,1,11,0.7,2.3,M,44.0,M,,*6B
2097271B56F5_$GPGGA,112921.00,5706.741203,N,00835.270342,E,1,11,0.7,2.3,M,44.0,M,,*6B
2097271B56F5_$GPGGA,112922.00,5706.741202,N,00835.270339,E,1,11,0.7,2.3,M,44.0,M,,*65
2097271B56F5_$GPGGA,112923.00,5706.741203,N,00835.270338,E,1,11,0.7,2.3,M,44.0,M,,*64
2097271B56F5_$GPGGA,112924.00,5706.741202,N,00835.270335,E,1,11,0.7,2.3,M,44.0,M,,*6F
2097271B56F5_$GPGGA,112925.00,5706.741199,N,00835.270337,E,1,11,0.7,2.3,M,44.0,M,,*6D
2097271B56F5_$GPGGA,112926.00,5706.741197,N,00835.270338,E,1,11,0.7,2.3,M,44.0,M,,*6F
2097271B56F5_$GPGGA,112927.00,5706.741194,N,00835.270334,E,1,11,0.7,2.3,M,44.0,M,,*61
2097271B56F5_$GPGGA,112928.00,5706.741193,N,00835.270334,E,1,11,0.7,2.3,M,44.0,M,,*69
2097271B56F5_$GPGGA,112929.00,5706.741191,N,00835.270330,E,1,11,0.7,2.3,M,44.0,M,,*6E
2097271B56F5_$GPGGA,112930.00,5706.741191,N,00835.270334,E,1,11,0.7,2.3,M,44.0,M,,*62
2097271B56F5_$GPGGA,112931.00,5706.741191,N,00835.270337,E,1,11,0.7,2.3,M,44.0,M,,*60
2097271B56F5_$GPGGA,112932.00,5706.741190,N,00835.270339,E,1,11,0.7,2.3,M,44.0,M,,*6C
2097271B56F5_$GPGGA,112933.00,5706.741189,N,00835.270340,E,1,11,0.7,2.3,M,44.0,M,,*6B
2097271B56F5_$GPGGA,112934.00,5706.741189,N,00835.270342,E,1,11,0.7,2.3,M,44.0,M,,*6E
2097271B56F5_$GPGGA,112935.00,5706.741188,N,00835.270345,E,1,11,0.7,2.3,M,44.0,M,,*69
2097271B56F5_$GPGGA,112936.00,5706.741189,N,00835.270340,E,1,11,0.7,2.4,M,44.0,M,,*69
2097271B56F5_$GPGGA,112937.00,5706.741188,N,00835.270343,E,1,11,0.7,2.4,M,44.0,M,,*6A
2097271B56F5_$GPGGA,112938.00,5706.741186,N,00835.270346,E,1,11,0.7,2.4,M,44.0,M,,*6E
2097271B56F5_$GPGGA,112939.00,5706.741184,N,00835.270346,E,1,11,0.7,2.4,M,44.0,M,,*6D
2097271B56F5_$GPGGA,112940.00,5706.741184,N,00835.270349,E,1,11,0.7,2.4,M,44.0,M,,*6C
2097271B56F5_$GPGGA,112941.00,5706.741182,N,00835.270352,E,1,11,0.7,2.4,M,44.0,M,,*61
2097271B56F5_$GPGGA,112942.00,5706.741182,N,00835.270354,E,1,11,0.7,2.4,M,44.0,M,,*64
2097271B56F5_$GPGGA,112943.00,5706.741181,N,00835.270356,E,1,11,0.7,2.4,M,44.0,M,,*64
2097271B56F5_$GPGGA,112944.00,5706.741181,N,00835.270355,E,1,11,0.7,2.4,M,44.0,M,,*60
2097271B56F5_$GPGGA,112945.00,5706.741178,N,00835.270356,E,1,11,0.7,2.4,M,44.0,M,,*64
2097271B56F5_$GPGGA,112946.00,5706.741177,N,00835.270358,E,1,11,0.7,2.4,M,44.0,M,,*66
2097271B56F5_$GPGGA,112947.00,5706.741177,N,00835.270360,E,1,11,0.7,2.4,M,44.0,M,,*6C
2097271B56F5_$GPGGA,112948.00,5706.741175,N,00835.270356,E,1,11,0.7,2.4,M,44.0,M,,*64
2097271B56F5_$GPGGA,112949.00,5706.741177,N,00835.270353,E,1,11,0.7,2.4,M,44.0,M,,*62
2097271B56F5_$GPGGA,112950.00,5706.741174,N,00835.270351,E,1,11,0.7,2.4,M,44.0,M,,*6B
2097271B56F5_$GPGGA,112951.00,5706.741174,N,00835.270346,E,1,11,0.7,2.4,M,44.0,M,,*6C
2097271B56F5_$GPGGA,112952.00,5706.741170,N,00835.270343,E,1,11,0.7,2.4,M,44.0,M,,*6E
2097271B56F5_$GPGGA,112953.00,5706.741171,N,00835.270338,E,1,11,0.7,2.4,M,44.0,M,,*62
2097271B56F5_$GPGGA,112954.00,5706.741168,N,00835.270342,E,1,11,0.7,2.4,M,44.0,M,,*60
2097271B56F5_$GPGGA,112955.00,5706.741167,N,00835.270341,E,1,11,0.7,2.4,M,44.0,M,,*6D
2097271B56F5_$GPGGA,112956.00,5706.741163,N,00835.270344,E,1,11,0.7,2.4,M,44.0,M,,*6F
2097271B56F5_$GPGGA,112957.00,5706.741163,N,00835.270346,E,1,11,0.7,2.4,M,44.0,M,,*6C
2097271B56F5_$GPGGA,112958.00,5706.741162,N,00835.270347,E,1,11,0.7,2.4,M,44.0,M,,*63
2097271B56F5_$GPGGA,112959.00,5706.741160,N,00835.270352,E,1,11,0.7,2.4,M,44.0,M,,*64
2097271B56F5_$GPGGA,113000.00,5706.741159,N,00835.270355,E,1,11,0.7,2.4,M,44.0,M,,*6D
2097271B56F5_$GPGGA,113001.00,5706.741156,N,00835.270359,E,1,11,0.7,2.4,M,44.0,M,,*6F
2097271B56F5_$GPGGA,113002.00,5706.741157,N,00835.270355,E,1,11,0.7,2.4,M,44.0,M,,*61
2097271B56F5_$GPGGA,113003.00,5706.741158,N,00835.270352,E,1,11,0.7,2.4,M,44.0,M,,*68
2097271B56F5_$GPGGA,113004.00,5706.741157,N,00835.270348,E,1,11,0.7,2.4,M,44.0,M,,*6B
2097271B56F5_$GPGGA,113005.00,5706.741158,N,00835.270350,E,1,11,0.7,2.4,M,44.0,M,,*6C
2097271B56F5_$GPGGA,113006.00,5706.741159,N,00835.270351,E,1,11,0.7,2.4,M,44.0,M,,*6F
2097271B56F5_$GPGGA,113007.00,5706.741162,N,00835.270352,E,1,11,0.7,2.4,M,44.0,M,,*65
2097271B56F5_$GPGGA,113008.00,5706.741164,N,00835.270349,E,1,11,0.7,2.5,M,44.0,M,,*67
2097271B56F5_$GPGGA,113009.00,5706.741161,N,00835.270347,E,1,11,0.7,2.5,M,44.0,M,,*6D
2097271B56F5_$GPGGA,113010.00,5706.741162,N,00835.270352,E,1,11,0.7,2.5,M,44.0,M,,*62
2097271B56F5_$GPGGA,113011.00,5706.741161,N,00835.270353,E,1,11,0.7,2.5,M,44.0,M,,*61
2097271B56F5_$GPGGA,113012.00,5706.741163,N,00835.270351,E,1,11,0.7,2.5,M,44.0,M,,*62
2097271B56F5_$GPGGA,113013.00,5706.741160,N,00835.270351,E,1,11,0.7,2.5,M,44.0,M,,*60
2097271B56F5_$GPGGA,113014.00,5706.741159,N,00835.270353,E,1,11,0.7,2.5,M,44.0,M,,*6F
2097271B56F5_$GPGGA,113015.00,5706.740944,N,00835.270843,E,1,11,0.7,4.4,M,44.0,M,,*66
2097271B56F5_$GPGGA,113016.00,5706.740944,N,00835.270447,E,1,11,0.7,5.2,M,44.0,M,,*6A
2097271B56F5_$GPGGA,113017.00,5706.740941,N,00835.270347,E,1,11,0.7,5.9,M,44.0,M,,*62
2097271B56F5_$GPGGA,113018.00,5706.740979,N,00835.269730,E,1,10,0.7,7.3,M,44.0,M,,*63
2097271B56F5_$GPGGA,113019.00,5706.740935,N,00835.269363,E,1,11,0.7,8.3,M,44.0,M,,*66
2097271B56F5_$GPGGA,113020.00,5706.740858,N,00835.269555,E,1,11,0.7,9.4,M,44.0,M,,*63
2097271B56F5_$GPGGA,113021.00,5706.740752,N,00835.269443,E,1,11,0.7,11.0,M,44.0,M,,*5C
2097271B56F5_$GPGGA,113022.00,5706.740608,N,00835.269535,E,1,11,0.7,12.6,M,44.0,M,,*54
2097271B56F5_$GPGGA,113023.00,5706.740502,N,00835.269405,E,1,11,0.7,13.9,M,44.0,M,,*50
2097271B56F5_$GPGGA,113024.00,5706.740271,N,00835.269677,E,1,11,0.7,15.7,M,44.0,M,,*5B
2097271B56F5_$GPGGA,113025.00,5706.740234,N,00835.269836,E,1,10,0.7,17.3,M,44.0,M,,*57
2097271B56F5_$GPGGA,113026.00,5706.740282,N,00835.269850,E,1,10,0.7,18.6,M,44.0,M,,*53
2097271B56F5_$GPGGA,113027.00,5706.740393,N,00835.269740,E,1,10,0.7,20.3,M,44.0,M,,*53
2097271B56F5_$GPGGA,113028.00,5706.740476,N,00835.269639,E,1,10,0.7,21.6,M,44.0,M,,*5B
2097271B56F5_$GPGGA,113029.00,5706.740369,N,00835.269599,E,1,10,0.7,23.2,M,44.0,M,,*5C
2097271B56F5_$GPGGA,113030.00,5706.740248,N,00835.269591,E,1,10,0.7,24.6,M,44.0,M,,*5D
2097271B56F5_$GPGGA,113031.00,5706.740182,N,00835.269645,E,1,10,0.7,25.9,M,44.0,M,,*5D
2097271B56F5_$GPGGA,113032.00,5706.740214,N,00835.269670,E,1,10,0.7,28.2,M,44.0,M,,*52
2097271B56F5_$GPGGA,113033.00,5706.740270,N,00835.269607,E,1,10,0.7,29.5,M,44.0,M,,*57
2097271B56F5_$GPGGA,113034.00,5706.740283,N,00835.269642,E,1,10,0.7,30.8,M,44.0,M,,*58
2097271B56F5_$GPGGA,113035.00,5706.740354,N,00835.269777,E,1,10,0.7,32.4,M,44.0,M,,*5B
2097271B56F5_$GPGGA,113036.00,5706.740462,N,00835.269910,E,1,10,0.7,33.9,M,44.0,M,,*59
2097271B56F5_$GPGGA,113037.00,5706.740507,N,00835.269847,E,1,10,0.7,35.3,M,44.0,M,,*55
2097271B56F5_$GPGGA,113038.00,5706.740479,N,00835.269773,E,1,11,0.7,36.5,M,44.0,M,,*5E
2097271B56F5_$GPGGA,113039.00,5706.740438,N,00835.269745,E,1,11,0.7,37.4,M,44.0,M,,*5F
2097271B56F5_$GPGGA,113040.00,5706.740437,N,00835.269742,E,1,11,0.7,37.4,M,44.0,M,,*59
2097271B56F5_$GPGGA,113041.00,5706.740465,N,00835.269736,E,1,11,0.7,37.1,M,44.0,M,,*59
2097271B56F5_$GPGGA,113042.00,5706.740525,N,00835.269424,E,1,11,0.7,37.2,M,44.0,M,,*5C
2097271B56F5_$GPGGA,113043.00,5706.740575,N,00835.269301,E,1,11,0.7,37.3,M,44.0,M,,*59
2097271B56F5_$GPGGA,113044.00,5706.740627,N,00835.269269,E,1,10,0.7,37.9,M,44.0,M,,*5E
2097271B56F5_$GPGGA,113045.00,5706.740631,N,00835.269230,E,1,10,0.7,38.5,M,44.0,M,,*57
2097271B56F5_$GPGGA,113046.00,5706.740582,N,00835.269186,E,1,10,0.7,39.4,M,44.0,M,,*51
2097271B56F5_$GPGGA,113047.00,5706.740554,N,00835.269189,E,1,10,0.7,40.8,M,44.0,M,,*56
2097271B56F5_$GPGGA,113048.00,5706.740501,N,00835.269207,E,1,10,0.7,42.3,M,44.0,M,,*55
2097271B56F5_$GPGGA,113049.00,5706.740451,N,00835.269236,E,1,10,0.7,43.8,M,44.0,M,,*58
2097271B56F5_$GPGGA,113050.00,5706.740436,N,00835.269257,E,1,10,0.7,45.3,M,44.0,M,,*5B
2097271B56F5_$GPGGA,113051.00,5706.740471,N,00835.269277,E,1,10,0.7,47.1,M,44.0,M,,*5B
2097271B56F5_$GPGGA,113052.00,5706.740566,N,00835.269307,E,1,10,0.7,49.2,M,44.0,M,,*54
2097271B56F5_$GPGGA,113053.00,5706.740606,N,00835.269356,E,1,10,0.7,51.7,M,44.0,M,,*58
2097271B56F5_$GPGGA,113054.00,5706.740552,N,00835.269441,E,1,10,0.7,54.0,M,44.0,M,,*5E
2097271B56F5_$GPGGA,113055.00,5706.740545,N,00835.269500,E,1,10,0.7,56.0,M,44.0,M,,*5F
2097271B56F5_$GPGGA,113056.00,5706.740580,N,00835.269547,E,1,10,0.7,58.5,M,44.0,M,,*5D
2097271B56F5_$GPGGA,113057.00,5706.740620,N,00835.269552,E,1,10,0.7,60.9,M,44.0,M,,*56
2097271B56F5_$GPGGA,113058.00,5706.740636,N,00835.269539,E,1,10,0.7,63.9,M,44.0,M,,*50
2097271B56F5_$GPGGA,113059.00,5706.740740,N,00835.269561,E,1,10,0.7,67.9,M,44.0,M,,*58
2097271B56F5_$GPGGA,113100.00,5706.740852,N,00835.269554,E,1,10,0.7,71.5,M,44.0,M,,*54
2097271B56F5_$GPGGA,113101.00,5706.740937,N,00835.269579,E,1,10,0.7,75.2,M,44.0,M,,*5B
2097271B56F5_$GPGGA,113102.00,5706.740960,N,00835.269659,E,1,10,0.7,79.4,M,44.0,M,,*51
2097271B56F5_$GPGGA,113103.00,5706.740903,N,00835.269793,E,1,10,0.7,83.7,M,44.0,M,,*54
2097271B56F5_$GPGGA,113104.00,5706.740840,N,00835.269935,E,1,10,0.7,87.7,M,44.0,M,,*53
2097271B56F5_$GPGGA,113105.00,5706.740822,N,00835.270049,E,1,10,0.7,91.9,M,44.0,M,,*55
2097271B56F5_$GPGGA,113106.00,5706.740792,N,00835.270121,E,1,10,0.7,96.2,M,44.0,M,,*51
2097271B56F5_$GPGGA,113107.00,5706.740817,N,00835.270150,E,1,10,0.7,100.9,M,44.0,M,,*61
2097271B56F5_$GPGGA,113108.00,5706.740851,N,00835.270107,E,1,10,0.7,105.5,M,44.0,M,,*67
2097271B56F5_$GPGGA,113109.00,5706.740843,N,00835.270009,E,1,10,0.7,110.2,M,44.0,M,,*69
2097271B56F5_$GPGGA,113110.00,5706.740796,N,00835.269937,E,1,10,0.7,114.4,M,44.0,M,,*68
2097271B56F5_$GPGGA,113111.00,5706.740720,N,00835.269903,E,1,10,0.7,118.1,M,44.0,M,,*6A
2097271B56F5_$GPGGA,113112.00,5706.740706,N,00835.269820,E,1,10,0.7,120.5,M,44.0,M,,*62
2097271B56F5_$GPGGA,113113.00,5706.740734,N,00835.269681,E,1,10,0.7,121.8,M,44.0,M,,*6B
2097271B56F5_$GPGGA,113114.00,5706.740738,N,00835.269558,E,1,10,0.7,122.2,M,44.0,M,,*6E
2097271B56F5_$GPGGA,113115.00,5706.740670,N,00835.269434,E,1,10,0.7,122.3,M,44.0,M,,*68
2097271B56F5_$GPGGA,113116.00,5706.740553,N,00835.269306,E,1,11,0.7,122.3,M,44.0,M,,*6E
2097271B56F5_$GPGGA,113117.00,5706.740605,N,00835.269331,E,1,11,0.7,122.6,M,44.0,M,,*6E
2097271B56F5_$GPGGA,113118.00,5706.740649,N,00835.269364,E,1,11,0.7,122.7,M,44.0,M,,*68
2097271B56F5_$GPGGA,113119.00,5706.740673,N,00835.269382,E,1,11,0.7,122.7,M,44.0,M,,*68
2097271B56F5_$GPGGA,113120.00,5706.740710,N,00835.269489,E,1,11,0.7,122.8,M,44.0,M,,*65
2097271B56F5_$GPGGA,113121.00,5706.740749,N,00835.269598,E,1,11,0.7,122.9,M,44.0,M,,*68
2097271B56F5_$GPGGA,113122.00,5706.740755,N,00835.269716,E,1,11,0.7,122.7,M,44.0,M,,*6C
2097271B56F5_$GPGGA,113123.00,5706.740763,N,00835.269725,E,1,10,0.7,122.7,M,44.0,M,,*69
2097271B56F5_$GPGGA,113124.00,5706.740771,N,00835.269730,E,1,10,0.7,122.7,M,44.0,M,,*69
2097271B56F5_$GPGGA,113125.00,5706.740755,N,00835.269745,E,1,10,0.7,122.7,M,44.0,M,,*6C
2097271B56F5_$GPGGA,113126.00,5706.740747,N,00835.269766,E,1,10,0.7,122.7,M,44.0,M,,*6D
2097271B56F5_$GPGGA,113127.00,5706.740741,N,00835.269780,E,1,10,0.7,122.7,M,44.0,M,,*62
2097271B56F5_$GPGGA,113128.00,5706.740735,N,00835.269783,E,1,10,0.7,122.7,M,44.0,M,,*6D
2097271B56F5_$GPGGA,113129.00,5706.740730,N,00835.269785,E,1,10,0.7,122.7,M,44.0,M,,*6F
2097271B56F5_$GPGGA,113130.00,5706.740726,N,00835.269786,E,1,10,0.7,122.8,M,44.0,M,,*6C
2097271B56F5_$GPGGA,113131.00,5706.740724,N,00835.269788,E,1,10,0.7,122.8,M,44.0,M,,*61
2097271B56F5_$GPGGA,113132.00,5706.740723,N,00835.269789,E,1,10,0.7,122.8,M,44.0,M,,*64
2097271B56F5_$GPGGA,113133.00,5706.740723,N,00835.269790,E,1,10,0.7,122.8,M,44.0,M,,*6D
2097271B56F5_$GPGGA,113134.00,5706.740723,N,00835.269790,E,1,10,0.7,122.8,M,44.0,M,,*6A
2097271B56F5_$GPGGA,113135.00,5706.740722,N,00835.269789,E,1,10,0.7,122.8,M,44.0,M,,*62
2097271B56F5_$GPGGA,113136.00,5706.740722,N,00835.269788,E,1,10,0.7,122.8,M,44.0,M,,*60
2097271B56F5_$GPGGA,113137.00,5706.740722,N,00835.269789,E,1,10,0.7,122.8,M,44.0,M,,*60
2097271B56F5_$GPGGA,113138.00,5706.740725,N,00835.269804,E,1,11,0.7,122.8,M,44.0,M,,*63
2097271B56F5_$GPGGA,113139.00,5706.740726,N,00835.269812,E,1,11,0.7,122.8,M,44.0,M,,*66
2097271B56F5_$GPGGA,113140.00,5706.740727,N,00835.269816,E,1,11,0.7,122.8,M,44.0,M,,*6D
2097271B56F5_$GPGGA,113141.00,5706.740727,N,00835.269820,E,1,11,0.7,122.8,M,44.0,M,,*69
2097271B56F5_$GPGGA,113142.00,5706.740727,N,00835.269822,E,1,11,0.7,122.8,M,44.0,M,,*68
2097271B56F5_$GPGGA,113143.00,5706.740727,N,00835.269823,E,1,11,0.7,122.8,M,44.0,M,,*68
2097271B56F5_$GPGGA,113144.00,5706.740727,N,00835.269823,E,1,11,0.7,122.8,M,44.0,M,,*6F
2097271B56F5_$GPGGA,113145.00,5706.740727,N,00835.269824,E,1,11,0.7,122.8,M,44.0,M,,*69
2097271B56F5_$GPGGA,113146.00,5706.740727,N,00835.269824,E,1,10,0.7,122.8,M,44.0,M,,*6B
2097271B56F5_$GPGGA,113147.00,5706.740728,N,00835.269825,E,1,10,0.7,122.8,M,44.0,M,,*64
2097271B56F5_$GPGGA,113148.00,5706.740728,N,00835.269825,E,1,10,0.7,122.8,M,44.0,M,,*6B
2097271B56F5_$GPGGA,113149.00,5706.740728,N,00835.269825,E,1,10,0.7,122.8,M,44.0,M,,*6A
2097271B56F5_$GPGGA,113150.00,5706.740728,N,00835.269825,E,1,10,0.7,122.8,M,44.0,M,,*62
2097271B56F5_$GPGGA,113151.00,5706.740728,N,00835.269825,E,1,11,0.7,122.8,M,44.0,M,,*62
2097271B56F5_$GPGGA,113152.00,5706.740729,N,00835.269826,E,1,11,0.7,122.8,M,44.0,M,,*63
2097271B56F5_$GPGGA,113153.00,5706.740730,N,00835.269827,E,1,11,0.7,122.8,M,44.0,M,,*6B
2097271B56F5_$GPGGA,113154.00,5706.740730,N,00835.269828,E,1,11,0.7,122.8,M,44.0,M,,*63
2097271B56F5_$GPGGA,113155.00,5706.740730,N,00835.269828,E,1,11,0.7,122.8,M,44.0,M,,*62
2097271B56F5_$GPGGA,113156.00,5706.740730,N,00835.269828,E,1,11,0.7,122.8,M,44.0,M,,*61
2097271B56F5_$GPGGA,113157.00,5706.740731,N,00835.269829,E,1,11,0.7,122.8,M,44.0,M,,*60
2097271B56F5_$GPGGA,113158.00,5706.740731,N,00835.269828,E,1,10,0.7,122.8,M,44.0,M,,*6F
2097271B56F5_$GPGGA,113159.00,5706.740732,N,00835.269828,E,1,10,0.7,122.8,M,44.0,M,,*6D
2097271B56F5_$GPGGA,113200.00,5706.740732,N,00835.269828,E,1,10,0.7,122.8,M,44.0,M,,*62
2097271B56F5_$GPGGA,113201.00,5706.740732,N,00835.269828,E,1,10,0.7,122.8,M,44.0,M,,*63
2097271B56F5_$GPGGA,113202.00,5706.740733,N,00835.269829,E,1,10,0.7,122.8,M,44.0,M,,*60
2097271B56F5_$GPGGA,113203.00,5706.740734,N,00835.269830,E,1,10,0.7,122.8,M,44.0,M,,*6E
2097271B56F5_$GPGGA,113204.00,5706.740734,N,00835.269831,E,1,10,0.7,122.8,M,44.0,M,,*68
2097271B56F5_$GPGGA,113205.00,5706.740734,N,00835.269831,E,1,10,0.7,122.8,M,44.0,M,,*69
2097271B56F5_$GPGGA,113206.00,5706.740734,N,00835.269832,E,1,10,0.7,122.8,M,44.0,M,,*69
2097271B56F5_$GPGGA,113207.00,5706.740735,N,00835.269832,E,1,10,0.7,122.8,M,44.0,M,,*69
2097271B56F5_$GPGGA,113208.00,5706.740735,N,00835.269833,E,1,10,0.7,122.8,M,44.0,M,,*67
2097271B56F5_$GPGGA,113209.00,5706.740736,N,00835.269835,E,1,10,0.7,122.8,M,44.0,M,,*63
2097271B56F5_$GPGGA,113210.00,5706.740736,N,00835.269836,E,1,10,0.7,122.8,M,44.0,M,,*68
2097271B56F5_$GPGGA,113211.00,5706.740737,N,00835.269837,E,1,10,0.7,122.8,M,44.0,M,,*69
2097271B56F5_$GPGGA,113212.00,5706.740739,N,00835.269839,E,1,10,0.7,122.8,M,44.0,M,,*6A
2097271B56F5_$GPGGA,113213.00,5706.740740,N,00835.269840,E,1,10,0.7,122.8,M,44.0,M,,*6B
2097271B56F5_$GPGGA,113214.00,5706.740740,N,00835.269840,E,1,10,0.7,122.8,M,44.0,M,,*6C
2097271B56F5_$GPGGA,113215.00,5706.740741,N,00835.269840,E,1,10,0.7,122.8,M,44.0,M,,*6C
2097271B56F5_$GPGGA,113216.00,5706.740742,N,00835.269841,E,1,10,0.7,122.8,M,44.0,M,,*6D
2097271B56F5_$GPGGA,113217.00,5706.740742,N,00835.269842,E,1,10,0.7,122.8,M,44.0,M,,*6F
2097271B56F5_$GPGGA,113218.00,5706.740743,N,00835.269843,E,1,10,0.7,122.8,M,44.0,M,,*60
2097271B56F5_$GPGGA,113219.00,5706.740744,N,00835.269845,E,1,11,0.7,122.8,M,44.0,M,,*61
2097271B56F5_$GPGGA,113220.00,5706.740744,N,00835.269846,E,1,11,0.7,122.8,M,44.0,M,,*68
2097271B56F5_$GPGGA,113221.00,5706.740745,N,00835.269846,E,1,11,0.7,122.8,M,44.0,M,,*68
2097271B56F5_$GPGGA,113222.00,5706.740745,N,00835.269848,E,1,11,0.7,122.8,M,44.0,M,,*65
2097271B56F5_$GPGGA,113223.00,5706.740746,N,00835.269850,E,1,11,0.7,122.8,M,44.0,M,,*6E
2097271B56F5_$GPGGA,113224.00,5706.740747,N,00835.269852,E,1,11,0.7,122.8,M,44.0,M,,*6A
2097271B56F5_$GPGGA,113225.00,5706.740748,N,00835.269853,E,1,11,0.7,122.8,M,44.0,M,,*65
2097271B56F5_$GPGGA,113226.00,5706.740749,N,00835.269855,E,1,10,0.7,122.8,M,44.0,M,,*60
2097271B56F5_$GPGGA,113227.00,5706.740749,N,00835.269857,E,1,10,0.7,122.8,M,44.0,M,,*63
2097271B56F5_$GPGGA,113228.00,5706.740748,N,00835.269858,E,1,10,0.7,122.8,M,44.0,M,,*62
2097271B56F5_$GPGGA,113229.00,5706.740749,N,00835.269859,E,1,10,0.7,122.8,M,44.0,M,,*63
2097271B56F5_$GPGGA,113230.00,5706.740750,N,00835.269860,E,1,10,0.7,122.8,M,44.0,M,,*69
2097271B56F5_$GPGGA,113231.00,5706.740751,N,00835.269862,E,1,10,0.7,122.8,M,44.0,M,,*6B
2097271B56F5_$GPGGA,113232.00,5706.740751,N,00835.269864,E,1,10,0.7,122.8,M,44.0,M,,*6E
2097271B56F5_$GPGGA,113233.00,5706.740751,N,00835.269865,E,1,10,0.7,122.8,M,44.0,M,,*6E
2097271B56F5_$GPGGA,113234.00,5706.740751,N,00835.269866,E,1,10,0.7,122.8,M,44.0,M,,*6A
2097271B56F5_$GPGGA,113235.00,5706.740750,N,00835.269868,E,1,10,0.7,122.8,M,44.0,M,,*64
2097271B56F5_$GPGGA,113236.00,5706.740750,N,00835.269870,E,1,10,0.7,122.8,M,44.0,M,,*6E
2097271B56F5_$GPGGA,113237.00,5706.740751,N,00835.269872,E,1,10,0.7,122.8,M,44.0,M,,*6C
2097271B56F5_$GPGGA,113238.00,5706.740751,N,00835.269875,E,1,10,0.7,122.8,M,44.0,M,,*64
2097271B56F5_$GPGGA,113239.00,5706.740751,N,00835.269877,E,1,10,0.7,122.8,M,44.0,M,,*67
2097271B56F5_$GPGGA,113240.00,5706.740752,N,00835.269880,E,1,11,0.7,122.8,M,44.0,M,,*63
2097271B56F5_$GPGGA,113241.00,5706.740753,N,00835.269883,E,1,11,0.7,122.8,M,44.0,M,,*60
2097271B56F5_$GPGGA,113242.00,5706.740753,N,00835.269886,E,1,11,0.7,122.8,M,44.0,M,,*66
2097271B56F5_$GPGGA,113243.00,5706.740769,N,00835.269948,E,1,11,0.7,122.8,M,44.0,M,,*6D
2097271B56F5_$GPGGA,113244.00,5706.740713,N,00835.269995,E,1,11,0.7,122.3,M,44.0,M,,*6C
2097271B56F5_$GPGGA,113245.00,5706.740638,N,00835.270021,E,1,11,0.7,122.8,M,44.0,M,,*60
2097271B56F5_$GPGGA,113246.00,5706.740599,N,00835.270053,E,1,11,0.7,122.7,M,44.0,M,,*61
2097271B56F5_$GPGGA,113247.00,5706.740569,N,00835.270071,E,1,11,0.7,122.9,M,44.0,M,,*61
2097271B56F5_$GPGGA,113248.00,5706.740554,N,00835.270018,E,1,11,0.7,123.0,M,44.0,M,,*67
2097271B56F5_$GPGGA,113249.00,5706.740549,N,00835.269971,E,1,11,0.7,122.6,M,44.0,M,,*63
2097271B56F5_$GPGGA,113250.00,5706.740616,N,00835.270075,E,1,11,0.7,122.9,M,44.0,M,,*68
2097271B56F5_$GPGGA,113251.00,5706.740678,N,00835.270226,E,1,11,0.7,123.2,M,44.0,M,,*6F
2097271B56F5_$GPGGA,113252.00,5706.740632,N,00835.270396,E,1,11,0.7,123.0,M,44.0,M,,*6A
2097271B56F5_$GPGGA,113253.00,5706.740590,N,00835.270474,E,1,11,0.7,123.4,M,44.0,M,,*6F
2097271B56F5_$GPGGA,113254.00,5706.740526,N,00835.270474,E,1,11,0.7,123.3,M,44.0,M,,*62
2097271B56F5_$GPGGA,113255.00,5706.740487,N,00835.270480,E,1,11,0.7,123.7,M,44.0,M,,*66
2097271B56F5_$GPGGA,113256.00,5706.740590,N,00835.270894,E,1,11,0.7,124.4,M,44.0,M,,*6F
2097271B56F5_$GPGGA,113257.00,5706.740679,N,00835.271149,E,1,10,0.7,124.6,M,44.0,M,,*61
2097271B56F5_$GPGGA,113258.00,5706.740741,N,00835.271295,E,1,10,0.7,124.7,M,44.0,M,,*67
2097271B56F5_$GPGGA,113259.00,5706.740692,N,00835.271359,E,1,10,0.7,124.6,M,44.0,M,,*69
2097271B56F5_$GPGGA,113300.00,5706.740646,N,00835.271289,E,1,10,0.7,124.6,M,44.0,M,,*61
2097271B56F5_$GPGGA,113301.00,5706.740564,N,00835.271145,E,1,10,0.7,124.5,M,44.0,M,,*63
2097271B56F5_$GPGGA,113302.00,5706.740495,N,00835.271097,E,1,11,0.7,124.7,M,44.0,M,,*62
2097271B56F5_$GPGGA,113303.00,5706.740436,N,00835.271123,E,1,11,0.7,124.8,M,44.0,M,,*6B
2097271B56F5_$GPGGA,113304.00,5706.740408,N,00835.271202,E,1,11,0.7,125.1,M,44.0,M,,*69
2097271B56F5_$GPGGA,113305.00,5706.740357,N,00835.271218,E,1,11,0.7,124.9,M,44.0,M,,*67
2097271B56F5_$GPGGA,113306.00,5706.740352,N,00835.271289,E,1,11,0.7,125.0,M,44.0,M,,*61
2097271B56F5_$GPGGA,113307.00,5706.740333,N,00835.271337,E,1,11,0.7,125.0,M,44.0,M,,*63
2097271B56F5_$GPGGA,113308.00,5706.740317,N,00835.271358,E,1,10,0.7,125.0,M,44.0,M,,*62
2097271B56F5_$GPGGA,113309.00,5706.740312,N,00835.271369,E,1,11,0.7,125.0,M,44.0,M,,*65
2097271B56F5_$GPGGA,113310.00,5706.740308,N,00835.271373,E,1,11,0.7,125.0,M,44.0,M,,*6D
2097271B56F5_$GPGGA,113311.00,5706.740306,N,00835.271376,E,1,11,0.7,125.0,M,44.0,M,,*67
2097271B56F5_$GPGGA,113312.00,5706.740303,N,00835.271377,E,1,11,0.7,125.0,M,44.0,M,,*60
2097271B56F5_$GPGGA,113313.00,5706.740300,N,00835.271377,E,1,11,0.7,125.0,M,44.0,M,,*62
2097271B56F5_$GPGGA,113314.00,5706.740297,N,00835.271377,E,1,11,0.7,125.0,M,44.0,M,,*6A
2097271B56F5_$GPGGA,113315.00,5706.740295,N,00835.271376,E,1,11,0.7,125.0,M,44.0,M,,*68
2097271B56F5_$GPGGA,113316.00,5706.740292,N,00835.271374,E,1,11,0.7,125.0,M,44.0,M,,*6E
2097271B56F5_$GPGGA,113317.00,5706.740289,N,00835.271375,E,1,11,0.7,125.0,M,44.0,M,,*64
2097271B56F5_$GPGGA,113318.00,5706.740288,N,00835.271373,E,1,11,0.7,125.0,M,44.0,M,,*6C
2097271B56F5_$GPGGA,113319.00,5706.740286,N,00835.271371,E,1,11,0.7,125.0,M,44.0,M,,*61
2097271B56F5_$GPGGA,113320.00,5706.740284,N,00835.271369,E,1,11,0.7,125.0,M,44.0,M,,*60
2097271B56F5_$GPGGA,113321.00,5706.740282,N,00835.271371,E,1,11,0.7,125.0,M,44.0,M,,*6E
2097271B56F5_$GPGGA,113322.00,5706.740280,N,00835.271372,E,1,11,0.7,125.0,M,44.0,M,,*6C
2097271B56F5_$GPGGA,113323.00,5706.740278,N,00835.271371,E,1,11,0.7,125.0,M,44.0,M,,*69
2097271B56F5_$GPGGA,113324.00,5706.740276,N,00835.271369,E,1,11,0.7,125.0,M,44.0,M,,*69
2097271B56F5_$GPGGA,113325.00,5706.740274,N,00835.271367,E,1,11,0.7,125.0,M,44.0,M,,*64
2097271B56F5_$GPGGA,113326.00,5706.740273,N,00835.271365,E,1,11,0.7,125.0,M,44.0,M,,*62
2097271B56F5_$GPGGA,113327.00,5706.740271,N,00835.271363,E,1,10,0.7,125.0,M,44.0,M,,*66
2097271B56F5_$GPGGA,113328.00,5706.740268,N,00835.271361,E,1,10,0.7,125.0,M,44.0,M,,*63
2097271B56F5_$GPGGA,113329.00,5706.740266,N,00835.271359,E,1,10,0.7,125.0,M,44.0,M,,*67
2097271B56F5_$GPGGA,113330.00,5706.740264,N,00835.271358,E,1,10,0.7,125.0,M,44.0,M,,*6C
2097271B56F5_$GPGGA,113331.00,5706.740264,N,00835.271360,E,1,11,0.7,125.0,M,44.0,M,,*67
2097271B56F5_$GPGGA,113332.00,5706.740262,N,00835.271361,E,1,11,0.7,125.0,M,44.0,M,,*63
2097271B56F5_$GPGGA,113333.00,5706.740261,N,00835.271362,E,1,11,0.7,125.0,M,44.0,M,,*62
2097271B56F5_$GPGGA,113334.00,5706.740259,N,00835.271362,E,1,11,0.7,125.0,M,44.0,M,,*6E
2097271B56F5_$GPGGA,113335.00,5706.740258,N,00835.271362,E,1,11,0.7,125.0,M,44.0,M,,*6E
2097271B56F5_$GPGGA,113336.00,5706.740257,N,00835.271367,E,1,11,0.7,125.0,M,44.0,M,,*67
2097271B56F5_$GPGGA,113337.00,5706.740256,N,00835.271370,E,1,11,0.7,125.0,M,44.0,M,,*61
2097271B56F5_$GPGGA,113338.00,5706.740254,N,00835.271371,E,1,11,0.7,125.0,M,44.0,M,,*6D
2097271B56F5_$GPGGA,113339.00,5706.740253,N,00835.271372,E,1,11,0.7,125.0,M,44.0,M,,*68
2097271B56F5_$GPGGA,113340.00,5706.740217,N,00835.271429,E,1,11,0.7,125.1,M,44.0,M,,*6E
2097271B56F5_$GPGGA,113341.00,5706.739980,N,00835.271063,E,1,11,0.7,124.4,M,44.0,M,,*6A
2097271B56F5_$GPGGA,113342.00,5706.739813,N,00835.270679,E,1,11,0.7,124.3,M,44.0,M,,*69
2097271B56F5_$GPGGA,113343.00,5706.739773,N,00835.270435,E,1,11,0.7,124.0,M,44.0,M,,*68
2097271B56F5_$GPGGA,113344.00,5706.739872,N,00835.270335,E,1,11,0.7,123.5,M,44.0,M,,*64
2097271B56F5_$GPGGA,113345.00,5706.739943,N,00835.270423,E,1,11,0.7,123.8,M,44.0,M,,*6B
2097271B56F5_$GPGGA,113346.00,5706.739976,N,00835.270282,E,1,11,0.7,123.7,M,44.0,M,,*6C
2097271B56F5_$GPGGA,113347.00,5706.739991,N,00835.270167,E,1,11,0.7,123.5,M,44.0,M,,*6E
2097271B56F5_$GPGGA,113348.00,5706.740052,N,00835.270015,E,1,11,0.7,123.5,M,44.0,M,,*6D
2097271B56F5_$GPGGA,113349.00,5706.740000,N,00835.269971,E,1,11,0.7,123.4,M,44.0,M,,*69
2097271B56F5_$GPGGA,113350.00,5706.739915,N,00835.270026,E,1,11,0.7,123.1,M,44.0,M,,*64
2097271B56F5_$GPGGA,113351.00,5706.739865,N,00835.270102,E,1,11,0.7,123.3,M,44.0,M,,*66
2097271B56F5_$GPGGA,113352.00,5706.739840,N,00835.270157,E,1,11,0.7,123.3,M,44.0,M,,*62
2097271B56F5_$GPGGA,113353.00,5706.739854,N,00835.270226,E,1,11,0.7,123.4,M,44.0,M,,*64
2097271B56F5_$GPGGA,113354.00,5706.739859,N,00835.270276,E,1,11,0.7,123.5,M,44.0,M,,*6A
2097271B56F5_$GPGGA,113355.00,5706.739850,N,00835.270315,E,1,11,0.7,123.5,M,44.0,M,,*66
2097271B56F5_$GPGGA,113356.00,5706.739844,N,00835.270309,E,1,11,0.7,123.5,M,44.0,M,,*6D
2097271B56F5_$GPGGA,113357.00,5706.739846,N,00835.270303,E,1,11,0.7,123.5,M,44.0,M,,*64
2097271B56F5_$GPGGA,113358.00,5706.739845,N,00835.270298,E,1,11,0.7,123.5,M,44.0,M,,*6B
2097271B56F5_$GPGGA,113359.00,5706.739845,N,00835.270295,E,1,11,0.7,123.5,M,44.0,M,,*67
2097271B56F5_$GPGGA,113400.00,5706.739846,N,00835.270294,E,1,11,0.7,123.5,M,44.0,M,,*6E
2097271B56F5_$GPGGA,113401.00,5706.739846,N,00835.270292,E,1,11,0.7,123.5,M,44.0,M,,*69
2097271B56F5_$GPGGA,113402.00,5706.739846,N,00835.270291,E,1,11,0.7,123.5,M,44.0,M,,*69
2097271B56F5_$GPGGA,113403.00,5706.739847,N,00835.270291,E,1,10,0.8,123.5,M,44.0,M,,*67
2097271B56F5_$GPGGA,113404.00,5706.739847,N,00835.270290,E,1,09,0.9,123.5,M,44.0,M,,*68
2097271B56F5_$GPGGA,113405.00,5706.739847,N,00835.270288,E,1,09,0.8,123.5,M,44.0,M,,*61
2097271B56F5_$GPGGA,113406.00,5706.739848,N,00835.270287,E,1,08,0.9,123.5,M,44.0,M,,*62
2097271B56F5_$GPGGA,113407.00,5706.739848,N,00835.270285,E,1,08,0.9,123.5,M,44.0,M,,*61
2097271B56F5_$GPGGA,113408.00,5706.739848,N,00835.270284,E,1,08,0.9,123.5,M,44.0,M,,*6F
2097271B56F5_$GPGGA,113409.00,5706.739848,N,00835.270282,E,1,08,0.9,123.5,M,44.0,M,,*68
2097271B56F5_$GPGGA,113410.00,5706.739848,N,00835.270280,E,1,08,0.9,123.5,M,44.0,M,,*62
2097271B56F5_$GPGGA,113411.00,5706.739848,N,00835.270279,E,1,09,0.9,123.5,M,44.0,M,,*64
2097271B56F5_$GPGGA,113412.00,5706.739849,N,00835.270277,E,1,09,0.9,123.5,M,44.0,M,,*68
2097271B56F5_$GPGGA,113413.00,5706.739850,N,00835.270276,E,1,10,0.8,123.5,M,44.0,M,,*69
2097271B56F5_$GPGGA,113414.00,5706.739850,N,00835.270275,E,1,10,0.8,123.5,M,44.0,M,,*6D
2097271B56F5_$GPGGA,113415.00,5706.739850,N,00835.270274,E,1,10,0.8,123.5,M,44.0,M,,*6D
2097271B56F5_$GPGGA,113416.00,5706.739851,N,00835.270273,E,1,11,0.7,123.5,M,44.0,M,,*66
2097271B56F5_$GPGGA,113417.00,5706.739851,N,00835.270273,E,1,11,0.7,123.5,M,44.0,M,,*67
2097271B56F5_$GPGGA,113418.00,5706.739851,N,00835.270274,E,1,11,0.7,123.5,M,44.0,M,,*6F
2097271B56F5_$GPGGA,113419.00,5706.739851,N,00835.270274,E,1,10,0.8,123.5,M,44.0,M,,*60
2097271B56F5_$GPGGA,113420.00,5706.739851,N,00835.270273,E,1,10,0.8,123.5,M,44.0,M,,*6D
2097271B56F5_$GPGGA,113421.00,5706.739852,N,00835.270272,E,1,10,0.8,123.5,M,44.0,M,,*6E
2097271B56F5_$GPGGA,113422.00,5706.739852,N,00835.270271,E,1,10,0.8,123.5,M,44.0,M,,*6E
2097271B56F5_$GPGGA,113423.00,5706.739853,N,00835.270270,E,1,10,0.8,123.5,M,44.0,M,,*6F
2097271B56F5_$GPGGA,113424.00,5706.739854,N,00835.270269,E,1,10,0.8,123.5,M,44.0,M,,*67
2097271B56F5_$GPGGA,113425.00,5706.739855,N,00835.270268,E,1,11,0.7,123.5,M,44.0,M,,*68
2097271B56F5_$GPGGA,113426.00,5706.739855,N,00835.270266,E,1,11,0.7,123.5,M,44.0,M,,*65
2097271B56F5_$GPGGA,113427.00,5706.739856,N,00835.270265,E,1,11,0.7,123.5,M,44.0,M,,*64
2097271B56F5_$GPGGA,113428.00,5706.739856,N,00835.270264,E,1,11,0.7,123.5,M,44.0,M,,*6A
2097271B56F5_$GPGGA,113429.00,5706.739856,N,00835.270262,E,1,11,0.7,123.5,M,44.0,M,,*6D
2097271B56F5_$GPGGA,113430.00,5706.739856,N,00835.270261,E,1,11,0.7,123.5,M,44.0,M,,*66
2097271B56F5_$GPGGA,113431.00,5706.739856,N,00835.270260,E,1,11,0.7,123.5,M,44.0,M,,*66
2097271B56F5_$GPGGA,113432.00,5706.739856,N,00835.270259,E,1,11,0.7,123.5,M,44.0,M,,*6F
2097271B56F5_$GPGGA,113433.00,5706.739856,N,00835.270258,E,1,11,0.7,123.5,M,44.0,M,,*6F
2097271B56F5_$GPGGA,113434.00,5706.739857,N,00835.270257,E,1,11,0.7,123.5,M,44.0,M,,*66
2097271B56F5_$GPGGA,113435.00,5706.739857,N,00835.270256,E,1,11,0.7,123.5,M,44.0,M,,*66
2097271B56F5_$GPGGA,113436.00,5706.739858,N,00835.270256,E,1,10,0.8,123.5,M,44.0,M,,*64
2097271B56F5_$GPGGA,113437.00,5706.739858,N,00835.270255,E,1,10,0.8,123.5,M,44.0,M,,*66
2097271B56F5_$GPGGA,113438.00,5706.739858,N,00835.270254,E,1,10,0.8,123.5,M,44.0,M,,*68
2097271B56F5_$GPGGA,113439.00,5706.739859,N,00835.270254,E,1,11,0.7,123.5,M,44.0,M,,*66
2097271B56F5_$GPGGA,113440.00,5706.739859,N,00835.270254,E,1,11,0.7,123.5,M,44.0,M,,*68
2097271B56F5_$GPGGA,113441.00,5706.739859,N,00835.270252,E,1,11,0.7,123.5,M,44.0,M,,*6F
2097271B56F5_$GPGGA,113442.00,5706.739859,N,00835.270251,E,1,11,0.7,123.5,M,44.0,M,,*6F
2097271B56F5_$GPGGA,113443.00,5706.739860,N,00835.270251,E,1,11,0.7,123.5,M,44.0,M,,*64
2097271B56F5_$GPGGA,113444.00,5706.739860,N,00835.270250,E,1,11,0.7,123.5,M,44.0,M,,*62
2097271B56F5_$GPGGA,113445.00,5706.739861,N,00835.270250,E,1,11,0.7,123.5,M,44.0,M,,*62
2097271B56F5_$GPGGA,113446.00,5706.739861,N,00835.270249,E,1,11,0.7,123.5,M,44.0,M,,*69
2097271B56F5_$GPGGA,113447.00,5706.739861,N,00835.270247,E,1,11,0.7,123.5,M,44.0,M,,*66
2097271B56F5_$GPGGA,113448.00,5706.739862,N,00835.270246,E,1,11,0.7,123.5,M,44.0,M,,*6B
2097271B56F5_$GPGGA,113449.00,5706.739862,N,00835.270244,E,1,11,0.7,123.5,M,44.0,M,,*68
2097271B56F5_$GPGGA,113450.00,5706.739863,N,00835.270243,E,1,11,0.7,123.5,M,44.0,M,,*66
2097271B56F5_$GPGGA,113451.00,5706.739862,N,00835.270241,E,1,11,0.7,123.5,M,44.0,M,,*64
2097271B56F5_$GPGGA,113452.00,5706.739862,N,00835.270240,E,1,10,0.7,123.5,M,44.0,M,,*67
2097271B56F5_$GPGGA,113453.00,5706.739863,N,00835.270238,E,1,10,0.7,123.5,M,44.0,M,,*68
2097271B56F5_$GPGGA,113454.00,5706.739863,N,00835.270237,E,1,11,0.7,123.5,M,44.0,M,,*61
2097271B56F5_$GPGGA,113455.00,5706.739863,N,00835.270236,E,1,11,0.7,123.5,M,44.0,M,,*61
2097271B56F5_$GPGGA,113456.00,5706.739863,N,00835.270235,E,1,11,0.7,123.5,M,44.0,M,,*61
2097271B56F5_$GPGGA,113457.00,5706.739863,N,00835.270235,E,1,11,0.7,123.5,M,44.0,M,,*60
2097271B56F5_$GPGGA,113458.00,5706.739863,N,00835.270235,E,1,11,0.7,123.5,M,44.0,M,,*6F
2097271B56F5_$GPGGA,113459.00,5706.739863,N,00835.270235,E,1,10,0.8,123.5,M,44.0,M,,*60
2097271B56F5_$GPGGA,113500.00,5706.739862,N,00835.270235,E,1,10,0.8,123.5,M,44.0,M,,*6C
2097271B56F5_$GPGGA,113501.00,5706.739863,N,00835.270235,E,1,10,0.8,123.5,M,44.0,M,,*6C
2097271B56F5_$GPGGA,113502.00,5706.739863,N,00835.270235,E,1,10,0.8,123.5,M,44.0,M,,*6F
2097271B56F5_$GPGGA,113503.00,5706.739863,N,00835.270234,E,1,10,0.8,123.5,M,44.0,M,,*6F
2097271B56F5_$GPGGA,113504.00,5706.739863,N,00835.270233,E,1,10,0.8,123.5,M,44.0,M,,*6F
2097271B56F5_$GPGGA,113505.00,5706.739863,N,00835.270233,E,1,10,0.8,123.5,M,44.0,M,,*6E
2097271B56F5_$GPGGA,113506.00,5706.739863,N,00835.270233,E,1,10,0.8,123.5,M,44.0,M,,*6D
2097271B56F5_$GPGGA,113507.00,5706.739864,N,00835.270232,E,1,10,0.8,123.5,M,44.0,M,,*6A
2097271B56F5_$GPGGA,113508.00,5706.739864,N,00835.270231,E,1,10,0.8,123.5,M,44.0,M,,*66
2097271B56F5_$GPGGA,113509.00,5706.739864,N,00835.270230,E,1,10,0.8,123.5,M,44.0,M,,*66
2097271B56F5_$GPGGA,113510.00,5706.739864,N,00835.270230,E,1,10,0.8,123.5,M,44.0,M,,*6E
2097271B56F5_$GPGGA,113511.00,5706.739864,N,00835.270229,E,1,10,0.8,123.5,M,44.0,M,,*67
2097271B56F5_$GPGGA,113512.00,5706.739864,N,00835.270227,E,1,10,0.8,123.5,M,44.0,M,,*6A
2097271B56F5_$GPGGA,113513.00,5706.739865,N,00835.270225,E,1,10,0.8,123.5,M,44.0,M,,*68
2097271B56F5_$GPGGA,113514.00,5706.739865,N,00835.270223,E,1,10,0.8,123.5,M,44.0,M,,*69
2097271B56F5_$GPGGA,113515.00,5706.739865,N,00835.270221,E,1,10,0.8,123.5,M,44.0,M,,*6A
2097271B56F5_$GPGGA,113516.00,5706.739866,N,00835.270221,E,1,10,0.8,123.5,M,44.0,M,,*6A
2097271B56F5_$GPGGA,113517.00,5706.739866,N,00835.270220,E,1,10,0.8,123.5,M,44.0,M,,*6A
2097271B56F5_$GPGGA,113518.00,5706.739866,N,00835.270219,E,1,10,0.8,123.5,M,44.0,M,,*6F
2097271B56F5_$GPGGA,113519.00,5706.739866,N,00835.270218,E,1,10,0.8,123.5,M,44.0,M,,*6F
2097271B56F5_$GPGGA,113520.00,5706.739866,N,00835.270217,E,1,10,0.8,123.5,M,44.0,M,,*6A
2097271B56F5_$GPGGA,113521.00,5706.739866,N,00835.270214,E,1,10,0.8,123.5,M,44.0,M,,*68
2097271B56F5_$GPGGA,113522.00,5706.739867,N,00835.270212,E,1,10,0.8,123.5,M,44.0,M,,*6C
2097271B56F5_$GPGGA,113523.00,5706.739867,N,00835.270210,E,1,10,0.8,123.5,M,44.0,M,,*6F
2097271B56F5_$GPGGA,113524.00,5706.739867,N,00835.270208,E,1,09,0.8,123.5,M,44.0,M,,*69
2097271B56F5_$GPGGA,113525.00,5706.739867,N,00835.270208,E,1,09,0.8,123.5,M,44.0,M,,*68
2097271B56F5_$GPGGA,113526.00,5706.739867,N,00835.270208,E,1,10,0.8,123.5,M,44.0,M,,*63
2097271B56F5_$GPGGA,113527.00,5706.739866,N,00835.270207,E,1,10,0.8,123.5,M,44.0,M,,*6C
2097271B56F5_$GPGGA,113528.00,5706.739866,N,00835.270206,E,1,10,0.8,123.5,M,44.0,M,,*62
2097271B56F5_$GPGGA,113529.00,5706.739865,N,00835.270204,E,1,10,0.8,123.5,M,44.0,M,,*62
2097271B56F5_$GPGGA,113530.00,5706.739864,N,00835.270203,E,1,10,0.8,123.5,M,44.0,M,,*6C
2097271B56F5_$GPGGA,113531.00,5706.739864,N,00835.270201,E,1,10,0.8,123.5,M,44.0,M,,*6F
2097271B56F5_$GPGGA,113532.00,5706.739864,N,00835.270198,E,1,10,0.8,123.5,M,44.0,M,,*6F
2097271B56F5_$GPGGA,113533.00,5706.739863,N,00835.270197,E,1,09,0.8,123.5,M,44.0,M,,*6E
2097271B56F5_$GPGGA,113534.00,5706.739863,N,00835.270196,E,1,10,0.8,123.5,M,44.0,M,,*60
2097271B56F5_$GPGGA,113535.00,5706.739863,N,00835.270195,E,1,10,0.8,123.5,M,44.0,M,,*62
2097271B56F5_$GPGGA,113536.00,5706.739863,N,00835.270195,E,1,10,0.8,123.5,M,44.0,M,,*61
2097271B56F5_$GPGGA,113537.00,5706.739863,N,00835.270194,E,1,10,0.8,123.5,M,44.0,M,,*61
2097271B56F5_$GPGGA,113538.00,5706.739870,N,00835.270184,E,1,10,0.7,123.5,M,44.0,M,,*62
2097271B56F5_$GPGGA,113539.00,5706.739873,N,00835.270178,E,1,10,0.7,123.5,M,44.0,M,,*63
2097271B56F5_$GPGGA,113540.00,5706.739875,N,00835.270174,E,1,08,0.9,123.5,M,44.0,M,,*60
2097271B56F5_$GPGGA,113541.00,5706.739881,N,00835.270164,E,1,09,0.7,123.5,M,44.0,M,,*64
2097271B56F5_$GPGGA,113542.00,5706.739885,N,00835.270159,E,1,09,0.7,123.5,M,44.0,M,,*6D
2097271B56F5_$GPGGA,113543.00,5706.739886,N,00835.270156,E,1,09,0.7,123.5,M,44.0,M,,*60
2097271B56F5_$GPGGA,113544.00,5706.739887,N,00835.270155,E,1,09,0.7,123.5,M,44.0,M,,*65
2097271B56F5_$GPGGA,113545.00,5706.739912,N,00835.270063,E,1,09,0.7,123.6,M,44.0,M,,*6E
2097271B56F5_$GPGGA,113546.00,5706.739940,N,00835.269770,E,1,09,0.7,123.7,M,44.0,M,,*66
2097271B56F5_$GPGGA,113547.00,5706.739888,N,00835.269620,E,1,08,0.9,123.5,M,44.0,M,,*6B
2097271B56F5_$GPGGA,113548.00,5706.739913,N,00835.269515,E,1,08,0.9,123.7,M,44.0,M,,*60
2097271B56F5_$GPGGA,113549.00,5706.739963,N,00835.269417,E,1,08,0.9,123.8,M,44.0,M,,*6A
2097271B56F5_$GPGGA,113550.00,5706.739918,N,00835.269362,E,1,08,0.9,124.1,M,44.0,M,,*65
2097271B56F5_$GPGGA,113551.00,5706.739855,N,00835.269359,E,1,08,0.9,124.3,M,44.0,M,,*66
2097271B56F5_$GPGGA,113552.00,5706.739745,N,00835.269275,E,1,08,0.9,124.4,M,44.0,M,,*63
2097271B56F5_$GPGGA,113553.00,5706.739739,N,00835.269207,E,1,08,0.9,124.5,M,44.0,M,,*6D
2097271B56F5_$GPGGA,113554.00,5706.739745,N,00835.269187,E,1,08,0.9,124.9,M,44.0,M,,*66
2097271B56F5_$GPGGA,113555.00,5706.739838,N,00835.269275,E,1,08,0.9,124.9,M,44.0,M,,*6C
2097271B56F5_$GPGGA,113556.00,5706.739930,N,00835.269400,E,1,08,0.9,124.7,M,44.0,M,,*6C
2097271B56F5_$GPGGA,113557.00,5706.739977,N,00835.269489,E,1,08,0.9,124.6,M,44.0,M,,*6E
2097271B56F5_$GPGGA,113558.00,5706.740006,N,00835.269547,E,1,08,0.9,124.5,M,44.0,M,,*60
2097271B56F5_$GPGGA,113559.00,5706.740030,N,00835.269586,E,1,08,0.9,124.5,M,44.0,M,,*69
2097271B56F5_$GPGGA,113600.00,5706.740043,N,00835.269605,E,1,08,0.9,124.5,M,44.0,M,,*6A
2097271B56F5_$GPGGA,113601.00,5706.740033,N,00835.269529,E,1,08,0.9,123.8,M,44.0,M,,*6B
2097271B56F5_$GPGGA,113602.00,5706.739973,N,00835.269500,E,1,08,0.9,123.6,M,44.0,M,,*6E
2097271B56F5_$GPGGA,113603.00,5706.739964,N,00835.269326,E,1,08,0.9,124.3,M,44.0,M,,*69
2097271B56F5_$GPGGA,113604.00,5706.740074,N,00835.269075,E,1,08,0.9,124.4,M,44.0,M,,*6A
2097271B56F5_$GPGGA,113605.00,5706.740080,N,00835.269072,E,1,08,0.9,124.3,M,44.0,M,,*60
2097271B56F5_$GPGGA,113606.00,5706.740098,N,00835.268771,E,1,08,0.9,123.7,M,44.0,M,,*6C
2097271B56F5_$GPGGA,113607.00,5706.740113,N,00835.268550,E,1,08,0.9,123.8,M,44.0,M,,*61
2097271B56F5_$GPGGA,113608.00,5706.740145,N,00835.268367,E,1,08,0.9,123.7,M,44.0,M,,*60
2097271B56F5_$GPGGA,113609.00,5706.740087,N,00835.268282,E,1,08,0.9,123.2,M,44.0,M,,*61
2097271B56F5_$GPGGA,113610.00,5706.740008,N,00835.268201,E,1,08,0.9,122.8,M,44.0,M,,*6E
2097271B56F5_$GPGGA,113611.00,5706.739929,N,00835.267934,E,1,08,0.9,122.9,M,44.0,M,,*68
2097271B56F5_$GPGGA,113612.00,5706.739864,N,00835.267713,E,1,08,0.9,122.5,M,44.0,M,,*64
2097271B56F5_$GPGGA,113613.00,5706.739790,N,00835.267562,E,1,08,0.9,122.2,M,44.0,M,,*62
2097271B56F5_$GPGGA,113614.00,5706.739724,N,00835.267461,E,1,08,0.9,122.6,M,44.0,M,,*6C
2097271B56F5_$GPGGA,113615.00,5706.739763,N,00835.267504,E,1,08,0.9,122.5,M,44.0,M,,*6F
2097271B56F5_$GPGGA,113616.00,5706.739758,N,00835.267523,E,1,08,0.9,122.4,M,44.0,M,,*60
2097271B56F5_$GPGGA,113617.00,5706.739753,N,00835.267546,E,1,08,0.9,122.4,M,44.0,M,,*69
2097271B56F5_$GPGGA,113618.00,5706.739749,N,00835.267568,E,1,08,0.9,122.4,M,44.0,M,,*61
2097271B56F5_$GPGGA,113619.00,5706.739747,N,00835.267584,E,1,08,0.9,122.4,M,44.0,M,,*6C
2097271B56F5_$GPGGA,113620.00,5706.739745,N,00835.267593,E,1,09,0.8,122.4,M,44.0,M,,*62
2097271B56F5_$GPGGA,113621.00,5706.739743,N,00835.267597,E,1,09,0.8,122.4,M,44.0,M,,*61
2097271B56F5_$GPGGA,113622.00,5706.739742,N,00835.267600,E,1,09,0.8,122.4,M,44.0,M,,*6E
2097271B56F5_$GPGGA,113623.00,5706.739742,N,00835.267600,E,1,09,0.8,122.4,M,44.0,M,,*6F
2097271B56F5_$GPGGA,113624.00,5706.739742,N,00835.267598,E,1,09,0.8,122.5,M,44.0,M,,*6B
2097271B56F5_$GPGGA,113625.00,5706.739745,N,00835.267599,E,1,09,0.8,122.5,M,44.0,M,,*6C
2097271B56F5_$GPGGA,113626.00,5706.739748,N,00835.267599,E,1,08,0.9,122.5,M,44.0,M,,*62
2097271B56F5_$GPGGA,113627.00,5706.739750,N,00835.267599,E,1,08,0.9,122.5,M,44.0,M,,*6A
2097271B56F5_$GPGGA,113628.00,5706.739750,N,00835.267600,E,1,08,0.9,122.5,M,44.0,M,,*66
2097271B56F5_$GPGGA,113629.00,5706.739754,N,00835.267601,E,1,08,0.9,122.5,M,44.0,M,,*62
2097271B56F5_$GPGGA,113630.00,5706.739700,N,00835.267639,E,1,08,0.9,122.4,M,44.0,M,,*61
2097271B56F5_$GPGGA,113631.00,5706.739865,N,00835.268100,E,1,08,0.9,121.4,M,44.0,M,,*6D
2097271B56F5_$GPGGA,113632.00,5706.739824,N,00835.268385,E,1,08,0.9,121.3,M,44.0,M,,*63
2097271B56F5_$GPGGA,113633.00,5706.739861,N,00835.268516,E,1,08,0.9,121.5,M,44.0,M,,*69
2097271B56F5_$GPGGA,113634.00,5706.739902,N,00835.268600,E,1,08,0.9,121.5,M,44.0,M,,*6E
2097271B56F5_$GPGGA,113635.00,5706.739901,N,00835.268559,E,1,08,0.9,122.0,M,44.0,M,,*65
2097271B56F5_$GPGGA,113636.00,5706.739835,N,00835.268310,E,1,08,0.9,121.2,M,44.0,M,,*6A
2097271B56F5_$GPGGA,113637.00,5706.739845,N,00835.268049,E,1,08,0.8,121.3,M,44.0,M,,*63
2097271B56F5_$GPGGA,113638.00,5706.739965,N,00835.267971,E,1,08,0.8,121.3,M,44.0,M,,*62
2097271B56F5_$GPGGA,113639.00,5706.739946,N,00835.267934,E,1,08,0.8,121.4,M,44.0,M,,*64
2097271B56F5_$GPGGA,113640.00,5706.739816,N,00835.268014,E,1,08,0.8,121.5,M,44.0,M,,*6B
2097271B56F5_$GPGGA,113641.00,5706.739629,N,00835.268117,E,1,08,0.8,120.9,M,44.0,M,,*67
2097271B56F5_$GPGGA,113642.00,5706.739601,N,00835.268099,E,1,08,0.9,121.2,M,44.0,M,,*62
2097271B56F5_$GPGGA,113643.00,5706.739671,N,00835.268028,E,1,08,0.8,121.6,M,44.0,M,,*6B
2097271B56F5_$GPGGA,113644.00,5706.739777,N,00835.268045,E,1,08,0.8,122.6,M,44.0,M,,*63
2097271B56F5_$GPGGA,113645.00,5706.739777,N,00835.267955,E,1,08,0.8,122.4,M,44.0,M,,*67
2097271B56F5_$GPGGA,113646.00,5706.739480,N,00835.267713,E,1,08,0.8,121.7,M,44.0,M,,*63
2097271B56F5_$GPGGA,113647.00,5706.739111,N,00835.267621,E,1,08,0.8,121.2,M,44.0,M,,*6A
2097271B56F5_$GPGGA,113648.00,5706.739068,N,00835.267568,E,1,08,0.8,120.7,M,44.0,M,,*60
2097271B56F5_$GPGGA,113649.00,5706.739041,N,00835.267556,E,1,08,0.8,120.7,M,44.0,M,,*67
2097271B56F5_$GPGGA,113650.00,5706.739181,N,00835.267481,E,1,08,0.9,121.1,M,44.0,M,,*6F
2097271B56F5_$GPGGA,113651.00,5706.739312,N,00835.267373,E,1,08,0.9,121.4,M,44.0,M,,*69
2097271B56F5_$GPGGA,113652.00,5706.739509,N,00835.267188,E,1,09,0.8,121.9,M,44.0,M,,*6D
2097271B56F5_$GPGGA,113653.00,5706.739611,N,00835.267025,E,1,09,0.8,121.9,M,44.0,M,,*60
2097271B56F5_$GPGGA,113654.00,5706.739669,N,00835.266929,E,1,09,0.8,122.0,M,44.0,M,,*66
2097271B56F5_$GPGGA,113655.00,5706.739788,N,00835.266847,E,1,09,0.8,122.5,M,44.0,M,,*65
2097271B56F5_$GPGGA,113656.00,5706.739878,N,00835.266797,E,1,09,0.8,122.7,M,44.0,M,,*66
2097271B56F5_$GPGGA,113657.00,5706.739938,N,00835.266795,E,1,09,0.8,122.7,M,44.0,M,,*60
2097271B56F5_$GPGGA,113658.00,5706.739998,N,00835.266788,E,1,08,0.8,122.9,M,44.0,M,,*66
2097271B56F5_$GPGGA,113659.00,5706.740025,N,00835.266788,E,1,08,0.8,122.9,M,44.0,M,,*66
2097271B56F5_$GPGGA,113700.00,5706.740040,N,00835.266789,E,1,08,0.8,122.9,M,44.0,M,,*69
2097271B56F5_$GPGGA,113701.00,5706.740048,N,00835.266789,E,1,08,0.8,122.9,M,44.0,M,,*60
2097271B56F5_$GPGGA,113702.00,5706.740052,N,00835.266789,E,1,08,0.8,122.9,M,44.0,M,,*68
2097271B56F5_$GPGGA,113703.00,5706.740054,N,00835.266789,E,1,08,0.8,122.9,M,44.0,M,,*6F
2097271B56F5_$GPGGA,113704.00,5706.740054,N,00835.266789,E,1,08,0.8,122.9,M,44.0,M,,*68
2097271B56F5_$GPGGA,113705.00,5706.740054,N,00835.266789,E,1,08,0.8,122.9,M,44.0,M,,*69
2097271B56F5_$GPGGA,113706.00,5706.740053,N,00835.266787,E,1,08,0.8,122.9,M,44.0,M,,*63
2097271B56F5_$GPGGA,113707.00,5706.740052,N,00835.266786,E,1,08,0.9,122.9,M,44.0,M,,*63
2097271B56F5_$GPGGA,113708.00,5706.740051,N,00835.266785,E,1,08,0.9,122.9,M,44.0,M,,*6C
2097271B56F5_$GPGGA,113709.00,5706.740051,N,00835.266785,E,1,08,0.8,122.9,M,44.0,M,,*6C
2097271B56F5_$GPGGA,113710.00,5706.740050,N,00835.266785,E,1,08,0.8,122.9,M,44.0,M,,*65
2097271B56F5_$GPGGA,113711.00,5706.740050,N,00835.266786,E,1,08,0.8,122.9,M,44.0,M,,*67
2097271B56F5_$GPGGA,113712.00,5706.740049,N,00835.266786,E,1,08,0.8,122.9,M,44.0,M,,*6C
2097271B56F5_$GPGGA,113713.00,5706.740048,N,00835.266787,E,1,08,0.8,122.9,M,44.0,M,,*6D
2097271B56F5_$GPGGA,113714.00,5706.740049,N,00835.266789,E,1,08,0.8,122.9,M,44.0,M,,*65
2097271B56F5_$GPGGA,113715.00,5706.740049,N,00835.266791,E,1,08,0.8,122.9,M,44.0,M,,*6D
2097271B56F5_$GPGGA,113716.00,5706.740050,N,00835.266791,E,1,08,0.8,122.9,M,44.0,M,,*66
2097271B56F5_$GPGGA,113717.00,5706.740064,N,00835.266738,E,1,09,0.8,122.3,M,44.0,M,,*68
2097271B56F5_$GPGGA,113718.00,5706.740011,N,00835.266519,E,1,09,0.8,121.6,M,44.0,M,,*62
2097271B56F5_$GPGGA,113719.00,5706.739961,N,00835.266391,E,1,09,0.8,121.4,M,44.0,M,,*67
2097271B56F5_$GPGGA,113720.00,5706.739882,N,00835.266215,E,1,09,0.8,121.7,M,44.0,M,,*6F
2097271B56F5_$GPGGA,113721.00,5706.739776,N,00835.265927,E,1,09,0.8,121.4,M,44.0,M,,*60
2097271B56F5_$GPGGA,113722.00,5706.739733,N,00835.265750,E,1,09,0.8,121.2,M,44.0,M,,*6A
2097271B56F5_$GPGGA,113723.00,5706.739686,N,00835.265714,E,1,08,0.8,121.2,M,44.0,M,,*65
2097271B56F5_$GPGGA,113724.00,5706.739690,N,00835.265689,E,1,08,0.8,121.6,M,44.0,M,,*64
2097271B56F5_$GPGGA,113725.00,5706.739640,N,00835.265632,E,1,08,0.8,121.7,M,44.0,M,,*69
2097271B56F5_$GPGGA,113726.00,5706.739577,N,00835.265578,E,1,08,0.8,121.8,M,44.0,M,,*6F
2097271B56F5_$GPGGA,113727.00,5706.739578,N,00835.265594,E,1,08,0.8,122.0,M,44.0,M,,*68
2097271B56F5_$GPGGA,113728.00,5706.739642,N,00835.265574,E,1,08,0.8,122.1,M,44.0,M,,*62
2097271B56F5_$GPGGA,113729.00,5706.739646,N,00835.265569,E,1,08,0.8,122.1,M,44.0,M,,*6B
2097271B56F5_$GPGGA,113730.00,5706.739641,N,00835.265555,E,1,08,0.8,122.3,M,44.0,M,,*69
2097271B56F5_$GPGGA,113731.00,5706.739729,N,00835.265410,E,1,08,0.8,122.8,M,44.0,M,,*6C
2097271B56F5_$GPGGA,113732.00,5706.739723,N,00835.265302,E,1,09,0.8,122.7,M,44.0,M,,*6F
2097271B56F5_$GPGGA,113733.00,5706.739640,N,00835.265250,E,1,09,0.8,122.7,M,44.0,M,,*6C
2097271B56F5_$GPGGA,113734.00,5706.739589,N,00835.265321,E,1,09,0.8,123.1,M,44.0,M,,*6D
2097271B56F5_$GPGGA,113735.00,5706.739614,N,00835.265386,E,1,09,0.8,123.6,M,44.0,M,,*61
2097271B56F5_$GPGGA,113736.00,5706.739706,N,00835.265489,E,1,09,0.8,123.6,M,44.0,M,,*68
2097271B56F5_$GPGGA,113737.00,5706.739774,N,00835.265666,E,1,09,0.8,123.1,M,44.0,M,,*68
2097271B56F5_$GPGGA,113738.00,5706.739696,N,00835.265840,E,1,08,0.8,122.4,M,44.0,M,,*65
2097271B56F5_$GPGGA,113739.00,5706.739647,N,00835.265789,E,1,08,0.8,121.9,M,44.0,M,,*6C
2097271B56F5_$GPGGA,113740.00,5706.739607,N,00835.265611,E,1,08,0.8,121.3,M,44.0,M,,*6C
2097271B56F5_$GPGGA,113741.00,5706.739560,N,00835.265660,E,1,08,0.8,121.3,M,44.0,M,,*69
2097271B56F5_$GPGGA,113742.00,5706.739572,N,00835.265830,E,1,08,0.8,121.0,M,44.0,M,,*61
2097271B56F5_$GPGGA,113743.00,5706.739488,N,00835.265920,E,1,08,0.8,120.6,M,44.0,M,,*63
2097271B56F5_$GPGGA,113744.00,5706.739479,N,00835.265891,E,1,08,0.8,120.3,M,44.0,M,,*64
2097271B56F5_$GPGGA,113745.00,5706.739569,N,00835.266033,E,1,08,0.8,120.0,M,44.0,M,,*65
2097271B56F5_$GPGGA,113746.00,5706.739736,N,00835.266360,E,1,08,0.8,119.8,M,44.0,M,,*69
2097271B56F5_$GPGGA,113747.00,5706.739681,N,00835.266706,E,1,08,0.8,119.6,M,44.0,M,,*6F
2097271B56F5_$GPGGA,113748.00,5706.739597,N,00835.267093,E,1,08,0.9,119.2,M,44.0,M,,*6B
2097271B56F5_$GPGGA,113749.00,5706.739646,N,00835.267324,E,1,08,0.9,118.9,M,44.0,M,,*60
2097271B56F5_$GPGGA,113750.00,5706.739713,N,00835.267442,E,1,08,0.9,119.4,M,44.0,M,,*62
2097271B56F5_$GPGGA,113751.00,5706.739772,N,00835.267539,E,1,08,0.9,119.4,M,44.0,M,,*69
2097271B56F5_$GPGGA,113752.00,5706.739857,N,00835.267550,E,1,08,0.9,119.7,M,44.0,M,,*6E
2097271B56F5_$GPGGA,113753.00,5706.740038,N,00835.267587,E,1,08,0.9,118.6,M,44.0,M,,*6A
2097271B56F5_$GPGGA,113754.00,5706.740237,N,00835.267441,E,1,08,0.9,118.9,M,44.0,M,,*64
2097271B56F5_$GPGGA,113755.00,5706.740385,N,00835.267353,E,1,08,0.9,119.2,M,44.0,M,,*63
2097271B56F5_$GPGGA,113756.00,5706.740465,N,00835.267269,E,1,08,0.9,119.7,M,44.0,M,,*64
2097271B56F5_$GPGGA,113757.00,5706.740582,N,00835.267140,E,1,08,0.9,119.9,M,44.0,M,,*6B
2097271B56F5_$GPGGA,113758.00,5706.740613,N,00835.267002,E,1,08,0.9,120.4,M,44.0,M,,*6F
2097271B56F5_$GPGGA,113759.00,5706.740548,N,00835.266766,E,1,08,0.9,119.4,M,44.0,M,,*6D
2097271B56F5_$GPGGA,113800.00,5706.740452,N,00835.266447,E,1,08,0.9,118.9,M,44.0,M,,*68
2097271B56F5_$GPGGA,113801.00,5706.740451,N,00835.266135,E,1,08,0.8,118.5,M,44.0,M,,*67
2097271B56F5_$GPGGA,113802.00,5706.740413,N,00835.265962,E,1,08,0.8,118.8,M,44.0,M,,*66
2097271B56F5_$GPGGA,113803.00,5706.740355,N,00835.265921,E,1,08,0.8,118.9,M,44.0,M,,*64
2097271B56F5_$GPGGA,113804.00,5706.740341,N,00835.265759,E,1,08,0.8,118.5,M,44.0,M,,*6B
2097271B56F5_$GPGGA,113805.00,5706.740508,N,00835.265756,E,1,08,0.8,118.2,M,44.0,M,,*69
2097271B56F5_$GPGGA,113806.00,5706.740555,N,00835.265854,E,1,08,0.8,117.8,M,44.0,M,,*6A
2097271B56F5_$GPGGA,113807.00,5706.740474,N,00835.266071,E,1,08,0.8,117.9,M,44.0,M,,*64
2097271B56F5_$GPGGA,113808.00,5706.740439,N,00835.266171,E,1,08,0.8,118.5,M,44.0,M,,*60
2097271B56F5_$GPGGA,113809.00,5706.740525,N,00835.266230,E,1,08,0.8,117.6,M,44.0,M,,*67
2097271B56F5_$GPGGA,113810.00,5706.740579,N,00835.266337,E,1,08,0.8,117.8,M,44.0,M,,*6E
2097271B56F5_$GPGGA,113811.00,5706.740575,N,00835.266405,E,1,09,0.8,118.0,M,44.0,M,,*63
2097271B56F5_$GPGGA,113812.00,5706.740569,N,00835.266374,E,1,09,0.8,117.7,M,44.0,M,,*64
2097271B56F5_$GPGGA,113813.00,5706.740542,N,00835.266275,E,1,09,0.8,117.2,M,44.0,M,,*69
2097271B56F5_$GPGGA,113814.00,5706.740596,N,00835.266272,E,1,09,0.8,118.0,M,44.0,M,,*6D
2097271B56F5_$GPGGA,113815.00,5706.740618,N,00835.266298,E,1,09,0.8,118.0,M,44.0,M,,*6D
2097271B56F5_$GPGGA,113816.00,5706.740629,N,00835.266327,E,1,09,0.8,118.1,M,44.0,M,,*68
2097271B56F5_$GPGGA,113817.00,5706.740634,N,00835.266353,E,1,09,0.8,118.1,M,44.0,M,,*66
2097271B56F5_$GPGGA,113818.00,5706.740639,N,00835.266369,E,1,09,0.8,118.1,M,44.0,M,,*6D
2097271B56F5_$GPGGA,113819.00,5706.740641,N,00835.266378,E,1,09,0.8,118.1,M,44.0,M,,*63
2097271B56F5_$GPGGA,113820.00,5706.740643,N,00835.266383,E,1,09,0.8,118.1,M,44.0,M,,*6F
2097271B56F5_$GPGGA,113821.00,5706.740645,N,00835.266385,E,1,09,0.8,118.1,M,44.0,M,,*6E
2097271B56F5_$GPGGA,113822.00,5706.740631,N,00835.266380,E,1,10,0.7,118.2,M,44.0,M,,*6F
2097271B56F5_$GPGGA,113823.00,5706.740626,N,00835.266378,E,1,10,0.7,118.2,M,44.0,M,,*6F
2097271B56F5_$GPGGA,113824.00,5706.740623,N,00835.266377,E,1,10,0.7,118.2,M,44.0,M,,*62
2097271B56F5_$GPGGA,113825.00,5706.740621,N,00835.266375,E,1,10,0.7,118.2,M,44.0,M,,*63
2097271B56F5_$GPGGA,113826.00,5706.740620,N,00835.266375,E,1,10,0.7,118.2,M,44.0,M,,*61
2097271B56F5_$GPGGA,113827.00,5706.740620,N,00835.266375,E,1,10,0.7,118.2,M,44.0,M,,*60
2097271B56F5_$GPGGA,113828.00,5706.740620,N,00835.266375,E,1,09,0.8,118.2,M,44.0,M,,*68
2097271B56F5_$GPGGA,113829.00,5706.740621,N,00835.266376,E,1,10,0.8,118.2,M,44.0,M,,*63
2097271B56F5_$GPGGA,113830.00,5706.740621,N,00835.266377,E,1,10,0.8,118.2,M,44.0,M,,*6A
2097271B56F5_$GPGGA,113831.00,5706.740621,N,00835.266377,E,1,10,0.8,118.2,M,44.0,M,,*6B
2097271B56F5_$GPGGA,113832.00,5706.740620,N,00835.266378,E,1,10,0.8,118.2,M,44.0,M,,*66
2097271B56F5_$GPGGA,113833.00,5706.740588,N,00835.266396,E,1,10,0.8,118.9,M,44.0,M,,*6D
2097271B56F5_$GPGGA,113834.00,5706.740482,N,00835.266530,E,1,10,0.8,118.4,M,44.0,M,,*66
2097271B56F5_$GPGGA,113835.00,5706.740385,N,00835.266661,E,1,09,0.8,118.2,M,44.0,M,,*6E
2097271B56F5_$GPGGA,113836.00,5706.740330,N,00835.266729,E,1,09,0.8,118.2,M,44.0,M,,*6E
2097271B56F5_$GPGGA,113837.00,5706.740329,N,00835.266844,E,1,09,0.8,118.3,M,44.0,M,,*62
2097271B56F5_$GPGGA,113838.00,5706.740407,N,00835.267017,E,1,09,0.8,118.1,M,44.0,M,,*6B
2097271B56F5_$GPGGA,113839.00,5706.740529,N,00835.267142,E,1,09,0.8,117.6,M,44.0,M,,*6E
2097271B56F5_$GPGGA,113840.00,5706.740654,N,00835.267169,E,1,09,0.9,117.5,M,44.0,M,,*62
2097271B56F5_$GPGGA,113841.00,5706.740709,N,00835.267213,E,1,09,0.9,117.8,M,44.0,M,,*69
2097271B56F5_$GPGGA,113842.00,5706.740701,N,00835.267275,E,1,09,0.9,118.2,M,44.0,M,,*67
2097271B56F5_$GPGGA,113843.00,5706.740674,N,00835.267269,E,1,09,0.9,118.6,M,44.0,M,,*6C
2097271B56F5_$GPGGA,113844.00,5706.740632,N,00835.267301,E,1,09,0.9,118.7,M,44.0,M,,*67
2097271B56F5_$GPGGA,113845.00,5706.740556,N,00835.267352,E,1,09,0.9,118.8,M,44.0,M,,*6E
2097271B56F5_$GPGGA,113846.00,5706.740652,N,00835.267539,E,1,09,0.9,118.5,M,44.0,M,,*6C
2097271B56F5_$GPGGA,113847.00,5706.740588,N,00835.267574,E,1,09,0.9,118.6,M,44.0,M,,*63
2097271B56F5_$GPGGA,113848.00,5706.740515,N,00835.267509,E,1,09,0.9,118.1,M,44.0,M,,*65
2097271B56F5_$GPGGA,113849.00,5706.740489,N,00835.267430,E,1,09,0.9,118.3,M,44.0,M,,*69
2097271B56F5_$GPGGA,113850.00,5706.740438,N,00835.267379,E,1,10,0.7,118.2,M,44.0,M,,*66
2097271B56F5_$GPGGA,113851.00,5706.740455,N,00835.267338,E,1,10,0.7,118.3,M,44.0,M,,*68
2097271B56F5_$GPGGA,113852.00,5706.740483,N,00835.267310,E,1,10,0.7,118.2,M,44.0,M,,*6B
2097271B56F5_$GPGGA,113853.00,5706.740431,N,00835.267232,E,1,10,0.7,118.3,M,44.0,M,,*63
2097271B56F5_$GPGGA,113854.00,5706.740424,N,00835.267230,E,1,10,0.7,118.2,M,44.0,M,,*63
2097271B56F5_$GPGGA,113855.00,5706.740404,N,00835.267220,E,1,10,0.7,118.3,M,44.0,M,,*60
2097271B56F5_$GPGGA,113856.00,5706.740360,N,00835.267032,E,1,09,0.8,118.7,M,44.0,M,,*64
2097271B56F5_$GPGGA,113857.00,5706.740285,N,00835.266689,E,1,09,0.8,118.2,M,44.0,M,,*6D
2097271B56F5_$GPGGA,113858.00,5706.740216,N,00835.266386,E,1,09,0.8,118.5,M,44.0,M,,*65
2097271B56F5_$GPGGA,113859.00,5706.740178,N,00835.266294,E,1,09,0.8,118.9,M,44.0,M,,*61
2097271B56F5_$GPGGA,113900.00,5706.740335,N,00835.266258,E,1,09,0.8,119.0,M,44.0,M,,*6F
2097271B56F5_$GPGGA,113901.00,5706.740446,N,00835.266298,E,1,09,0.8,119.6,M,44.0,M,,*67
2097271B56F5_$GPGGA,113902.00,5706.740554,N,00835.266232,E,1,09,0.8,119.9,M,44.0,M,,*69
2097271B56F5_$GPGGA,113903.00,5706.740455,N,00835.266350,E,1,09,0.8,119.3,M,44.0,M,,*67
2097271B56F5_$GPGGA,113904.00,5706.740408,N,00835.266408,E,1,09,0.8,119.3,M,44.0,M,,*62
2097271B56F5_$GPGGA,113905.00,5706.740360,N,00835.266453,E,1,09,0.8,119.3,M,44.0,M,,*64
2097271B56F5_$GPGGA,113906.00,5706.740238,N,00835.266517,E,1,09,0.8,119.5,M,44.0,M,,*6C
2097271B56F5_$GPGGA,113907.00,5706.740127,N,00835.266569,E,1,09,0.8,119.5,M,44.0,M,,*69
2097271B56F5_$GPGGA,113908.00,5706.740063,N,00835.266598,E,1,09,0.8,119.5,M,44.0,M,,*69
2097271B56F5_$GPGGA,113909.00,5706.740038,N,00835.266618,E,1,09,0.8,119.5,M,44.0,M,,*6D
2097271B56F5_$GPGGA,113910.00,5706.740025,N,00835.266626,E,1,09,0.8,119.5,M,44.0,M,,*64
2097271B56F5_$GPGGA,113911.00,5706.740019,N,00835.266632,E,1,09,0.8,119.5,M,44.0,M,,*6F
2097271B56F5_$GPGGA,113912.00,5706.740015,N,00835.266634,E,1,09,0.8,119.5,M,44.0,M,,*66
2097271B56F5_$GPGGA,113913.00,5706.740012,N,00835.266635,E,1,09,0.8,119.5,M,44.0,M,,*61
2097271B56F5_$GPGGA,113914.00,5706.740011,N,00835.266634,E,1,09,0.8,119.5,M,44.0,M,,*64
2097271B56F5_$GPGGA,113915.00,5706.740010,N,00835.266634,E,1,09,0.8,119.5,M,44.0,M,,*64
2097271B56F5_$GPGGA,113916.00,5706.740009,N,00835.266635,E,1,09,0.8,119.5,M,44.0,M,,*6E
2097271B56F5_$GPGGA,113917.00,5706.740008,N,00835.266635,E,1,09,0.8,119.5,M,44.0,M,,*6E
