2097271B56F5_$GPGGA,083722.00,5706.762263,N,00835.291548,E,1,08,0.8,1.8,M,44.0,M,,*64
2097271B56F5_$GPGGA,083723.00,5706.762259,N,00835.291557,E,1,08,0.8,1.8,M,44.0,M,,*62
2097271B56F5_$GPGGA,083724.00,5706.762258,N,00835.291561,E,1,08,0.8,1.8,M,44.0,M,,*61
2097271B56F5_$GPGGA,083725.00,5706.762256,N,00835.291558,E,1,08,0.8,1.8,M,44.0,M,,*64
2097271B56F5_$GPGGA,083726.00,5706.762255,N,00835.291557,E,1,08,0.8,1.8,M,44.0,M,,*6B
2097271B56F5_$GPGGA,083727.00,5706.762253,N,00835.291564,E,1,08,0.8,1.8,M,44.0,M,,*6C
2097271B56F5_$GPGGA,083728.00,5706.762251,N,00835.291569,E,1,08,0.8,1.8,M,44.0,M,,*6C
2097271B56F5_$GPGGA,083729.00,5706.762244,N,00835.291565,E,1,08,0.8,1.8,M,44.0,M,,*65
2097271B56F5_$GPGGA,083730.00,5706.762243,N,00835.291558,E,1,08,0.8,1.8,M,44.0,M,,*64
2097271B56F5_$GPGGA,083731.00,5706.762236,N,00835.291569,E,1,08,0.8,1.7,M,44.0,M,,*6A
2097271B56F5_$GPGGA,083732.00,5706.762229,N,00835.291585,E,1,08,0.8,1.8,M,44.0,M,,*6A
2097271B56F5_$GPGGA,083733.00,5706.762228,N,00835.291589,E,1,08,0.8,1.7,M,44.0,M,,*69
2097271B56F5_$GPGGA,083734.00,5706.762222,N,00835.291589,E,1,08,0.8,1.7,M,44.0,M,,*64
2097271B56F5_$GPGGA,083735.00,5706.762221,N,00835.291586,E,1,08,0.8,1.7,M,44.0,M,,*69
2097271B56F5_$GPGGA,083736.00,5706.762218,N,00835.291592,E,1,08,0.8,1.7,M,44.0,M,,*65
2097271B56F5_$GPGGA,083737.00,5706.762216,N,00835.291593,E,1,08,0.8,1.7,M,44.0,M,,*6B
2097271B56F5_$GPGGA,083738.00,5706.762219,N,00835.291587,E,1,08,0.8,1.7,M,44.0,M,,*6E
2097271B56F5_$GPGGA,083739.00,5706.762218,N,00835.291583,E,1,08,0.8,1.7,M,44.0,M,,*6A
2097271B56F5_$GPGGA,083740.00,5706.762219,N,00835.291585,E,1,08,0.8,1.7,M,44.0,M,,*63
2097271B56F5_$GPGGA,083741.00,5706.762218,N,00835.291580,E,1,08,0.8,1.7,M,44.0,M,,*66
2097271B56F5_$GPGGA,083742.00,5706.762217,N,00835.291585,E,1,08,0.8,1.7,M,44.0,M,,*6F
2097271B56F5_$GPGGA,083743.00,5706.762212,N,00835.291591,E,1,08,0.8,1.7,M,44.0,M,,*6E
2097271B56F5_$GPGGA,083744.00,5706.762211,N,00835.291592,E,1,08,0.8,1.7,M,44.0,M,,*69
2097271B56F5_$GPGGA,083745.00,5706.762216,N,00835.291584,E,1,08,0.8,1.7,M,44.0,M,,*68
2097271B56F5_$GPGGA,083746.00,5706.762212,N,00835.291587,E,1,08,0.8,1.7,M,44.0,M,,*6C
2097271B56F5_$GPGGA,083747.00,5706.762210,N,00835.291596,E,1,08,0.8,1.7,M,44.0,M,,*6F
2097271B56F5_$GPGGA,083748.00,5706.762207,N,00835.291599,E,1,08,0.8,1.7,M,44.0,M,,*69
2097271B56F5_$GPGGA,083749.00,5706.762206,N,00835.291595,E,1,08,0.8,1.7,M,44.0,M,,*65
2097271B56F5_$GPGGA,083750.00,5706.762203,N,00835.291596,E,1,08,0.8,1.7,M,44.0,M,,*6B
2097271B56F5_$GPGGA,083751.00,5706.762201,N,00835.291595,E,1,08,0.8,1.7,M,44.0,M,,*6B
2097271B56F5_$GPGGA,083752.00,5706.762197,N,00835.291590,E,1,08,0.8,1.7,M,44.0,M,,*61
2097271B56F5_$GPGGA,083753.00,5706.762195,N,00835.291584,E,1,08,0.8,1.7,M,44.0,M,,*67
2097271B56F5_$GPGGA,083754.00,5706.762199,N,00835.291582,E,1,08,0.8,1.7,M,44.0,M,,*6A
2097271B56F5_$GPGGA,083755.00,5706.762199,N,00835.291581,E,1,08,0.8,1.7,M,44.0,M,,*68
2097271B56F5_$GPGGA,083756.00,5706.762197,N,00835.291577,E,1,08,0.8,1.7,M,44.0,M,,*6C
2097271B56F5_$GPGGA,083757.00,5706.762196,N,00835.291581,E,1,08,0.8,1.7,M,44.0,M,,*65
2097271B56F5_$GPGGA,083758.00,5706.762190,N,00835.291586,E,1,08,0.8,1.7,M,44.0,M,,*6B
2097271B56F5_$GPGGA,083759.00,5706.762188,N,00835.291580,E,1,08,0.8,1.7,M,44.0,M,,*65
2097271B56F5_$GPGGA,083800.00,5706.762185,N,00835.291577,E,1,08,0.8,1.7,M,44.0,M,,*63
2097271B56F5_$GPGGA,083801.00,5706.762183,N,00835.291571,E,1,08,0.8,1.7,M,44.0,M,,*62
2097271B56F5_$GPGGA,083802.00,5706.762184,N,00835.291576,E,1,08,0.8,1.7,M,44.0,M,,*61
2097271B56F5_$GPGGA,083803.00,5706.762185,N,00835.291576,E,1,08,0.8,1.7,M,44.0,M,,*61
2097271B56F5_$GPGGA,083804.00,5706.762181,N,00835.291570,E,1,08,0.8,1.7,M,44.0,M,,*64
2097271B56F5_$GPGGA,083805.00,5706.762178,N,00835.291566,E,1,08,0.8,1.7,M,44.0,M,,*64
2097271B56F5_$GPGGA,083806.00,5706.762175,N,00835.291560,E,1,08,0.8,1.7,M,44.0,M,,*6C
2097271B56F5_$GPGGA,083807.00,5706.762175,N,00835.291552,E,1,08,0.8,1.7,M,44.0,M,,*6C
2097271B56F5_$GPGGA,083808.00,5706.762175,N,00835.291551,E,1,08,0.8,1.7,M,44.0,M,,*60
2097271B56F5_$GPGGA,083809.00,5706.762170,N,00835.291554,E,1,08,0.8,1.7,M,44.0,M,,*61
2097271B56F5_$GPGGA,083810.00,5706.762168,N,00835.291551,E,1,08,0.8,1.7,M,44.0,M,,*65
2097271B56F5_$GPGGA,083811.00,5706.762165,N,00835.291552,E,1,08,0.8,1.7,M,44.0,M,,*6A
2097271B56F5_$GPGGA,083812.00,5706.762166,N,00835.291550,E,1,08,0.8,1.7,M,44.0,M,,*68
2097271B56F5_$GPGGA,083813.00,5706.762165,N,00835.291554,E,1,08,0.8,1.7,M,44.0,M,,*6E
2097271B56F5_$GPGGA,083814.00,5706.762161,N,00835.291551,E,1,08,0.8,1.7,M,44.0,M,,*68
2097271B56F5_$GPGGA,083815.00,5706.762155,N,00835.291552,E,1,08,0.8,1.7,M,44.0,M,,*6D
2097271B56F5_$GPGGA,083816.00,5706.762152,N,00835.291553,E,1,08,0.8,1.7,M,44.0,M,,*68
2097271B56F5_$GPGGA,083817.00,5706.762150,N,00835.291556,E,1,08,0.8,1.7,M,44.0,M,,*6E
2097271B56F5_$GPGGA,083818.00,5706.762146,N,00835.291560,E,1,07,0.8,1.7,M,44.0,M,,*6C
2097271B56F5_$GPGGA,083819.00,5706.762143,N,00835.291563,E,1,07,0.8,1.7,M,44.0,M,,*6B
2097271B56F5_$GPGGA,083820.00,5706.762141,N,00835.291565,E,1,07,0.8,1.7,M,44.0,M,,*65
2097271B56F5_$GPGGA,083821.00,5706.762141,N,00835.291566,E,1,07,0.8,1.7,M,44.0,M,,*67
2097271B56F5_$GPGGA,083822.00,5706.762139,N,00835.291567,E,1,07,0.8,1.7,M,44.0,M,,*6A
2097271B56F5_$GPGGA,083823.00,5706.762136,N,00835.291569,E,1,07,0.8,1.7,M,44.0,M,,*6A
2097271B56F5_$GPGGA,083824.00,5706.762137,N,00835.291571,E,1,08,0.8,1.7,M,44.0,M,,*6A
2097271B56F5_$GPGGA,083825.00,5706.762133,N,00835.291568,E,1,08,0.8,1.7,M,44.0,M,,*67
2097271B56F5_$GPGGA,083826.00,5706.762132,N,00835.291567,E,1,08,0.8,1.7,M,44.0,M,,*6A
2097271B56F5_$GPGGA,083827.00,5706.762130,N,00835.291574,E,1,08,0.8,1.6,M,44.0,M,,*6A
2097271B56F5_$GPGGA,083828.00,5706.762129,N,00835.291581,E,1,08,0.8,1.6,M,44.0,M,,*67
2097271B56F5_$GPGGA,083829.00,5706.762128,N,00835.291586,E,1,08,0.8,1.6,M,44.0,M,,*60
2097271B56F5_$GPGGA,083830.00,5706.762128,N,00835.291592,E,1,08,0.8,1.6,M,44.0,M,,*6D
2097271B56F5_$GPGGA,083831.00,5706.762126,N,00835.291603,E,1,08,0.8,1.6,M,44.0,M,,*69
2097271B56F5_$GPGGA,083832.00,5706.762124,N,00835.291602,E,1,08,0.8,1.6,M,44.0,M,,*69
2097271B56F5_$GPGGA,083833.00,5706.762122,N,00835.291618,E,1,08,0.8,1.7,M,44.0,M,,*64
2097271B56F5_$GPGGA,083834.00,5706.762120,N,00835.291627,E,1,08,0.8,1.7,M,44.0,M,,*6D
2097271B56F5_$GPGGA,083835.00,5706.762119,N,00835.291631,E,1,08,0.8,1.7,M,44.0,M,,*61
2097271B56F5_$GPGGA,083836.00,5706.762119,N,00835.291634,E,1,08,0.8,1.7,M,44.0,M,,*67
2097271B56F5_$GPGGA,083837.00,5706.762118,N,00835.291642,E,1,08,0.8,1.7,M,44.0,M,,*66
2097271B56F5_$GPGGA,083838.00,5706.762116,N,00835.291647,E,1,08,0.8,1.7,M,44.0,M,,*62
2097271B56F5_$GPGGA,083839.00,5706.762116,N,00835.291644,E,1,08,0.8,1.7,M,44.0,M,,*60
2097271B56F5_$GPGGA,083840.00,5706.762114,N,00835.291644,E,1,08,0.8,1.7,M,44.0,M,,*6C
2097271B56F5_$GPGGA,083841.00,5706.762115,N,00835.291649,E,1,08,0.8,1.7,M,44.0,M,,*61
2097271B56F5_$GPGGA,083842.00,5706.762116,N,00835.291657,E,1,08,0.8,1.7,M,44.0,M,,*6E
2097271B56F5_$GPGGA,083843.00,5706.762116,N,00835.291659,E,1,08,0.8,1.7,M,44.0,M,,*61
2097271B56F5_$GPGGA,083844.00,5706.762113,N,00835.291662,E,1,08,0.8,1.7,M,44.0,M,,*6B
2097271B56F5_$GPGGA,083845.00,5706.762116,N,00835.291664,E,1,08,0.8,1.8,M,44.0,M,,*66
2097271B56F5_$GPGGA,083846.00,5706.762118,N,00835.291674,E,1,08,0.8,1.8,M,44.0,M,,*6A
2097271B56F5_$GPGGA,083847.00,5706.762119,N,00835.291683,E,1,08,0.8,1.8,M,44.0,M,,*62
2097271B56F5_$GPGGA,083848.00,5706.762114,N,00835.291687,E,1,08,0.8,1.8,M,44.0,M,,*64
2097271B56F5_$GPGGA,083849.00,5706.762114,N,00835.291693,E,1,08,0.8,1.8,M,44.0,M,,*60
2097271B56F5_$GPGGA,083850.00,5706.762110,N,00835.291691,E,1,08,0.8,1.8,M,44.0,M,,*6E
2097271B56F5_$GPGGA,083851.00,5706.762108,N,00835.291693,E,1,08,0.8,1.8,M,44.0,M,,*64
2097271B56F5_$GPGGA,083852.00,5706.762110,N,00835.291699,E,1,08,0.8,1.8,M,44.0,M,,*64
2097271B56F5_$GPGGA,083853.00,5706.762112,N,00835.291705,E,1,08,0.8,1.8,M,44.0,M,,*63
2097271B56F5_$GPGGA,083854.00,5706.762113,N,00835.291704,E,1,08,0.8,1.8,M,44.0,M,,*64
2097271B56F5_$GPGGA,083855.00,5706.762110,N,00835.291709,E,1,08,0.8,1.8,M,44.0,M,,*6B
2097271B56F5_$GPGGA,083856.00,5706.762109,N,00835.291717,E,1,08,0.8,1.8,M,44.0,M,,*6F
2097271B56F5_$GPGGA,083857.00,5706.762107,N,00835.291724,E,1,08,0.8,1.8,M,44.0,M,,*60
2097271B56F5_$GPGGA,083858.00,5706.762105,N,00835.291730,E,1,08,0.8,1.8,M,44.0,M,,*68
2097271B56F5_$GPGGA,083859.00,5706.762104,N,00835.291733,E,1,08,0.8,1.8,M,44.0,M,,*6B
2097271B56F5_$GPGGA,083900.00,5706.762100,N,00835.291741,E,1,08,0.8,1.8,M,44.0,M,,*67
2097271B56F5_$GPGGA,083901.00,5706.762101,N,00835.291744,E,1,08,0.8,1.8,M,44.0,M,,*62
2097271B56F5_$GPGGA,083902.00,5706.762101,N,00835.291747,E,1,08,0.8,1.8,M,44.0,M,,*62
2097271B56F5_$GPGGA,083903.00,5706.762101,N,00835.291749,E,1,08,0.8,1.8,M,44.0,M,,*6D
2097271B56F5_$GPGGA,083904.00,5706.762097,N,00835.291742,E,1,08,0.8,1.8,M,44.0,M,,*6F
2097271B56F5_$GPGGA,083905.00,5706.762096,N,00835.291755,E,1,08,0.8,1.8,M,44.0,M,,*69
2097271B56F5_$GPGGA,083906.00,5706.762092,N,00835.291751,E,1,08,0.8,1.8,M,44.0,M,,*6A
2097271B56F5_$GPGGA,083907.00,5706.762089,N,00835.291747,E,1,08,0.8,1.8,M,44.0,M,,*66
2097271B56F5_$GPGGA,083908.00,5706.762089,N,00835.291748,E,1,08,0.8,1.8,M,44.0,M,,*66
2097271B56F5_$GPGGA,083909.00,5706.762089,N,00835.291741,E,1,08,0.8,1.8,M,44.0,M,,*6E
2097271B56F5_$GPGGA,083910.00,5706.762090,N,00835.291745,E,1,08,0.8,1.8,M,44.0,M,,*6A
2097271B56F5_$GPGGA,083911.00,5706.762092,N,00835.291749,E,1,08,0.8,1.8,M,44.0,M,,*65
2097271B56F5_$GPGGA,083912.00,5706.762093,N,00835.291756,E,1,08,0.8,1.8,M,44.0,M,,*69
2097271B56F5_$GPGGA,083913.00,5706.762090,N,00835.291762,E,1,08,0.8,1.9,M,44.0,M,,*6D
2097271B56F5_$GPGGA,083914.00,5706.762093,N,00835.291764,E,1,08,0.8,1.9,M,44.0,M,,*6F
2097271B56F5_$GPGGA,083915.00,5706.762094,N,00835.291762,E,1,08,0.8,1.9,M,44.0,M,,*6F
2097271B56F5_$GPGGA,083916.00,5706.762097,N,00835.291765,E,1,07,0.8,1.9,M,44.0,M,,*67
2097271B56F5_$GPGGA,083917.00,5706.762095,N,00835.291772,E,1,07,0.8,1.9,M,44.0,M,,*62
2097271B56F5_$GPGGA,083918.00,5706.762097,N,00835.291776,E,1,08,0.8,1.9,M,44.0,M,,*64
2097271B56F5_$GPGGA,083919.00,5706.762094,N,00835.291776,E,1,08,0.8,1.9,M,44.0,M,,*66
2097271B56F5_$GPGGA,083920.00,5706.762096,N,00835.291772,E,1,08,0.8,1.9,M,44.0,M,,*6A
2097271B56F5_$GPGGA,083921.00,5706.762098,N,00835.291769,E,1,08,0.8,1.9,M,44.0,M,,*6F
2097271B56F5_$GPGGA,083922.00,5706.762098,N,00835.291778,E,1,08,0.8,1.9,M,44.0,M,,*6C
2097271B56F5_$GPGGA,083923.00,5706.762094,N,00835.291782,E,1,08,0.8,1.9,M,44.0,M,,*64
2097271B56F5_$GPGGA,083924.00,5706.762092,N,00835.291777,E,1,08,0.8,1.9,M,44.0,M,,*6F
2097271B56F5_$GPGGA,083925.00,5706.762094,N,00835.291773,E,1,08,0.8,1.9,M,44.0,M,,*6C
2097271B56F5_$GPGGA,083926.00,5706.762092,N,00835.291774,E,1,08,0.8,1.9,M,44.0,M,,*6E
2097271B56F5_$GPGGA,083927.00,5706.762089,N,00835.291770,E,1,08,0.8,1.9,M,44.0,M,,*61
2097271B56F5_$GPGGA,083928.00,5706.762089,N,00835.291767,E,1,08,0.8,1.9,M,44.0,M,,*68
2097271B56F5_$GPGGA,083929.00,5706.762087,N,00835.291763,E,1,08,0.8,1.9,M,44.0,M,,*63
2097271B56F5_$GPGGA,083930.00,5706.762084,N,00835.291763,E,1,08,0.8,1.9,M,44.0,M,,*68
2097271B56F5_$GPGGA,083931.00,5706.762081,N,00835.291769,E,1,08,0.8,1.9,M,44.0,M,,*66
2097271B56F5_$GPGGA,083932.00,5706.762083,N,00835.291766,E,1,08,0.8,1.9,M,44.0,M,,*68
2097271B56F5_$GPGGA,083933.00,5706.762084,N,00835.291769,E,1,08,0.8,2.0,M,44.0,M,,*6B
2097271B56F5_$GPGGA,083934.00,5706.762084,N,00835.291774,E,1,08,0.8,2.0,M,44.0,M,,*60
2097271B56F5_$GPGGA,083935.00,5706.762081,N,00835.291782,E,1,08,0.8,2.0,M,44.0,M,,*6D
2097271B56F5_$GPGGA,083936.00,5706.762081,N,00835.291782,E,1,08,0.8,2.0,M,44.0,M,,*6E
2097271B56F5_$GPGGA,083937.00,5706.762082,N,00835.291786,E,1,08,0.8,2.0,M,44.0,M,,*68
2097271B56F5_$GPGGA,083938.00,5706.762077,N,00835.291791,E,1,08,0.8,2.0,M,44.0,M,,*6B
2097271B56F5_$GPGGA,083939.00,5706.762073,N,00835.291790,E,1,08,0.8,2.0,M,44.0,M,,*6F
2097271B56F5_$GPGGA,083940.00,5706.762073,N,00835.291787,E,1,08,0.8,2.0,M,44.0,M,,*67
2097271B56F5_$GPGGA,083941.00,5706.762078,N,00835.291799,E,1,08,0.8,2.0,M,44.0,M,,*62
2097271B56F5_$GPGGA,083942.00,5706.762075,N,00835.291806,E,1,08,0.8,2.0,M,44.0,M,,*65
2097271B56F5_$GPGGA,083943.00,5706.762075,N,00835.291820,E,1,08,0.8,2.0,M,44.0,M,,*60
2097271B56F5_$GPGGA,083944.00,5706.762075,N,00835.291825,E,1,08,0.8,2.0,M,44.0,M,,*62
2097271B56F5_$GPGGA,083945.00,5706.762077,N,00835.291830,E,1,08,0.8,2.0,M,44.0,M,,*65
2097271B56F5_$GPGGA,083946.00,5706.762079,N,00835.291833,E,1,08,0.8,2.0,M,44.0,M,,*6B
2097271B56F5_$GPGGA,083947.00,5706.762080,N,00835.291828,E,1,08,0.8,2.0,M,44.0,M,,*66
2097271B56F5_$GPGGA,083948.00,5706.762081,N,00835.291827,E,1,08,0.8,2.0,M,44.0,M,,*67
2097271B56F5_$GPGGA,083949.00,5706.762080,N,00835.291828,E,1,08,0.8,2.0,M,44.0,M,,*68
2097271B56F5_$GPGGA,083950.00,5706.762082,N,00835.291829,E,1,08,0.8,2.0,M,44.0,M,,*63
2097271B56F5_$GPGGA,083951.00,5706.762081,N,00835.291831,E,1,08,0.8,2.0,M,44.0,M,,*68
2097271B56F5_$GPGGA,083952.00,5706.762081,N,00835.291837,E,1,08,0.8,2.0,M,44.0,M,,*6D
2097271B56F5_$GPGGA,083953.00,5706.762084,N,00835.291844,E,1,08,0.8,2.1,M,44.0,M,,*6C
2097271B56F5_$GPGGA,083954.00,5706.762084,N,00835.291848,E,1,08,0.8,2.0,M,44.0,M,,*66
2097271B56F5_$GPGGA,083955.00,5706.762082,N,00835.291844,E,1,08,0.8,2.0,M,44.0,M,,*6D
2097271B56F5_$GPGGA,083956.00,5706.762079,N,00835.291857,E,1,08,0.8,2.0,M,44.0,M,,*68
2097271B56F5_$GPGGA,083957.00,5706.762081,N,00835.291866,E,1,08,0.8,2.1,M,44.0,M,,*6D
2097271B56F5_$GPGGA,083958.00,5706.762080,N,00835.291866,E,1,08,0.8,2.1,M,44.0,M,,*63
2097271B56F5_$GPGGA,083959.00,5706.762079,N,00835.291868,E,1,08,0.8,2.1,M,44.0,M,,*6A
2097271B56F5_$GPGGA,084000.00,5706.762075,N,00835.291876,E,1,08,0.8,2.1,M,44.0,M,,*6B
2097271B56F5_$GPGGA,084001.00,5706.762074,N,00835.291881,E,1,08,0.8,2.1,M,44.0,M,,*63
2097271B56F5_$GPGGA,084002.00,5706.762072,N,00835.291883,E,1,08,0.8,2.1,M,44.0,M,,*64
2097271B56F5_$GPGGA,084003.00,5706.762068,N,00835.291884,E,1,08,0.8,2.1,M,44.0,M,,*69
2097271B56F5_$GPGGA,084004.00,5706.762067,N,00835.291882,E,1,08,0.8,2.1,M,44.0,M,,*67
2097271B56F5_$GPGGA,084005.00,5706.762067,N,00835.291881,E,1,08,0.8,2.1,M,44.0,M,,*65
2097271B56F5_$GPGGA,084006.00,5706.762069,N,00835.291887,E,1,08,0.8,2.1,M,44.0,M,,*6E
2097271B56F5_$GPGGA,084007.00,5706.762068,N,00835.291895,E,1,08,0.8,2.1,M,44.0,M,,*6D
2097271B56F5_$GPGGA,084008.00,5706.762069,N,00835.291902,E,1,08,0.8,2.1,M,44.0,M,,*6C
2097271B56F5_$GPGGA,084009.00,5706.762071,N,00835.291901,E,1,08,0.8,2.1,M,44.0,M,,*67
2097271B56F5_$GPGGA,084010.00,5706.762073,N,00835.291907,E,1,08,0.8,2.2,M,44.0,M,,*68
2097271B56F5_$GPGGA,084011.00,5706.762075,N,00835.291907,E,1,08,0.8,2.2,M,44.0,M,,*6F
2097271B56F5_$GPGGA,084012.00,5706.762078,N,00835.291906,E,1,08,0.8,2.2,M,44.0,M,,*60
2097271B56F5_$GPGGA,084013.00,5706.762074,N,00835.291908,E,1,08,0.8,2.2,M,44.0,M,,*63
2097271B56F5_$GPGGA,084014.00,5706.762074,N,00835.291903,E,1,08,0.8,2.2,M,44.0,M,,*6F
2097271B56F5_$GPGGA,084015.00,5706.762072,N,00835.291907,E,1,08,0.8,2.2,M,44.0,M,,*6C
2097271B56F5_$GPGGA,084016.00,5706.762071,N,00835.291909,E,1,08,0.8,2.2,M,44.0,M,,*62
2097271B56F5_$GPGGA,084017.00,5706.762071,N,00835.291910,E,1,08,0.8,2.2,M,44.0,M,,*6B
2097271B56F5_$GPGGA,084018.00,5706.762070,N,00835.291912,E,1,08,0.8,2.2,M,44.0,M,,*67
2097271B56F5_$GPGGA,084019.00,5706.762072,N,00835.291914,E,1,08,0.8,2.2,M,44.0,M,,*62
2097271B56F5_$GPGGA,084020.00,5706.762072,N,00835.291919,E,1,08,0.8,2.2,M,44.0,M,,*65
2097271B56F5_$GPGGA,084021.00,5706.762071,N,00835.291924,E,1,08,0.8,2.2,M,44.0,M,,*69
2097271B56F5_$GPGGA,084022.00,5706.762072,N,00835.291929,E,1,08,0.8,2.2,M,44.0,M,,*64
2097271B56F5_$GPGGA,084023.00,5706.762069,N,00835.291926,E,1,08,0.8,2.2,M,44.0,M,,*60
2097271B56F5_$GPGGA,084024.00,5706.762065,N,00835.291928,E,1,08,0.8,2.2,M,44.0,M,,*65
2097271B56F5_$GPGGA,084025.00,5706.762062,N,00835.291931,E,1,08,0.8,2.2,M,44.0,M,,*6B
2097271B56F5_$GPGGA,084026.00,5706.762061,N,00835.291938,E,1,08,0.8,2.2,M,44.0,M,,*62
2097271B56F5_$GPGGA,084027.00,5706.762060,N,00835.291941,E,1,08,0.8,2.2,M,44.0,M,,*6C
2097271B56F5_$GPGGA,084028.00,5706.762060,N,00835.291943,E,1,08,0.8,2.2,M,44.0,M,,*61
2097271B56F5_$GPGGA,084029.00,5706.762058,N,00835.291946,E,1,08,0.8,2.2,M,44.0,M,,*6E
2097271B56F5_$GPGGA,084030.00,5706.762053,N,00835.291950,E,1,08,0.8,2.2,M,44.0,M,,*6A
2097271B56F5_$GPGGA,084031.00,5706.762051,N,00835.291953,E,1,08,0.8,2.2,M,44.0,M,,*6A
2097271B56F5_$GPGGA,084032.00,5706.762047,N,00835.291963,E,1,08,0.8,2.2,M,44.0,M,,*6D
2097271B56F5_$GPGGA,084033.00,5706.762047,N,00835.291963,E,1,08,0.8,2.2,M,44.0,M,,*6C
2097271B56F5_$GPGGA,084034.00,5706.762046,N,00835.291964,E,1,08,0.8,2.2,M,44.0,M,,*6D
2097271B56F5_$GPGGA,084035.00,5706.762045,N,00835.291964,E,1,08,0.8,2.2,M,44.0,M,,*6F
2097271B56F5_$GPGGA,084036.00,5706.762043,N,00835.291962,E,1,08,0.8,2.2,M,44.0,M,,*6C
2097271B56F5_$GPGGA,084037.00,5706.762039,N,00835.291962,E,1,08,0.8,2.2,M,44.0,M,,*60
2097271B56F5_$GPGGA,084038.00,5706.762035,N,00835.291964,E,1,08,0.8,2.2,M,44.0,M,,*65
2097271B56F5_$GPGGA,084039.00,5706.762032,N,00835.291964,E,1,08,0.8,2.2,M,44.0,M,,*63
2097271B56F5_$GPGGA,084040.00,5706.762029,N,00835.291975,E,1,08,0.8,2.2,M,44.0,M,,*67
2097271B56F5_$GPGGA,084041.00,5706.762028,N,00835.291969,E,1,08,0.8,2.2,M,44.0,M,,*6A
2097271B56F5_$GPGGA,084042.00,5706.762027,N,00835.291972,E,1,08,0.8,2.2,M,44.0,M,,*6C
2097271B56F5_$GPGGA,084043.00,5706.762025,N,00835.291973,E,1,08,0.8,2.2,M,44.0,M,,*6E
2097271B56F5_$GPGGA,084044.00,5706.762024,N,00835.291970,E,1,08,0.8,2.2,M,44.0,M,,*6B
2097271B56F5_$GPGGA,084045.00,5706.762023,N,00835.291968,E,1,08,0.8,2.2,M,44.0,M,,*64
2097271B56F5_$GPGGA,084046.00,5706.762023,N,00835.291965,E,1,08,0.8,2.2,M,44.0,M,,*6A
2097271B56F5_$GPGGA,084047.00,5706.762022,N,00835.291957,E,1,08,0.8,2.2,M,44.0,M,,*6B
2097271B56F5_$GPGGA,084048.00,5706.762022,N,00835.291962,E,1,08,0.8,2.2,M,44.0,M,,*62
2097271B56F5_$GPGGA,084049.00,5706.762022,N,00835.291963,E,1,08,0.8,2.2,M,44.0,M,,*62
2097271B56F5_$GPGGA,084050.00,5706.762022,N,00835.291962,E,1,08,0.8,2.2,M,44.0,M,,*6B
2097271B56F5_$GPGGA,084051.00,5706.762022,N,00835.291962,E,1,08,0.8,2.2,M,44.0,M,,*6A
2097271B56F5_$GPGGA,084052.00,5706.762018,N,00835.291955,E,1,08,0.8,2.2,M,44.0,M,,*64
2097271B56F5_$GPGGA,084053.00,5706.762014,N,00835.291952,E,1,08,0.8,2.2,M,44.0,M,,*6E
2097271B56F5_$GPGGA,084054.00,5706.762013,N,00835.291955,E,1,08,0.8,2.2,M,44.0,M,,*69
2097271B56F5_$GPGGA,084055.00,5706.762011,N,00835.291954,E,1,08,0.8,2.2,M,44.0,M,,*6B
2097271B56F5_$GPGGA,084056.00,5706.762010,N,00835.291953,E,1,08,0.8,2.2,M,44.0,M,,*6E
2097271B56F5_$GPGGA,084057.00,5706.762011,N,00835.291955,E,1,08,0.8,2.2,M,44.0,M,,*68
2097271B56F5_$GPGGA,084058.00,5706.762006,N,00835.291956,E,1,08,0.8,2.2,M,44.0,M,,*62
2097271B56F5_$GPGGA,084059.00,5706.762005,N,00835.291956,E,1,08,0.8,2.2,M,44.0,M,,*60
2097271B56F5_$GPGGA,084100.00,5706.762002,N,00835.291956,E,1,08,0.8,2.2,M,44.0,M,,*6A
2097271B56F5_$GPGGA,084101.00,5706.762001,N,00835.291954,E,1,08,0.8,2.2,M,44.0,M,,*6A
2097271B56F5_$GPGGA,084102.00,5706.761999,N,00835.291946,E,1,08,0.8,2.2,M,44.0,M,,*61
2097271B56F5_$GPGGA,084103.00,5706.761996,N,00835.291948,E,1,08,0.8,2.2,M,44.0,M,,*61
2097271B56F5_$GPGGA,084104.00,5706.761996,N,00835.291945,E,1,08,0.8,2.2,M,44.0,M,,*6B
2097271B56F5_$GPGGA,084105.00,5706.761995,N,00835.291951,E,1,08,0.8,2.2,M,44.0,M,,*6C
2097271B56F5_$GPGGA,084106.00,5706.761993,N,00835.291955,E,1,08,0.8,2.2,M,44.0,M,,*6D
2097271B56F5_$GPGGA,084107.00,5706.761988,N,00835.291960,E,1,08,0.8,2.2,M,44.0,M,,*60
2097271B56F5_$GPGGA,084108.00,5706.761988,N,00835.291960,E,1,08,0.8,2.2,M,44.0,M,,*6F
2097271B56F5_$GPGGA,084109.00,5706.761988,N,00835.291960,E,1,08,0.8,2.2,M,44.0,M,,*6E
2097271B56F5_$GPGGA,084110.00,5706.761986,N,00835.291963,E,1,08,0.8,2.2,M,44.0,M,,*6B
2097271B56F5_$GPGGA,084111.00,5706.761985,N,00835.291963,E,1,08,0.8,2.2,M,44.0,M,,*69
2097271B56F5_$GPGGA,084112.00,5706.761986,N,00835.291961,E,1,08,0.8,2.2,M,44.0,M,,*6B
2097271B56F5_$GPGGA,084113.00,5706.761987,N,00835.291959,E,1,08,0.8,2.2,M,44.0,M,,*60
2097271B56F5_$GPGGA,084114.00,5706.761987,N,00835.291965,E,1,08,0.8,2.2,M,44.0,M,,*68
2097271B56F5_$GPGGA,084115.00,5706.761985,N,00835.291964,E,1,08,0.8,2.2,M,44.0,M,,*6A
2097271B56F5_$GPGGA,084116.00,5706.761984,N,00835.291962,E,1,08,0.8,2.2,M,44.0,M,,*6E
2097271B56F5_$GPGGA,084117.00,5706.761985,N,00835.291961,E,1,08,0.8,2.2,M,44.0,M,,*6D
2097271B56F5_$GPGGA,084118.00,5706.761984,N,00835.291962,E,1,08,0.8,2.2,M,44.0,M,,*60
2097271B56F5_$GPGGA,084119.00,5706.761982,N,00835.291965,E,1,08,0.8,2.2,M,44.0,M,,*60
2097271B56F5_$GPGGA,084120.00,5706.761983,N,00835.291964,E,1,08,0.8,2.2,M,44.0,M,,*6A
2097271B56F5_$GPGGA,084121.00,5706.761982,N,00835.291959,E,1,08,0.8,2.2,M,44.0,M,,*64
2097271B56F5_$GPGGA,084122.00,5706.761979,N,00835.291958,E,1,08,0.8,2.2,M,44.0,M,,*62
2097271B56F5_$GPGGA,084123.00,5706.761978,N,00835.291958,E,1,08,0.8,2.2,M,44.0,M,,*62
2097271B56F5_$GPGGA,084124.00,5706.761976,N,00835.291959,E,1,08,0.8,2.2,M,44.0,M,,*6A
2097271B56F5_$GPGGA,084125.00,5706.761977,N,00835.291950,E,1,08,0.8,2.2,M,44.0,M,,*63
2097271B56F5_$GPGGA,084126.00,5706.761976,N,00835.291950,E,1,08,0.8,2.2,M,44.0,M,,*61
2097271B56F5_$GPGGA,084127.00,5706.761976,N,00835.291944,E,1,08,0.8,2.2,M,44.0,M,,*65
2097271B56F5_$GPGGA,084128.00,5706.761975,N,00835.291943,E,1,08,0.8,2.2,M,44.0,M,,*6E
2097271B56F5_$GPGGA,084129.00,5706.761974,N,00835.291947,E,1,08,0.8,2.2,M,44.0,M,,*6A
2097271B56F5_$GPGGA,084130.00,5706.761973,N,00835.291953,E,1,08,0.8,2.2,M,44.0,M,,*60
2097271B56F5_$GPGGA,084131.00,5706.761973,N,00835.291952,E,1,08,0.8,2.2,M,44.0,M,,*60
2097271B56F5_$GPGGA,084132.00,5706.761971,N,00835.291949,E,1,08,0.8,2.2,M,44.0,M,,*6B
2097271B56F5_$GPGGA,084133.00,5706.761969,N,00835.291950,E,1,08,0.8,2.2,M,44.0,M,,*6B
2097271B56F5_$GPGGA,084134.00,5706.761968,N,00835.291951,E,1,08,0.8,2.2,M,44.0,M,,*6C
2097271B56F5_$GPGGA,084135.00,5706.761967,N,00835.291948,E,1,08,0.8,2.2,M,44.0,M,,*6A
2097271B56F5_$GPGGA,084136.00,5706.761963,N,00835.291953,E,1,08,0.8,2.2,M,44.0,M,,*67
2097271B56F5_$GPGGA,084137.00,5706.761962,N,00835.291952,E,1,08,0.8,2.2,M,44.0,M,,*66
2097271B56F5_$GPGGA,084138.00,5706.761961,N,00835.291952,E,1,08,0.8,2.2,M,44.0,M,,*6A
2097271B56F5_$GPGGA,084139.00,5706.761959,N,00835.291952,E,1,08,0.8,2.2,M,44.0,M,,*60
2097271B56F5_$GPGGA,084140.00,5706.761959,N,00835.291949,E,1,08,0.8,2.2,M,44.0,M,,*64
2097271B56F5_$GPGGA,084141.00,5706.761956,N,00835.291950,E,1,08,0.8,2.2,M,44.0,M,,*62
2097271B56F5_$GPGGA,084142.00,5706.761954,N,00835.291951,E,1,08,0.8,2.2,M,44.0,M,,*62
2097271B56F5_$GPGGA,084143.00,5706.761954,N,00835.291945,E,1,08,0.8,2.2,M,44.0,M,,*66
2097271B56F5_$GPGGA,084144.00,5706.761952,N,00835.291951,E,1,08,0.8,2.2,M,44.0,M,,*62
2097271B56F5_$GPGGA,084145.00,5706.761951,N,00835.291955,E,1,08,0.8,2.2,M,44.0,M,,*64
2097271B56F5_$GPGGA,084146.00,5706.761950,N,00835.291954,E,1,08,0.8,2.2,M,44.0,M,,*67
2097271B56F5_$GPGGA,084147.00,5706.761949,N,00835.291958,E,1,08,0.8,2.1,M,44.0,M,,*61
2097271B56F5_$GPGGA,084148.00,5706.761948,N,00835.291963,E,1,08,0.8,2.1,M,44.0,M,,*67
2097271B56F5_$GPGGA,084149.00,5706.761944,N,00835.291963,E,1,08,0.8,2.1,M,44.0,M,,*6A
2097271B56F5_$GPGGA,084150.00,5706.761945,N,00835.291963,E,1,08,0.8,2.1,M,44.0,M,,*63
2097271B56F5_$GPGGA,084151.00,5706.761944,N,00835.291965,E,1,08,0.8,2.1,M,44.0,M,,*65
2097271B56F5_$GPGGA,084152.00,5706.761940,N,00835.291966,E,1,08,0.8,2.1,M,44.0,M,,*61
2097271B56F5_$GPGGA,084153.00,5706.761936,N,00835.291965,E,1,08,0.8,2.1,M,44.0,M,,*62
2097271B56F5_$GPGGA,084154.00,5706.761935,N,00835.291963,E,1,08,0.8,2.1,M,44.0,M,,*60
2097271B56F5_$GPGGA,084155.00,5706.761934,N,00835.291960,E,1,07,0.9,2.1,M,44.0,M,,*6D
2097271B56F5_$GPGGA,084156.00,5706.761932,N,00835.291959,E,1,07,0.9,2.1,M,44.0,M,,*62
2097271B56F5_$GPGGA,084157.00,5706.761931,N,00835.291961,E,1,07,0.9,2.1,M,44.0,M,,*6B
2097271B56F5_$GPGGA,084158.00,5706.761932,N,00835.291953,E,1,07,0.9,2.1,M,44.0,M,,*66
2097271B56F5_$GPGGA,084159.00,5706.761931,N,00835.291952,E,1,07,0.9,2.1,M,44.0,M,,*65
2097271B56F5_$GPGGA,084200.00,5706.761929,N,00835.291952,E,1,07,0.9,2.1,M,44.0,M,,*63
2097271B56F5_$GPGGA,084201.00,5706.761926,N,00835.291954,E,1,07,0.9,2.1,M,44.0,M,,*6B
2097271B56F5_$GPGGA,084202.00,5706.761923,N,00835.291952,E,1,07,0.9,2.1,M,44.0,M,,*6B
2097271B56F5_$GPGGA,084203.00,5706.761923,N,00835.291951,E,1,07,0.9,2.1,M,44.0,M,,*69
2097271B56F5_$GPGGA,084204.00,5706.761921,N,00835.291948,E,1,07,0.9,2.1,M,44.0,M,,*64
2097271B56F5_$GPGGA,084205.00,5706.761919,N,00835.291949,E,1,07,0.9,2.1,M,44.0,M,,*6F
2097271B56F5_$GPGGA,084206.00,5706.761918,N,00835.291950,E,1,07,0.9,2.1,M,44.0,M,,*65
2097271B56F5_$GPGGA,084207.00,5706.761917,N,00835.291948,E,1,07,0.9,2.1,M,44.0,M,,*62
2097271B56F5_$GPGGA,084208.00,5706.761913,N,00835.291951,E,1,07,0.9,2.1,M,44.0,M,,*61
2097271B56F5_$GPGGA,084209.00,5706.761913,N,00835.291954,E,1,07,0.9,2.1,M,44.0,M,,*65
2097271B56F5_$GPGGA,084210.00,5706.761911,N,00835.291955,E,1,07,0.9,2.1,M,44.0,M,,*6E
2097271B56F5_$GPGGA,084211.00,5706.761907,N,00835.291958,E,1,07,0.9,2.1,M,44.0,M,,*65
2097271B56F5_$GPGGA,084212.00,5706.761907,N,00835.291956,E,1,07,0.9,2.1,M,44.0,M,,*68
2097271B56F5_$GPGGA,084213.00,5706.761908,N,00835.291959,E,1,07,0.9,2.1,M,44.0,M,,*69
2097271B56F5_$GPGGA,084214.00,5706.761906,N,00835.291963,E,1,07,0.9,2.1,M,44.0,M,,*69
2097271B56F5_$GPGGA,084215.00,5706.761905,N,00835.291962,E,1,07,0.9,2.1,M,44.0,M,,*6A
2097271B56F5_$GPGGA,084216.00,5706.761905,N,00835.291964,E,1,07,0.9,2.1,M,44.0,M,,*6F
2097271B56F5_$GPGGA,084217.00,5706.761904,N,00835.291961,E,1,07,0.9,2.1,M,44.0,M,,*6A
2097271B56F5_$GPGGA,084218.00,5706.761903,N,00835.291958,E,1,07,0.9,2.1,M,44.0,M,,*68
2097271B56F5_$GPGGA,084219.00,5706.761902,N,00835.291959,E,1,07,0.9,2.1,M,44.0,M,,*69
2097271B56F5_$GPGGA,084220.00,5706.761899,N,00835.291955,E,1,07,0.9,2.1,M,44.0,M,,*6C
2097271B56F5_$GPGGA,084221.00,5706.761898,N,00835.291955,E,1,07,0.9,2.1,M,44.0,M,,*6C
2097271B56F5_$GPGGA,084222.00,5706.761896,N,00835.291955,E,1,07,0.9,2.1,M,44.0,M,,*61
2097271B56F5_$GPGGA,084223.00,5706.761896,N,00835.291956,E,1,07,0.9,2.1,M,44.0,M,,*63
2097271B56F5_$GPGGA,084224.00,5706.761894,N,00835.291952,E,1,07,0.9,2.1,M,44.0,M,,*62
2097271B56F5_$GPGGA,084225.00,5706.761893,N,00835.291953,E,1,07,0.9,2.1,M,44.0,M,,*65
2097271B56F5_$GPGGA,084226.00,5706.761891,N,00835.291947,E,1,07,0.9,2.1,M,44.0,M,,*61
2097271B56F5_$GPGGA,084227.00,5706.761890,N,00835.291949,E,1,07,0.9,2.1,M,44.0,M,,*6F
2097271B56F5_$GPGGA,084228.00,5706.761888,N,00835.291949,E,1,07,0.9,2.1,M,44.0,M,,*69
2097271B56F5_$GPGGA,084229.00,5706.761887,N,00835.291955,E,1,07,0.9,2.1,M,44.0,M,,*6A
2097271B56F5_$GPGGA,084230.00,5706.761883,N,00835.291954,E,1,07,0.9,2.1,M,44.0,M,,*67
2097271B56F5_$GPGGA,084231.00,5706.761881,N,00835.291952,E,1,07,0.9,2.1,M,44.0,M,,*62
2097271B56F5_$GPGGA,084232.00,5706.761879,N,00835.291954,E,1,07,0.9,2.1,M,44.0,M,,*60
2097271B56F5_$GPGGA,084233.00,5706.761876,N,00835.291957,E,1,07,0.9,2.1,M,44.0,M,,*6D
2097271B56F5_$GPGGA,084234.00,5706.761872,N,00835.291956,E,1,07,0.9,2.1,M,44.0,M,,*6F
2097271B56F5_$GPGGA,084235.00,5706.761870,N,00835.291957,E,1,07,0.9,2.1,M,44.0,M,,*6D
2097271B56F5_$GPGGA,084236.00,5706.761868,N,00835.291958,E,1,07,0.9,2.1,M,44.0,M,,*68
2097271B56F5_$GPGGA,084237.00,5706.761870,N,00835.291960,E,1,07,0.9,2.1,M,44.0,M,,*6B
2097271B56F5_$GPGGA,084238.00,5706.761867,N,00835.291962,E,1,07,0.9,2.1,M,44.0,M,,*60
2097271B56F5_$GPGGA,084239.00,5706.761864,N,00835.291970,E,1,07,0.9,2.1,M,44.0,M,,*61
2097271B56F5_$GPGGA,084240.00,5706.761861,N,00835.291979,E,1,07,0.9,2.1,M,44.0,M,,*63
2097271B56F5_$GPGGA,084241.00,5706.761859,N,00835.291979,E,1,07,0.9,2.1,M,44.0,M,,*69
2097271B56F5_$GPGGA,084242.00,5706.761857,N,00835.291976,E,1,07,0.9,2.1,M,44.0,M,,*6B
2097271B56F5_$GPGGA,084243.00,5706.761858,N,00835.291973,E,1,07,0.9,2.1,M,44.0,M,,*60
2097271B56F5_$GPGGA,084244.00,5706.761856,N,00835.291977,E,1,07,0.9,2.1,M,44.0,M,,*6D
2097271B56F5_$GPGGA,084245.00,5706.761856,N,00835.291979,E,1,07,0.9,2.1,M,44.0,M,,*62
2097271B56F5_$GPGGA,084246.00,5706.761857,N,00835.291977,E,1,07,0.9,2.1,M,44.0,M,,*6E
2097271B56F5_$GPGGA,084247.00,5706.761856,N,00835.291978,E,1,07,0.9,2.1,M,44.0,M,,*61
2097271B56F5_$GPGGA,084248.00,5706.761854,N,00835.291984,E,1,07,0.9,2.1,M,44.0,M,,*6F
2097271B56F5_$GPGGA,084249.00,5706.761855,N,00835.291976,E,1,07,0.9,2.1,M,44.0,M,,*62
2097271B56F5_$GPGGA,084250.00,5706.761853,N,00835.291975,E,1,07,0.9,2.1,M,44.0,M,,*6F
2097271B56F5_$GPGGA,084251.00,5706.761851,N,00835.291979,E,1,07,0.9,2.1,M,44.0,M,,*60
2097271B56F5_$GPGGA,084252.00,5706.761850,N,00835.291983,E,1,07,0.9,2.1,M,44.0,M,,*67
2097271B56F5_$GPGGA,084253.00,5706.761848,N,00835.291984,E,1,07,0.9,2.1,M,44.0,M,,*68
2097271B56F5_$GPGGA,084254.00,5706.761847,N,00835.291984,E,1,07,0.9,2.1,M,44.0,M,,*60
2097271B56F5_$GPGGA,084255.00,5706.761846,N,00835.291986,E,1,07,0.9,2.1,M,44.0,M,,*62
2097271B56F5_$GPGGA,084256.00,5706.761844,N,00835.291987,E,1,07,0.9,2.1,M,44.0,M,,*62
2097271B56F5_$GPGGA,084257.00,5706.761841,N,00835.291990,E,1,07,0.9,2.1,M,44.0,M,,*60
2097271B56F5_$GPGGA,084258.00,5706.761842,N,00835.291991,E,1,07,0.9,2.1,M,44.0,M,,*6D
2097271B56F5_$GPGGA,084259.00,5706.761842,N,00835.291993,E,1,07,0.9,2.1,M,44.0,M,,*6E
2097271B56F5_$GPGGA,084300.00,5706.761842,N,00835.291995,E,1,07,0.9,2.1,M,44.0,M,,*65
2097271B56F5_$GPGGA,084301.00,5706.761839,N,00835.291998,E,1,07,0.9,2.1,M,44.0,M,,*65
2097271B56F5_$GPGGA,084302.00,5706.761837,N,00835.291998,E,1,07,0.9,2.1,M,44.0,M,,*68
2097271B56F5_$GPGGA,084303.00,5706.761837,N,00835.291997,E,1,07,0.9,2.1,M,44.0,M,,*66
2097271B56F5_$GPGGA,084304.00,5706.761837,N,00835.291995,E,1,07,0.9,2.1,M,44.0,M,,*63
2097271B56F5_$GPGGA,084305.00,5706.761837,N,00835.291994,E,1,07,0.9,2.1,M,44.0,M,,*63
2097271B56F5_$GPGGA,084306.00,5706.761837,N,00835.291994,E,1,07,0.9,2.1,M,44.0,M,,*60
2097271B56F5_$GPGGA,084307.00,5706.761835,N,00835.291997,E,1,07,0.9,2.1,M,44.0,M,,*60
2097271B56F5_$GPGGA,084308.00,5706.761834,N,00835.292002,E,1,07,0.9,2.1,M,44.0,M,,*68
2097271B56F5_$GPGGA,084309.00,5706.761832,N,00835.292008,E,1,07,0.9,2.1,M,44.0,M,,*65
2097271B56F5_$GPGGA,084310.00,5706.761834,N,00835.292006,E,1,07,0.9,2.1,M,44.0,M,,*65
2097271B56F5_$GPGGA,084311.00,5706.761834,N,00835.292008,E,1,07,0.9,2.1,M,44.0,M,,*6A
2097271B56F5_$GPGGA,084312.00,5706.761833,N,00835.292007,E,1,07,0.9,2.1,M,44.0,M,,*61
2097271B56F5_$GPGGA,084313.00,5706.761833,N,00835.292010,E,1,07,0.9,2.1,M,44.0,M,,*66
2097271B56F5_$GPGGA,084314.00,5706.761831,N,00835.292004,E,1,07,0.9,2.1,M,44.0,M,,*66
2097271B56F5_$GPGGA,084315.00,5706.761830,N,00835.292002,E,1,07,0.9,2.1,M,44.0,M,,*60
2097271B56F5_$GPGGA,084316.00,5706.761830,N,00835.291998,E,1,07,0.9,2.1,M,44.0,M,,*6A
2097271B56F5_$GPGGA,084317.00,5706.761827,N,00835.291999,E,1,07,0.9,2.1,M,44.0,M,,*6C
2097271B56F5_$GPGGA,084318.00,5706.761825,N,00835.292009,E,1,07,0.9,2.1,M,44.0,M,,*62
2097271B56F5_$GPGGA,084319.00,5706.761823,N,00835.292012,E,1,07,0.9,2.1,M,44.0,M,,*6F
2097271B56F5_$GPGGA,084320.00,5706.761822,N,00835.292010,E,1,07,0.9,2.1,M,44.0,M,,*66
2097271B56F5_$GPGGA,084321.00,5706.761821,N,00835.292008,E,1,07,0.9,2.1,M,44.0,M,,*6D
2097271B56F5_$GPGGA,084322.00,5706.761820,N,00835.292004,E,1,07,0.9,2.1,M,44.0,M,,*63
2097271B56F5_$GPGGA,084323.00,5706.761820,N,00835.292004,E,1,07,0.9,2.1,M,44.0,M,,*62
2097271B56F5_$GPGGA,084324.00,5706.761819,N,00835.292002,E,1,07,0.9,2.1,M,44.0,M,,*69
2097271B56F5_$GPGGA,084325.00,5706.761816,N,00835.292006,E,1,07,0.9,2.1,M,44.0,M,,*63
2097271B56F5_$GPGGA,084326.00,5706.761816,N,00835.292005,E,1,07,0.9,2.1,M,44.0,M,,*63
2097271B56F5_$GPGGA,084327.00,5706.761815,N,00835.292007,E,1,07,0.9,2.1,M,44.0,M,,*63
2097271B56F5_$GPGGA,084328.00,5706.761815,N,00835.292009,E,1,07,0.9,2.1,M,44.0,M,,*62
2097271B56F5_$GPGGA,084329.00,5706.761816,N,00835.292007,E,1,07,0.9,2.1,M,44.0,M,,*6E
2097271B56F5_$GPGGA,084330.00,5706.761814,N,00835.292011,E,1,07,0.9,2.1,M,44.0,M,,*63
2097271B56F5_$GPGGA,084331.00,5706.761814,N,00835.292008,E,1,07,0.9,2.1,M,44.0,M,,*6A
2097271B56F5_$GPGGA,084332.00,5706.761812,N,00835.292008,E,1,07,0.9,2.1,M,44.0,M,,*6F
2097271B56F5_$GPGGA,084333.00,5706.761811,N,00835.292012,E,1,07,0.9,2.1,M,44.0,M,,*66
2097271B56F5_$GPGGA,084334.00,5706.761811,N,00835.292012,E,1,07,0.9,2.1,M,44.0,M,,*61
2097271B56F5_$GPGGA,084335.00,5706.761811,N,00835.292014,E,1,07,0.9,2.1,M,44.0,M,,*66
2097271B56F5_$GPGGA,084336.00,5706.761811,N,00835.292012,E,1,07,0.9,2.1,M,44.0,M,,*63
2097271B56F5_$GPGGA,084337.00,5706.761810,N,00835.292008,E,1,07,0.9,2.1,M,44.0,M,,*68
2097271B56F5_$GPGGA,084338.00,5706.761808,N,00835.292006,E,1,07,0.9,2.1,M,44.0,M,,*60
2097271B56F5_$GPGGA,084339.00,5706.761806,N,00835.292005,E,1,07,0.9,2.1,M,44.0,M,,*6C
2097271B56F5_$GPGGA,084340.00,5706.761805,N,00835.292003,E,1,07,0.9,2.1,M,44.0,M,,*67
2097271B56F5_$GPGGA,084341.00,5706.761804,N,00835.292005,E,1,07,0.9,2.1,M,44.0,M,,*61
2097271B56F5_$GPGGA,084342.00,5706.761804,N,00835.292004,E,1,07,0.9,2.1,M,44.0,M,,*63
2097271B56F5_$GPGGA,084343.00,5706.761803,N,00835.292000,E,1,07,0.9,2.1,M,44.0,M,,*61
2097271B56F5_$GPGGA,084344.00,5706.761803,N,00835.292003,E,1,07,0.9,2.1,M,44.0,M,,*65
2097271B56F5_$GPGGA,084345.00,5706.761802,N,00835.292000,E,1,07,0.9,2.1,M,44.0,M,,*66
2097271B56F5_$GPGGA,084346.00,5706.761800,N,00835.292001,E,1,07,0.9,2.1,M,44.0,M,,*66
2097271B56F5_$GPGGA,084347.00,5706.761798,N,00835.292001,E,1,07,0.9,2.1,M,44.0,M,,*69
2097271B56F5_$GPGGA,084348.00,5706.761797,N,00835.291999,E,1,07,0.9,2.1,M,44.0,M,,*62
2097271B56F5_$GPGGA,084349.00,5706.761797,N,00835.291997,E,1,07,0.9,2.1,M,44.0,M,,*6D
2097271B56F5_$GPGGA,084350.00,5706.761795,N,00835.291995,E,1,07,0.9,2.1,M,44.0,M,,*65
2097271B56F5_$GPGGA,084351.00,5706.761795,N,00835.291992,E,1,07,0.9,2.1,M,44.0,M,,*63
2097271B56F5_$GPGGA,084352.00,5706.761794,N,00835.291993,E,1,07,0.9,2.1,M,44.0,M,,*60
2097271B56F5_$GPGGA,084353.00,5706.761794,N,00835.291988,E,1,07,0.9,2.1,M,44.0,M,,*6B
2097271B56F5_$GPGGA,084354.00,5706.761791,N,00835.291984,E,1,07,0.9,2.1,M,44.0,M,,*65
2097271B56F5_$GPGGA,084355.00,5706.761791,N,00835.291983,E,1,07,0.9,2.1,M,44.0,M,,*63
2097271B56F5_$GPGGA,084356.00,5706.761788,N,00835.291984,E,1,07,0.9,2.1,M,44.0,M,,*6F
2097271B56F5_$GPGGA,084357.00,5706.761788,N,00835.291979,E,1,07,0.9,2.1,M,44.0,M,,*6C
2097271B56F5_$GPGGA,084358.00,5706.761786,N,00835.291978,E,1,07,0.9,2.1,M,44.0,M,,*6C
2097271B56F5_$GPGGA,084359.00,5706.761785,N,00835.291975,E,1,07,0.9,2.1,M,44.0,M,,*63
2097271B56F5_$GPGGA,084400.00,5706.761786,N,00835.291973,E,1,07,0.9,2.1,M,44.0,M,,*6D
2097271B56F5_$GPGGA,084401.00,5706.761784,N,00835.291979,E,1,07,0.9,2.1,M,44.0,M,,*64
2097271B56F5_$GPGGA,084402.00,5706.761783,N,00835.291982,E,1,07,0.9,2.1,M,44.0,M,,*64
2097271B56F5_$GPGGA,084403.00,5706.761781,N,00835.291980,E,1,07,0.9,2.1,M,44.0,M,,*65
2097271B56F5_$GPGGA,084404.00,5706.761781,N,00835.291979,E,1,07,0.9,2.1,M,44.0,M,,*64
2097271B56F5_$GPGGA,084405.00,5706.761780,N,00835.291976,E,1,07,0.9,2.1,M,44.0,M,,*6B
2097271B56F5_$GPGGA,084406.00,5706.761778,N,00835.291981,E,1,07,0.9,2.1,M,44.0,M,,*67
2097271B56F5_$GPGGA,084407.00,5706.761778,N,00835.291987,E,1,07,0.9,2.1,M,44.0,M,,*60
2097271B56F5_$GPGGA,084408.00,5706.761776,N,00835.291989,E,1,07,0.9,2.1,M,44.0,M,,*6F
2097271B56F5_$GPGGA,084409.00,5706.761774,N,00835.291992,E,1,07,0.9,2.1,M,44.0,M,,*66
2097271B56F5_$GPGGA,084410.00,5706.761771,N,00835.291998,E,1,07,0.9,2.1,M,44.0,M,,*61
2097271B56F5_$GPGGA,084411.00,5706.761770,N,00835.291994,E,1,07,0.9,2.1,M,44.0,M,,*6D
2097271B56F5_$GPGGA,084412.00,5706.761767,N,00835.291993,E,1,07,0.9,2.1,M,44.0,M,,*6F
2097271B56F5_$GPGGA,084413.00,5706.761764,N,00835.291998,E,1,07,0.9,2.1,M,44.0,M,,*66
2097271B56F5_$GPGGA,084414.00,5706.761762,N,00835.291996,E,1,07,0.9,2.1,M,44.0,M,,*69
2097271B56F5_$GPGGA,084415.00,5706.761759,N,00835.292000,E,1,07,0.9,2.1,M,44.0,M,,*65
2097271B56F5_$GPGGA,084416.00,5706.761755,N,00835.292002,E,1,07,0.9,2.1,M,44.0,M,,*68
2097271B56F5_$GPGGA,084417.00,5706.761753,N,00835.291999,E,1,07,0.9,2.1,M,44.0,M,,*67
2097271B56F5_$GPGGA,084418.00,5706.761752,N,00835.292001,E,1,07,0.9,2.1,M,44.0,M,,*62
2097271B56F5_$GPGGA,084419.00,5706.761751,N,00835.292007,E,1,07,0.9,2.1,M,44.0,M,,*66
2097271B56F5_$GPGGA,084420.00,5706.761750,N,00835.292004,E,1,07,0.9,2.1,M,44.0,M,,*6E
2097271B56F5_$GPGGA,084421.00,5706.761749,N,00835.292012,E,1,07,0.9,2.1,M,44.0,M,,*60
2097271B56F5_$GPGGA,084422.00,5706.761747,N,00835.292015,E,1,07,0.9,2.1,M,44.0,M,,*6A
2097271B56F5_$GPGGA,084423.00,5706.761744,N,00835.292013,E,1,07,0.9,2.1,M,44.0,M,,*6E
2097271B56F5_$GPGGA,084424.00,5706.761744,N,00835.292008,E,1,07,0.9,2.1,M,44.0,M,,*63
2097271B56F5_$GPGGA,084425.00,5706.761744,N,00835.292005,E,1,07,0.9,2.1,M,44.0,M,,*6F
2097271B56F5_$GPGGA,084426.00,5706.761744,N,00835.291997,E,1,07,0.9,2.1,M,44.0,M,,*6D
2097271B56F5_$GPGGA,084427.00,5706.761743,N,00835.291997,E,1,07,0.9,2.1,M,44.0,M,,*6B
2097271B56F5_$GPGGA,084428.00,5706.761740,N,00835.291994,E,1,07,0.9,2.1,M,44.0,M,,*64
2097271B56F5_$GPGGA,084429.00,5706.761739,N,00835.291994,E,1,07,0.9,2.1,M,44.0,M,,*6B
2097271B56F5_$GPGGA,084430.00,5706.761738,N,00835.291991,E,1,07,0.9,2.1,M,44.0,M,,*67
2097271B56F5_$GPGGA,084431.00,5706.761737,N,00835.291989,E,1,07,0.9,2.1,M,44.0,M,,*60
2097271B56F5_$GPGGA,084432.00,5706.761735,N,00835.291990,E,1,07,0.9,2.1,M,44.0,M,,*69
2097271B56F5_$GPGGA,084433.00,5706.761732,N,00835.291985,E,1,07,0.9,2.1,M,44.0,M,,*6B
2097271B56F5_$GPGGA,084434.00,5706.761731,N,00835.291981,E,1,07,0.9,2.1,M,44.0,M,,*6B
2097271B56F5_$GPGGA,084435.00,5706.761730,N,00835.291986,E,1,07,0.9,2.1,M,44.0,M,,*6C
2097271B56F5_$GPGGA,084436.00,5706.761730,N,00835.291986,E,1,07,0.9,2.1,M,44.0,M,,*6F
2097271B56F5_$GPGGA,084437.00,5706.761729,N,00835.291983,E,1,07,0.9,2.1,M,44.0,M,,*63
2097271B56F5_$GPGGA,084438.00,5706.761727,N,00835.291982,E,1,07,0.9,2.1,M,44.0,M,,*63
2097271B56F5_$GPGGA,084439.00,5706.761726,N,00835.291984,E,1,07,0.9,2.1,M,44.0,M,,*65
2097271B56F5_$GPGGA,084440.00,5706.761725,N,00835.291984,E,1,07,0.9,2.1,M,44.0,M,,*68
2097271B56F5_$GPGGA,084441.00,5706.761724,N,00835.291983,E,1,07,0.9,2.1,M,44.0,M,,*6F
2097271B56F5_$GPGGA,084442.00,5706.761721,N,00835.291985,E,1,07,0.9,2.1,M,44.0,M,,*6F
2097271B56F5_$GPGGA,084443.00,5706.761719,N,00835.291986,E,1,07,0.9,2.1,M,44.0,M,,*66
2097271B56F5_$GPGGA,084444.00,5706.761719,N,00835.291983,E,1,07,0.9,2.1,M,44.0,M,,*64
2097271B56F5_$GPGGA,084445.00,5706.761719,N,00835.291983,E,1,07,0.9,2.1,M,44.0,M,,*65
2097271B56F5_$GPGGA,084446.00,5706.761717,N,00835.291983,E,1,07,0.9,2.1,M,44.0,M,,*68
2097271B56F5_$GPGGA,084447.00,5706.761717,N,00835.291987,E,1,07,0.9,2.1,M,44.0,M,,*6D
2097271B56F5_$GPGGA,084448.00,5706.761717,N,00835.291986,E,1,07,0.9,2.1,M,44.0,M,,*63
2097271B56F5_$GPGGA,084449.00,5706.761717,N,00835.291980,E,1,07,0.9,2.1,M,44.0,M,,*64
2097271B56F5_$GPGGA,084450.00,5706.761717,N,00835.291979,E,1,07,0.9,2.1,M,44.0,M,,*6A
2097271B56F5_$GPGGA,084451.00,5706.761718,N,00835.291979,E,1,07,0.9,2.1,M,44.0,M,,*64
2097271B56F5_$GPGGA,084452.00,5706.761717,N,00835.291979,E,1,07,0.9,2.1,M,44.0,M,,*68
2097271B56F5_$GPGGA,084453.00,5706.761716,N,00835.291980,E,1,07,0.9,2.1,M,44.0,M,,*6E
2097271B56F5_$GPGGA,084454.00,5706.761713,N,00835.291978,E,1,07,0.9,2.1,M,44.0,M,,*6B
2097271B56F5_$GPGGA,084455.00,5706.761711,N,00835.291974,E,1,07,0.9,2.1,M,44.0,M,,*64
2097271B56F5_$GPGGA,084456.00,5706.761709,N,00835.291973,E,1,07,0.9,2.1,M,44.0,M,,*69
2097271B56F5_$GPGGA,084457.00,5706.761709,N,00835.291974,E,1,07,0.9,2.1,M,44.0,M,,*6F
2097271B56F5_$GPGGA,084458.00,5706.761707,N,00835.291971,E,1,07,0.9,2.1,M,44.0,M,,*6B
2097271B56F5_$GPGGA,084459.00,5706.761704,N,00835.291974,E,1,07,0.9,2.1,M,44.0,M,,*6C
2097271B56F5_$GPGGA,084500.00,5706.761703,N,00835.291974,E,1,07,0.9,2.1,M,44.0,M,,*66
2097271B56F5_$GPGGA,084501.00,5706.761703,N,00835.291967,E,1,07,0.9,2.1,M,44.0,M,,*65
2097271B56F5_$GPGGA,084502.00,5706.761700,N,00835.291970,E,1,07,0.9,2.1,M,44.0,M,,*63
2097271B56F5_$GPGGA,084503.00,5706.761699,N,00835.291968,E,1,07,0.9,2.1,M,44.0,M,,*6A
2097271B56F5_$GPGGA,084504.00,5706.761698,N,00835.291969,E,1,07,0.9,2.1,M,44.0,M,,*6D
2097271B56F5_$GPGGA,084505.00,5706.761695,N,00835.291973,E,1,07,0.9,2.1,M,44.0,M,,*6A
2097271B56F5_$GPGGA,084506.00,5706.761692,N,00835.291975,E,1,07,0.9,2.1,M,44.0,M,,*68
2097271B56F5_$GPGGA,084507.00,5706.761692,N,00835.291971,E,1,07,0.9,2.1,M,44.0,M,,*6D
2097271B56F5_$GPGGA,084508.00,5706.761690,N,00835.291975,E,1,07,0.9,2.1,M,44.0,M,,*64
2097271B56F5_$GPGGA,084509.00,5706.761687,N,00835.291979,E,1,07,0.9,2.1,M,44.0,M,,*6F
2097271B56F5_$GPGGA,084510.00,5706.761686,N,00835.291980,E,1,07,0.9,2.1,M,44.0,M,,*60
2097271B56F5_$GPGGA,084511.00,5706.761685,N,00835.291985,E,1,07,0.9,2.1,M,44.0,M,,*67
2097271B56F5_$GPGGA,084512.00,5706.761684,N,00835.291981,E,1,07,0.9,2.1,M,44.0,M,,*61
2097271B56F5_$GPGGA,084513.00,5706.761682,N,00835.291984,E,1,07,0.9,2.1,M,44.0,M,,*63
2097271B56F5_$GPGGA,084514.00,5706.761680,N,00835.291987,E,1,07,0.9,2.1,M,44.0,M,,*65
2097271B56F5_$GPGGA,084515.00,5706.761678,N,00835.291990,E,1,07,0.9,2.1,M,44.0,M,,*65
2097271B56F5_$GPGGA,084516.00,5706.761677,N,00835.291986,E,1,07,0.9,2.1,M,44.0,M,,*6E
2097271B56F5_$GPGGA,084517.00,5706.761677,N,00835.291983,E,1,07,0.9,2.1,M,44.0,M,,*6A
2097271B56F5_$GPGGA,084518.00,5706.761676,N,00835.291985,E,1,07,0.9,2.1,M,44.0,M,,*62
2097271B56F5_$GPGGA,084519.00,5706.761674,N,00835.291989,E,1,07,0.9,2.1,M,44.0,M,,*6D
2097271B56F5_$GPGGA,084520.00,5706.761674,N,00835.291986,E,1,07,0.9,2.1,M,44.0,M,,*68
2097271B56F5_$GPGGA,084521.00,5706.761673,N,00835.291984,E,1,07,0.9,2.1,M,44.0,M,,*6C
2097271B56F5_$GPGGA,084522.00,5706.761671,N,00835.291982,E,1,07,0.9,2.1,M,44.0,M,,*6B
2097271B56F5_$GPGGA,084523.00,5706.761671,N,00835.291978,E,1,07,0.9,2.1,M,44.0,M,,*6F
2097271B56F5_$GPGGA,084524.00,5706.761666,N,00835.291978,E,1,07,0.9,2.1,M,44.0,M,,*6E
2097271B56F5_$GPGGA,084525.00,5706.761667,N,00835.291973,E,1,07,0.9,2.1,M,44.0,M,,*65
2097271B56F5_$GPGGA,084526.00,5706.761663,N,00835.291977,E,1,07,0.9,2.1,M,44.0,M,,*66
2097271B56F5_$GPGGA,084527.00,5706.761663,N,00835.291980,E,1,07,0.9,2.1,M,44.0,M,,*6F
2097271B56F5_$GPGGA,084528.00,5706.761661,N,00835.291983,E,1,07,0.9,2.1,M,44.0,M,,*61
2097271B56F5_$GPGGA,084529.00,5706.761658,N,00835.291984,E,1,07,0.9,2.1,M,44.0,M,,*6D
2097271B56F5_$GPGGA,084530.00,5706.761655,N,00835.291989,E,1,07,0.9,2.1,M,44.0,M,,*65
2097271B56F5_$GPGGA,084531.00,5706.761653,N,00835.291990,E,1,07,0.9,2.1,M,44.0,M,,*6A
2097271B56F5_$GPGGA,084532.00,5706.761651,N,00835.291993,E,1,07,0.9,2.1,M,44.0,M,,*68
2097271B56F5_$GPGGA,084533.00,5706.761649,N,00835.291997,E,1,07,0.9,2.1,M,44.0,M,,*64
2097271B56F5_$GPGGA,084534.00,5706.761645,N,00835.292004,E,1,07,0.9,2.1,M,44.0,M,,*6F
2097271B56F5_$GPGGA,084535.00,5706.761643,N,00835.292007,E,1,07,0.9,2.1,M,44.0,M,,*6B
2097271B56F5_$GPGGA,084536.00,5706.761641,N,00835.292004,E,1,07,0.9,2.1,M,44.0,M,,*69
2097271B56F5_$GPGGA,084537.00,5706.761638,N,00835.292010,E,1,07,0.9,2.1,M,44.0,M,,*63
2097271B56F5_$GPGGA,084538.00,5706.761635,N,00835.292008,E,1,07,0.9,2.1,M,44.0,M,,*68
2097271B56F5_$GPGGA,084539.00,5706.761634,N,00835.292006,E,1,07,0.9,2.1,M,44.0,M,,*66
2097271B56F5_$GPGGA,084540.00,5706.761632,N,00835.292007,E,1,07,0.9,2.1,M,44.0,M,,*6F
2097271B56F5_$GPGGA,084541.00,5706.761629,N,00835.292009,E,1,07,0.9,2.1,M,44.0,M,,*6A
2097271B56F5_$GPGGA,084542.00,5706.761627,N,00835.292011,E,1,07,0.9,2.1,M,44.0,M,,*6E
2097271B56F5_$GPGGA,084543.00,5706.761627,N,00835.292014,E,1,07,0.9,2.1,M,44.0,M,,*6A
2097271B56F5_$GPGGA,084544.00,5706.761625,N,00835.292017,E,1,07,0.9,2.1,M,44.0,M,,*6C
2097271B56F5_$GPGGA,084545.00,5706.761623,N,00835.292019,E,1,07,0.9,2.1,M,44.0,M,,*65
2097271B56F5_$GPGGA,084546.00,5706.761620,N,00835.292022,E,1,07,0.9,2.1,M,44.0,M,,*6D
2097271B56F5_$GPGGA,084547.00,5706.761619,N,00835.292023,E,1,07,0.9,2.1,M,44.0,M,,*67
2097271B56F5_$GPGGA,084548.00,5706.761616,N,00835.292024,E,1,07,0.9,2.1,M,44.0,M,,*60
2097271B56F5_$GPGGA,084549.00,5706.761614,N,00835.292022,E,1,07,0.9,2.1,M,44.0,M,,*65
2097271B56F5_$GPGGA,084550.00,5706.761612,N,00835.292027,E,1,07,0.9,2.1,M,44.0,M,,*6E
2097271B56F5_$GPGGA,084551.00,5706.761611,N,00835.292030,E,1,07,0.9,2.1,M,44.0,M,,*6A
2097271B56F5_$GPGGA,084552.00,5706.761608,N,00835.292029,E,1,07,0.9,2.1,M,44.0,M,,*69
2097271B56F5_$GPGGA,084553.00,5706.761606,N,00835.292032,E,1,07,0.9,2.1,M,44.0,M,,*6C
2097271B56F5_$GPGGA,084554.00,5706.761604,N,00835.292026,E,1,07,0.9,2.1,M,44.0,M,,*6C
2097271B56F5_$GPGGA,084555.00,5706.761603,N,00835.292025,E,1,07,0.9,2.1,M,44.0,M,,*69
2097271B56F5_$GPGGA,084556.00,5706.761601,N,00835.292028,E,1,07,0.9,2.1,M,44.0,M,,*65
2097271B56F5_$GPGGA,084557.00,5706.761600,N,00835.292032,E,1,07,0.9,2.1,M,44.0,M,,*6E
2097271B56F5_$GPGGA,084558.00,5706.761596,N,00835.292034,E,1,07,0.9,2.1,M,44.0,M,,*6B
2097271B56F5_$GPGGA,084559.00,5706.761595,N,00835.292039,E,1,07,0.9,2.1,M,44.0,M,,*64
2097271B56F5_$GPGGA,084600.00,5706.761592,N,00835.292045,E,1,07,0.9,2.1,M,44.0,M,,*67
2097271B56F5_$GPGGA,084601.00,5706.761590,N,00835.292048,E,1,07,0.9,2.1,M,44.0,M,,*69
2097271B56F5_$GPGGA,084602.00,5706.761588,N,00835.292049,E,1,07,0.9,2.2,M,44.0,M,,*61
2097271B56F5_$GPGGA,084603.00,5706.761584,N,00835.292051,E,1,07,0.9,2.2,M,44.0,M,,*65
2097271B56F5_$GPGGA,084604.00,5706.761583,N,00835.292050,E,1,07,0.9,2.2,M,44.0,M,,*64
2097271B56F5_$GPGGA,084605.00,5706.761581,N,00835.292050,E,1,07,0.9,2.2,M,44.0,M,,*67
2097271B56F5_$GPGGA,084606.00,5706.761579,N,00835.292054,E,1,07,0.9,2.2,M,44.0,M,,*67
2097271B56F5_$GPGGA,084607.00,5706.761578,N,00835.292053,E,1,07,0.9,2.2,M,44.0,M,,*60
2097271B56F5_$GPGGA,084608.00,5706.761575,N,00835.292054,E,1,07,0.9,2.2,M,44.0,M,,*65
2097271B56F5_$GPGGA,084609.00,5706.761573,N,00835.292056,E,1,07,0.9,2.2,M,44.0,M,,*60
2097271B56F5_$GPGGA,084610.00,5706.761572,N,00835.292060,E,1,07,0.9,2.2,M,44.0,M,,*6C
2097271B56F5_$GPGGA,084611.00,5706.761571,N,00835.292064,E,1,07,0.9,2.2,M,44.0,M,,*6A
2097271B56F5_$GPGGA,084612.00,5706.761569,N,00835.292068,E,1,07,0.9,2.2,M,44.0,M,,*6C
2097271B56F5_$GPGGA,084613.00,5706.761566,N,00835.292071,E,1,07,0.9,2.2,M,44.0,M,,*6A
2097271B56F5_$GPGGA,084614.00,5706.761566,N,00835.292068,E,1,07,0.9,2.2,M,44.0,M,,*65
2097271B56F5_$GPGGA,084615.00,5706.761566,N,00835.292071,E,1,07,0.9,2.2,M,44.0,M,,*6C
2097271B56F5_$GPGGA,084616.00,5706.761566,N,00835.292075,E,1,07,0.9,2.2,M,44.0,M,,*6B
2097271B56F5_$GPGGA,084617.00,5706.761565,N,00835.292077,E,1,07,0.9,2.2,M,44.0,M,,*6B
2097271B56F5_$GPGGA,084618.00,5706.761564,N,00835.292078,E,1,07,0.9,2.2,M,44.0,M,,*6A
2097271B56F5_$GPGGA,084619.00,5706.761563,N,00835.292075,E,1,07,0.9,2.2,M,44.0,M,,*61
2097271B56F5_$GPGGA,084620.00,5706.761562,N,00835.292078,E,1,07,0.9,2.2,M,44.0,M,,*67
2097271B56F5_$GPGGA,084621.00,5706.761561,N,00835.292076,E,1,07,0.9,2.2,M,44.0,M,,*6B
2097271B56F5_$GPGGA,084622.00,5706.761560,N,00835.292076,E,1,07,0.9,2.2,M,44.0,M,,*69
2097271B56F5_$GPGGA,084623.00,5706.761559,N,00835.292074,E,1,07,0.9,2.2,M,44.0,M,,*60
2097271B56F5_$GPGGA,084624.00,5706.761559,N,00835.292074,E,1,07,0.9,2.2,M,44.0,M,,*67
2097271B56F5_$GPGGA,084625.00,5706.761558,N,00835.292069,E,1,07,0.9,2.2,M,44.0,M,,*6B
2097271B56F5_$GPGGA,084626.00,5706.761556,N,00835.292069,E,1,07,0.9,2.2,M,44.0,M,,*66
2097271B56F5_$GPGGA,084627.00,5706.761555,N,00835.292071,E,1,07,0.9,2.2,M,44.0,M,,*6D
2097271B56F5_$GPGGA,084628.00,5706.761553,N,00835.292071,E,1,07,0.9,2.2,M,44.0,M,,*64
2097271B56F5_$GPGGA,084629.00,5706.761553,N,00835.292070,E,1,07,0.9,2.2,M,44.0,M,,*64
2097271B56F5_$GPGGA,084630.00,5706.761552,N,00835.292069,E,1,07,0.9,2.2,M,44.0,M,,*65
2097271B56F5_$GPGGA,084631.00,5706.761552,N,00835.292071,E,1,07,0.9,2.2,M,44.0,M,,*6D
2097271B56F5_$GPGGA,084632.00,5706.761551,N,00835.292070,E,1,07,0.9,2.2,M,44.0,M,,*6C
2097271B56F5_$GPGGA,084633.00,5706.761549,N,00835.292069,E,1,07,0.9,2.2,M,44.0,M,,*6C
2097271B56F5_$GPGGA,084634.00,5706.761549,N,00835.292069,E,1,07,0.9,2.2,M,44.0,M,,*6B
2097271B56F5_$GPGGA,084635.00,5706.761548,N,00835.292068,E,1,07,0.9,2.2,M,44.0,M,,*6A
2097271B56F5_$GPGGA,084636.00,5706.761545,N,00835.292066,E,1,07,0.9,2.2,M,44.0,M,,*6A
2097271B56F5_$GPGGA,084637.00,5706.761544,N,00835.292069,E,1,07,0.9,2.2,M,44.0,M,,*65
2097271B56F5_$GPGGA,084638.00,5706.761543,N,00835.292071,E,1,07,0.9,2.2,M,44.0,M,,*64
2097271B56F5_$GPGGA,084639.00,5706.761541,N,00835.292072,E,1,07,0.9,2.2,M,44.0,M,,*64
2097271B56F5_$GPGGA,084640.00,5706.761541,N,00835.292074,E,1,07,0.9,2.2,M,44.0,M,,*6C
2097271B56F5_$GPGGA,084641.00,5706.761539,N,00835.292070,E,1,07,0.9,2.2,M,44.0,M,,*66
2097271B56F5_$GPGGA,084642.00,5706.761538,N,00835.292078,E,1,07,0.9,2.2,M,44.0,M,,*6C
2097271B56F5_$GPGGA,084643.00,5706.761537,N,00835.292081,E,1,07,0.9,2.2,M,44.0,M,,*64
2097271B56F5_$GPGGA,084644.00,5706.761537,N,00835.292083,E,1,07,0.9,2.2,M,44.0,M,,*61
2097271B56F5_$GPGGA,084645.00,5706.761536,N,00835.292085,E,1,07,0.9,2.2,M,44.0,M,,*67
2097271B56F5_$GPGGA,084646.00,5706.761534,N,00835.292087,E,1,07,0.9,2.2,M,44.0,M,,*64
2097271B56F5_$GPGGA,084647.00,5706.761532,N,00835.292089,E,1,07,0.9,2.2,M,44.0,M,,*6D
2097271B56F5_$GPGGA,084648.00,5706.761530,N,00835.292092,E,1,07,0.9,2.2,M,44.0,M,,*6A
2097271B56F5_$GPGGA,084649.00,5706.761529,N,00835.292090,E,1,07,0.9,2.2,M,44.0,M,,*61
2097271B56F5_$GPGGA,084650.00,5706.761526,N,00835.292093,E,1,07,0.9,2.2,M,44.0,M,,*65
2097271B56F5_$GPGGA,084651.00,5706.761526,N,00835.292088,E,1,07,0.9,2.2,M,44.0,M,,*6E
2097271B56F5_$GPGGA,084652.00,5706.761526,N,00835.292086,E,1,07,0.9,2.2,M,44.0,M,,*63
2097271B56F5_$GPGGA,084653.00,5706.761525,N,00835.292086,E,1,07,0.9,2.2,M,44.0,M,,*61
2097271B56F5_$GPGGA,084654.00,5706.761523,N,00835.292088,E,1,07,0.9,2.2,M,44.0,M,,*6E
2097271B56F5_$GPGGA,084655.00,5706.761520,N,00835.292094,E,1,07,0.9,2.2,M,44.0,M,,*61
2097271B56F5_$GPGGA,084656.00,5706.761520,N,00835.292090,E,1,07,0.9,2.2,M,44.0,M,,*66
2097271B56F5_$GPGGA,084657.00,5706.761517,N,00835.292088,E,1,07,0.9,2.2,M,44.0,M,,*6A
2097271B56F5_$GPGGA,084658.00,5706.761517,N,00835.292088,E,1,07,0.9,2.2,M,44.0,M,,*65
2097271B56F5_$GPGGA,084659.00,5706.761515,N,00835.292090,E,1,07,0.9,2.2,M,44.0,M,,*6F
2097271B56F5_$GPGGA,084700.00,5706.761514,N,00835.292091,E,1,07,0.9,2.2,M,44.0,M,,*62
2097271B56F5_$GPGGA,084701.00,5706.761511,N,00835.292091,E,1,07,0.9,2.2,M,44.0,M,,*66
2097271B56F5_$GPGGA,084702.00,5706.761510,N,00835.292097,E,1,07,0.9,2.2,M,44.0,M,,*62
2097271B56F5_$GPGGA,084703.00,5706.761508,N,00835.292100,E,1,07,0.9,2.2,M,44.0,M,,*65
2097271B56F5_$GPGGA,084704.00,5706.761506,N,00835.292100,E,1,07,0.9,2.2,M,44.0,M,,*6C
2097271B56F5_$GPGGA,084705.00,5706.761504,N,00835.292103,E,1,07,0.9,2.2,M,44.0,M,,*6C
2097271B56F5_$GPGGA,084706.00,5706.761504,N,00835.292103,E,1,07,0.9,2.2,M,44.0,M,,*6F
2097271B56F5_$GPGGA,084707.00,5706.761501,N,00835.292103,E,1,07,0.9,2.2,M,44.0,M,,*6B
2097271B56F5_$GPGGA,084708.00,5706.761501,N,00835.292102,E,1,07,0.9,2.2,M,44.0,M,,*65
2097271B56F5_$GPGGA,084709.00,5706.761499,N,00835.292102,E,1,07,0.9,2.2,M,44.0,M,,*64
2097271B56F5_$GPGGA,084710.00,5706.761498,N,00835.292105,E,1,07,0.9,2.2,M,44.0,M,,*6A
2097271B56F5_$GPGGA,084711.00,5706.761497,N,00835.292104,E,1,07,0.9,2.2,M,44.0,M,,*65
2097271B56F5_$GPGGA,084712.00,5706.761495,N,00835.292104,E,1,07,0.9,2.2,M,44.0,M,,*64
2097271B56F5_$GPGGA,084713.00,5706.761493,N,00835.292107,E,1,07,0.9,2.2,M,44.0,M,,*60
2097271B56F5_$GPGGA,084714.00,5706.761492,N,00835.292104,E,1,07,0.9,2.2,M,44.0,M,,*65
2097271B56F5_$GPGGA,084715.00,5706.761491,N,00835.292101,E,1,07,0.9,2.2,M,44.0,M,,*62
2097271B56F5_$GPGGA,084716.00,5706.761490,N,00835.292104,E,1,07,0.9,2.2,M,44.0,M,,*65
2097271B56F5_$GPGGA,084717.00,5706.761489,N,00835.292099,E,1,07,0.9,2.2,M,44.0,M,,*69
2097271B56F5_$GPGGA,084718.00,5706.761489,N,00835.292095,E,1,07,0.9,2.2,M,44.0,M,,*6A
2097271B56F5_$GPGGA,084719.00,5706.761486,N,00835.292097,E,1,07,0.9,2.2,M,44.0,M,,*66
2097271B56F5_$GPGGA,084720.00,5706.761484,N,00835.292098,E,1,07,0.9,2.2,M,44.0,M,,*61
2097271B56F5_$GPGGA,084721.00,5706.761483,N,00835.292102,E,1,07,0.9,2.2,M,44.0,M,,*65
2097271B56F5_$GPGGA,084722.00,5706.761484,N,00835.292097,E,1,07,0.9,2.2,M,44.0,M,,*6C
2097271B56F5_$GPGGA,084723.00,5706.761484,N,00835.292094,E,1,07,0.9,2.2,M,44.0,M,,*6E
2097271B56F5_$GPGGA,084724.00,5706.761483,N,00835.292085,E,1,07,0.9,2.2,M,44.0,M,,*6E
2097271B56F5_$GPGGA,084725.00,5706.761482,N,00835.292089,E,1,07,0.9,2.2,M,44.0,M,,*62
2097271B56F5_$GPGGA,084726.00,5706.761482,N,00835.292094,E,1,07,0.9,2.2,M,44.0,M,,*6D
2097271B56F5_$GPGGA,084727.00,5706.761481,N,00835.292097,E,1,07,0.9,2.2,M,44.0,M,,*6C
2097271B56F5_$GPGGA,084728.00,5706.761480,N,00835.292097,E,1,07,0.9,2.2,M,44.0,M,,*62
2097271B56F5_$GPGGA,084729.00,5706.761478,N,00835.292102,E,1,07,0.9,2.2,M,44.0,M,,*69
2097271B56F5_$GPGGA,084730.00,5706.761476,N,00835.292101,E,1,07,0.9,2.2,M,44.0,M,,*6C
2097271B56F5_$GPGGA,084731.00,5706.761474,N,00835.292104,E,1,07,0.9,2.2,M,44.0,M,,*6A
2097271B56F5_$GPGGA,084732.00,5706.761473,N,00835.292102,E,1,07,0.9,2.2,M,44.0,M,,*68
2097271B56F5_$GPGGA,084733.00,5706.761472,N,00835.292101,E,1,07,0.9,2.2,M,44.0,M,,*6B
2097271B56F5_$GPGGA,084734.00,5706.761471,N,00835.292099,E,1,07,0.9,2.2,M,44.0,M,,*6F
2097271B56F5_$GPGGA,084735.00,5706.761469,N,00835.292099,E,1,07,0.9,2.2,M,44.0,M,,*67
2097271B56F5_$GPGGA,084736.00,5706.761468,N,00835.292092,E,1,07,0.9,2.2,M,44.0,M,,*6E
2097271B56F5_$GPGGA,084737.00,5706.761467,N,00835.292097,E,1,07,0.9,2.2,M,44.0,M,,*65
2097271B56F5_$GPGGA,084738.00,5706.761467,N,00835.292098,E,1,07,0.9,2.2,M,44.0,M,,*65
2097271B56F5_$GPGGA,084739.00,5706.761466,N,00835.292096,E,1,07,0.9,2.2,M,44.0,M,,*6B
2097271B56F5_$GPGGA,084740.00,5706.761465,N,00835.292103,E,1,07,0.9,2.2,M,44.0,M,,*6B
2097271B56F5_$GPGGA,084741.00,5706.761465,N,00835.292104,E,1,07,0.9,2.2,M,44.0,M,,*6D
2097271B56F5_$GPGGA,084742.00,5706.761464,N,00835.292105,E,1,07,0.9,2.2,M,44.0,M,,*6E
2097271B56F5_$GPGGA,084743.00,5706.761463,N,00835.292108,E,1,07,0.9,2.2,M,44.0,M,,*65
2097271B56F5_$GPGGA,084744.00,5706.761461,N,00835.292113,E,1,07,0.9,2.2,M,44.0,M,,*6A
2097271B56F5_$GPGGA,084745.00,5706.761462,N,00835.292106,E,1,07,0.9,2.2,M,44.0,M,,*6C
2097271B56F5_$GPGGA,084746.00,5706.761460,N,00835.292113,E,1,07,0.9,2.2,M,44.0,M,,*69
2097271B56F5_$GPGGA,084747.00,5706.761462,N,00835.292108,E,1,07,0.9,2.2,M,44.0,M,,*60
2097271B56F5_$GPGGA,084748.00,5706.761462,N,00835.292111,E,1,07,0.9,2.2,M,44.0,M,,*67
2097271B56F5_$GPGGA,084749.00,5706.761461,N,00835.292115,E,1,07,0.9,2.2,M,44.0,M,,*61
2097271B56F5_$GPGGA,084750.00,5706.761461,N,00835.292118,E,1,07,0.9,2.2,M,44.0,M,,*64
2097271B56F5_$GPGGA,084751.00,5706.761460,N,00835.292123,E,1,07,0.9,2.2,M,44.0,M,,*6C
2097271B56F5_$GPGGA,084752.00,5706.761460,N,00835.292123,E,1,07,0.9,2.2,M,44.0,M,,*6F
2097271B56F5_$GPGGA,084753.00,5706.761460,N,00835.292122,E,1,07,0.9,2.2,M,44.0,M,,*6F
2097271B56F5_$GPGGA,084754.00,5706.761459,N,00835.292122,E,1,07,0.9,2.2,M,44.0,M,,*62
2097271B56F5_$GPGGA,084755.00,5706.761458,N,00835.292122,E,1,07,0.9,2.2,M,44.0,M,,*62
2097271B56F5_$GPGGA,084756.00,5706.761457,N,00835.292121,E,1,07,0.9,2.2,M,44.0,M,,*6D
2097271B56F5_$GPGGA,084757.00,5706.761456,N,00835.292120,E,1,07,0.9,2.2,M,44.0,M,,*6C
2097271B56F5_$GPGGA,084758.00,5706.761454,N,00835.292120,E,1,07,0.9,2.2,M,44.0,M,,*61
2097271B56F5_$GPGGA,084759.00,5706.761454,N,00835.292116,E,1,07,0.9,2.2,M,44.0,M,,*65
2097271B56F5_$GPGGA,084800.00,5706.761454,N,00835.292110,E,1,07,0.9,2.2,M,44.0,M,,*60
2097271B56F5_$GPGGA,084801.00,5706.761455,N,00835.292104,E,1,07,0.9,2.2,M,44.0,M,,*65
2097271B56F5_$GPGGA,084802.00,5706.761454,N,00835.292108,E,1,07,0.9,2.2,M,44.0,M,,*6B
2097271B56F5_$GPGGA,084803.00,5706.761454,N,00835.292108,E,1,07,0.9,2.2,M,44.0,M,,*6A
2097271B56F5_$GPGGA,084804.00,5706.761454,N,00835.292106,E,1,07,0.9,2.2,M,44.0,M,,*63
2097271B56F5_$GPGGA,084805.00,5706.761453,N,00835.292108,E,1,07,0.9,2.2,M,44.0,M,,*6B
2097271B56F5_$GPGGA,084806.00,5706.760975,N,00835.292259,E,1,07,0.9,2.2,M,44.0,M,,*67
2097271B56F5_$GPGGA,084807.00,5706.760474,N,00835.292462,E,1,07,0.9,2.0,M,44.0,M,,*66
2097271B56F5_$GPGGA,084808.00,5706.760859,N,00835.292508,E,1,07,0.9,3.1,M,44.0,M,,*67
2097271B56F5_$GPGGA,084809.00,5706.760813,N,00835.292694,E,1,07,0.9,2.9,M,44.0,M,,*67
2097271B56F5_$GPGGA,084810.00,5706.760720,N,00835.292766,E,1,07,0.9,3.2,M,44.0,M,,*66
2097271B56F5_$GPGGA,084811.00,5706.760786,N,00835.293063,E,1,07,0.9,3.7,M,44.0,M,,*6D
2097271B56F5_$GPGGA,084812.00,5706.760664,N,00835.292976,E,1,07,0.9,3.8,M,44.0,M,,*60
2097271B56F5_$GPGGA,084813.00,5706.760688,N,00835.292935,E,1,06,1.1,3.8,M,44.0,M,,*6C
2097271B56F5_$GPGGA,084814.00,5706.760504,N,00835.292967,E,1,06,1.1,4.0,M,44.0,M,,*64
2097271B56F5_$GPGGA,084815.00,5706.760492,N,00835.292643,E,1,06,1.1,3.8,M,44.0,M,,*6D
2097271B56F5_$GPGGA,084816.00,5706.759960,N,00835.290008,E,1,06,1.1,4.1,M,44.0,M,,*61
2097271B56F5_$GPGGA,084817.00,5706.759717,N,00835.288248,E,1,06,1.1,4.2,M,44.0,M,,*62
2097271B56F5_$GPGGA,084818.00,5706.759191,N,00835.286185,E,1,07,0.9,4.7,M,44.0,M,,*64
2097271B56F5_$GPGGA,084819.00,5706.759069,N,00835.284533,E,1,07,0.9,5.7,M,44.0,M,,*69
2097271B56F5_$GPGGA,084820.00,5706.758814,N,00835.283511,E,1,07,0.9,6.0,M,44.0,M,,*63
2097271B56F5_$GPGGA,084821.00,5706.758635,N,00835.282830,E,1,07,0.9,6.6,M,44.0,M,,*66
2097271B56F5_$GPGGA,084822.00,5706.758577,N,00835.282249,E,1,07,0.9,7.1,M,44.0,M,,*62
2097271B56F5_$GPGGA,084823.00,5706.758223,N,00835.280901,E,1,07,0.9,6.7,M,44.0,M,,*67
2097271B56F5_$GPGGA,084824.00,5706.757931,N,00835.279433,E,1,06,1.1,5.8,M,44.0,M,,*69
2097271B56F5_$GPGGA,084825.00,5706.757838,N,00835.278908,E,1,06,1.2,5.9,M,44.0,M,,*66
2097271B56F5_$GPGGA,084826.00,5706.757421,N,00835.277648,E,1,06,1.2,6.4,M,44.0,M,,*6B
2097271B56F5_$GPGGA,084827.00,5706.756771,N,00835.276238,E,1,07,1.0,6.3,M,44.0,M,,*6B
2097271B56F5_$GPGGA,084828.00,5706.755983,N,00835.275258,E,1,07,1.0,3.9,M,44.0,M,,*6E
2097271B56F5_$GPGGA,084829.00,5706.755158,N,00835.274487,E,1,07,1.0,4.2,M,44.0,M,,*68
2097271B56F5_$GPGGA,084830.00,5706.754274,N,00835.273908,E,1,07,1.0,2.9,M,44.0,M,,*6C
2097271B56F5_$GPGGA,084831.00,5706.753448,N,00835.273297,E,1,07,0.9,3.1,M,44.0,M,,*6F
2097271B56F5_$GPGGA,084832.00,5706.752665,N,00835.272698,E,1,07,0.9,3.1,M,44.0,M,,*6A
2097271B56F5_$GPGGA,084833.00,5706.751937,N,00835.272049,E,1,07,0.9,3.8,M,44.0,M,,*63
2097271B56F5_$GPGGA,084834.00,5706.751128,N,00835.271392,E,1,07,0.9,3.8,M,44.0,M,,*64
2097271B56F5_$GPGGA,084835.00,5706.750305,N,00835.270822,E,1,06,1.0,2.5,M,44.0,M,,*6D
2097271B56F5_$GPGGA,084836.00,5706.749518,N,00835.270377,E,1,06,1.0,3.1,M,44.0,M,,*62
2097271B56F5_$GPGGA,084837.00,5706.748742,N,00835.270007,E,1,06,1.0,2.9,M,44.0,M,,*62
2097271B56F5_$GPGGA,084838.00,5706.747969,N,00835.269565,E,1,06,1.0,2.1,M,44.0,M,,*64
2097271B56F5_$GPGGA,084839.00,5706.747172,N,00835.269048,E,1,06,1.0,0.4,M,44.0,M,,*6A
2097271B56F5_$GPGGA,084840.00,5706.746405,N,00835.268601,E,1,06,1.0,0.8,M,44.0,M,,*66
2097271B56F5_$GPGGA,084841.00,5706.745791,N,00835.268286,E,1,07,0.9,0.8,M,44.0,M,,*68
2097271B56F5_$GPGGA,084842.00,5706.745078,N,00835.268042,E,1,07,0.9,0.2,M,44.0,M,,*6B
2097271B56F5_$GPGGA,084843.00,5706.744386,N,00835.267809,E,1,07,0.9,1.0,M,44.0,M,,*62
2097271B56F5_$GPGGA,084844.00,5706.743788,N,00835.267506,E,1,07,0.9,1.9,M,44.0,M,,*63
2097271B56F5_$GPGGA,084845.00,5706.743200,N,00835.267087,E,1,07,0.9,1.5,M,44.0,M,,*67
2097271B56F5_$GPGGA,084846.00,5706.742768,N,00835.266711,E,1,07,0.9,1.1,M,44.0,M,,*63
2097271B56F5_$GPGGA,084847.00,5706.742595,N,00835.266610,E,1,07,0.9,1.2,M,44.0,M,,*61
2097271B56F5_$GPGGA,084848.00,5706.742772,N,00835.266609,E,1,07,0.9,0.9,M,44.0,M,,*67
2097271B56F5_$GPGGA,084849.00,5706.742842,N,00835.266641,E,1,07,0.9,0.8,M,44.0,M,,*67
2097271B56F5_$GPGGA,084850.00,5706.742854,N,00835.266866,E,1,07,0.9,1.0,M,44.0,M,,*6A
2097271B56F5_$GPGGA,084851.00,5706.742925,N,00835.266972,E,1,07,0.9,1.2,M,44.0,M,,*6A
2097271B56F5_$GPGGA,084852.00,5706.742975,N,00835.267196,E,1,07,0.9,1.2,M,44.0,M,,*6F
2097271B56F5_$GPGGA,084853.00,5706.743013,N,00835.267361,E,1,07,0.9,1.4,M,44.0,M,,*6A
2097271B56F5_$GPGGA,084854.00,5706.743069,N,00835.267547,E,1,07,0.9,1.7,M,44.0,M,,*61
2097271B56F5_$GPGGA,084855.00,5706.743078,N,00835.267674,E,1,07,0.9,2.0,M,44.0,M,,*67
2097271B56F5_$GPGGA,084856.00,5706.743051,N,00835.267766,E,1,07,0.9,2.0,M,44.0,M,,*6D
2097271B56F5_$GPGGA,084857.00,5706.743059,N,00835.267906,E,1,07,0.9,2.0,M,44.0,M,,*6C
2097271B56F5_$GPGGA,084858.00,5706.743114,N,00835.268071,E,1,07,0.9,2.2,M,44.0,M,,*6F
