2097271B56F5_$GPGGA,104322.00,5706.761828,N,00835.303277,E,1,11,0.6,4.8,M,44.0,M,,*6A
2097271B56F5_$GPGGA,104323.00,5706.761828,N,00835.303276,E,1,11,0.6,4.8,M,44.0,M,,*6A
2097271B56F5_$GPGGA,104324.00,5706.761829,N,00835.303276,E,1,11,0.6,4.8,M,44.0,M,,*6C
2097271B56F5_$GPGGA,104325.00,5706.761829,N,00835.303277,E,1,11,0.6,4.8,M,44.0,M,,*6C
2097271B56F5_$GPGGA,104326.00,5706.761829,N,00835.303277,E,1,11,0.6,4.8,M,44.0,M,,*6F
2097271B56F5_$GPGGA,104327.00,5706.761829,N,00835.303278,E,1,11,0.6,4.8,M,44.0,M,,*61
2097271B56F5_$GPGGA,104328.00,5706.761830,N,00835.303277,E,1,11,0.6,4.8,M,44.0,M,,*69
2097271B56F5_$GPGGA,104329.00,5706.761831,N,00835.303277,E,1,11,0.6,4.8,M,44.0,M,,*69
2097271B56F5_$GPGGA,104330.00,5706.761831,N,00835.303278,E,1,11,0.6,4.8,M,44.0,M,,*6E
2097271B56F5_$GPGGA,104331.00,5706.761831,N,00835.303278,E,1,12,0.6,4.8,M,44.0,M,,*6C
2097271B56F5_$GPGGA,104332.00,5706.761831,N,00835.303277,E,1,12,0.6,4.8,M,44.0,M,,*60
2097271B56F5_$GPGGA,104333.00,5706.761831,N,00835.303277,E,1,12,0.6,4.8,M,44.0,M,,*61
2097271B56F5_$GPGGA,104334.00,5706.761831,N,00835.303277,E,1,12,0.6,4.8,M,44.0,M,,*66
2097271B56F5_$GPGGA,104335.00,5706.761831,N,00835.303276,E,1,12,0.6,4.8,M,44.0,M,,*66
2097271B56F5_$GPGGA,104336.00,5706.761832,N,00835.303275,E,1,12,0.6,4.8,M,44.0,M,,*65
2097271B56F5_$GPGGA,104337.00,5706.761832,N,00835.303275,E,1,11,0.6,4.8,M,44.0,M,,*67
2097271B56F5_$GPGGA,104338.00,5706.761832,N,00835.303275,E,1,11,0.6,4.8,M,44.0,M,,*68
2097271B56F5_$GPGGA,104339.00,5706.761832,N,00835.303275,E,1,11,0.6,4.8,M,44.0,M,,*69
2097271B56F5_$GPGGA,104340.00,5706.761832,N,00835.303275,E,1,11,0.6,4.8,M,44.0,M,,*67
2097271B56F5_$GPGGA,104341.00,5706.761832,N,00835.303275,E,1,11,0.6,4.8,M,44.0,M,,*66
2097271B56F5_$GPGGA,104342.00,5706.761832,N,00835.303275,E,1,11,0.6,4.8,M,44.0,M,,*65
2097271B56F5_$GPGGA,104343.00,5706.761833,N,00835.303275,E,1,11,0.6,4.8,M,44.0,M,,*65
2097271B56F5_$GPGGA,104344.00,5706.761833,N,00835.303275,E,1,11,0.6,4.8,M,44.0,M,,*62
2097271B56F5_$GPGGA,104345.00,5706.761833,N,00835.303275,E,1,11,0.6,4.8,M,44.0,M,,*63
2097271B56F5_$GPGGA,104346.00,5706.761833,N,00835.303275,E,1,11,0.6,4.8,M,44.0,M,,*60
2097271B56F5_$GPGGA,104347.00,5706.761832,N,00835.303275,E,1,11,0.6,4.8,M,44.0,M,,*60
2097271B56F5_$GPGGA,104348.00,5706.761832,N,00835.303275,E,1,11,0.6,4.8,M,44.0,M,,*6F
2097271B56F5_$GPGGA,104349.00,5706.761832,N,00835.303274,E,1,11,0.6,4.8,M,44.0,M,,*6F
2097271B56F5_$GPGGA,104350.00,5706.761832,N,00835.303274,E,1,10,0.7,4.8,M,44.0,M,,*67
2097271B56F5_$GPGGA,104351.00,5706.761832,N,00835.303274,E,1,11,0.6,4.8,M,44.0,M,,*66
2097271B56F5_$GPGGA,104352.00,5706.761832,N,00835.303273,E,1,11,0.6,4.8,M,44.0,M,,*62
2097271B56F5_$GPGGA,104353.00,5706.761833,N,00835.303273,E,1,11,0.6,4.8,M,44.0,M,,*62
2097271B56F5_$GPGGA,104354.00,5706.761833,N,00835.303273,E,1,11,0.6,4.8,M,44.0,M,,*65
2097271B56F5_$GPGGA,104355.00,5706.761833,N,00835.303273,E,1,11,0.6,4.8,M,44.0,M,,*64
2097271B56F5_$GPGGA,104356.00,5706.761832,N,00835.303273,E,1,11,0.6,4.8,M,44.0,M,,*66
2097271B56F5_$GPGGA,104357.00,5706.761833,N,00835.303275,E,1,11,0.6,4.8,M,44.0,M,,*60
2097271B56F5_$GPGGA,104358.00,5706.761833,N,00835.303274,E,1,11,0.6,4.8,M,44.0,M,,*6E
2097271B56F5_$GPGGA,104359.00,5706.761832,N,00835.303274,E,1,11,0.6,4.8,M,44.0,M,,*6E
2097271B56F5_$GPGGA,104400.00,5706.761832,N,00835.303274,E,1,11,0.6,4.8,M,44.0,M,,*65
2097271B56F5_$GPGGA,104401.00,5706.761831,N,00835.303275,E,1,11,0.6,4.8,M,44.0,M,,*66
2097271B56F5_$GPGGA,104402.00,5706.761831,N,00835.303276,E,1,11,0.6,4.8,M,44.0,M,,*66
2097271B56F5_$GPGGA,104403.00,5706.761831,N,00835.303276,E,1,11,0.6,4.8,M,44.0,M,,*67
2097271B56F5_$GPGGA,104404.00,5706.761831,N,00835.303276,E,1,11,0.6,4.8,M,44.0,M,,*60
2097271B56F5_$GPGGA,104405.00,5706.761831,N,00835.303276,E,1,11,0.6,4.8,M,44.0,M,,*61
2097271B56F5_$GPGGA,104406.00,5706.761831,N,00835.303275,E,1,11,0.6,4.8,M,44.0,M,,*61
2097271B56F5_$GPGGA,104407.00,5706.761832,N,00835.303275,E,1,11,0.6,4.8,M,44.0,M,,*63
2097271B56F5_$GPGGA,104408.00,5706.761831,N,00835.303274,E,1,11,0.6,4.8,M,44.0,M,,*6E
2097271B56F5_$GPGGA,104409.00,5706.761831,N,00835.303275,E,1,11,0.6,4.8,M,44.0,M,,*6E
2097271B56F5_$GPGGA,104410.00,5706.761831,N,00835.303275,E,1,11,0.6,4.8,M,44.0,M,,*66
2097271B56F5_$GPGGA,104411.00,5706.761831,N,00835.303274,E,1,12,0.6,4.8,M,44.0,M,,*65
2097271B56F5_$GPGGA,104412.00,5706.761832,N,00835.303275,E,1,12,0.6,4.8,M,44.0,M,,*64
2097271B56F5_$GPGGA,104413.00,5706.761832,N,00835.303274,E,1,12,0.6,4.8,M,44.0,M,,*64
2097271B56F5_$GPGGA,104414.00,5706.761832,N,00835.303274,E,1,12,0.6,4.8,M,44.0,M,,*63
2097271B56F5_$GPGGA,104415.00,5706.761832,N,00835.303273,E,1,12,0.6,4.8,M,44.0,M,,*65
2097271B56F5_$GPGGA,104416.00,5706.761832,N,00835.303272,E,1,12,0.6,4.8,M,44.0,M,,*67
2097271B56F5_$GPGGA,104417.00,5706.761832,N,00835.303272,E,1,12,0.6,4.8,M,44.0,M,,*66
2097271B56F5_$GPGGA,104418.00,5706.761832,N,00835.303272,E,1,12,0.6,4.8,M,44.0,M,,*69
2097271B56F5_$GPGGA,104419.00,5706.761832,N,00835.303272,E,1,12,0.6,4.8,M,44.0,M,,*68
2097271B56F5_$GPGGA,104420.00,5706.761833,N,00835.303272,E,1,12,0.6,4.8,M,44.0,M,,*63
2097271B56F5_$GPGGA,104421.00,5706.761833,N,00835.303272,E,1,11,0.6,4.8,M,44.0,M,,*61
2097271B56F5_$GPGGA,104422.00,5706.761833,N,00835.303272,E,1,11,0.6,4.8,M,44.0,M,,*62
2097271B56F5_$GPGGA,104423.00,5706.761833,N,00835.303272,E,1,11,0.6,4.8,M,44.0,M,,*63
2097271B56F5_$GPGGA,104424.00,5706.761833,N,00835.303272,E,1,11,0.6,4.8,M,44.0,M,,*64
2097271B56F5_$GPGGA,104425.00,5706.761833,N,00835.303272,E,1,11,0.6,4.7,M,44.0,M,,*6A
2097271B56F5_$GPGGA,104426.00,5706.761833,N,00835.303273,E,1,11,0.6,4.7,M,44.0,M,,*68
2097271B56F5_$GPGGA,104427.00,5706.761833,N,00835.303273,E,1,11,0.6,4.7,M,44.0,M,,*69
2097271B56F5_$GPGGA,104428.00,5706.761833,N,00835.303273,E,1,11,0.6,4.7,M,44.0,M,,*66
2097271B56F5_$GPGGA,104429.00,5706.761833,N,00835.303273,E,1,11,0.6,4.7,M,44.0,M,,*67
2097271B56F5_$GPGGA,104430.00,5706.761833,N,00835.303273,E,1,11,0.6,4.7,M,44.0,M,,*6F
2097271B56F5_$GPGGA,104431.00,5706.761833,N,00835.303273,E,1,11,0.6,4.7,M,44.0,M,,*6E
2097271B56F5_$GPGGA,104432.00,5706.761833,N,00835.303273,E,1,11,0.6,4.7,M,44.0,M,,*6D
2097271B56F5_$GPGGA,104433.00,5706.761833,N,00835.303273,E,1,11,0.6,4.7,M,44.0,M,,*6C
2097271B56F5_$GPGGA,104434.00,5706.761833,N,00835.303274,E,1,11,0.6,4.7,M,44.0,M,,*6C
2097271B56F5_$GPGGA,104435.00,5706.761833,N,00835.303274,E,1,11,0.6,4.7,M,44.0,M,,*6D
2097271B56F5_$GPGGA,104436.00,5706.761833,N,00835.303273,E,1,11,0.6,4.7,M,44.0,M,,*69
2097271B56F5_$GPGGA,104437.00,5706.761833,N,00835.303273,E,1,11,0.6,4.7,M,44.0,M,,*68
2097271B56F5_$GPGGA,104438.00,5706.761833,N,00835.303273,E,1,11,0.6,4.7,M,44.0,M,,*67
2097271B56F5_$GPGGA,104439.00,5706.761833,N,00835.303273,E,1,11,0.6,4.7,M,44.0,M,,*66
2097271B56F5_$GPGGA,104440.00,5706.761833,N,00835.303273,E,1,11,0.6,4.7,M,44.0,M,,*68
2097271B56F5_$GPGGA,104441.00,5706.761833,N,00835.303272,E,1,11,0.6,4.7,M,44.0,M,,*68
2097271B56F5_$GPGGA,104442.00,5706.761833,N,00835.303272,E,1,11,0.6,4.7,M,44.0,M,,*6B
2097271B56F5_$GPGGA,104443.00,5706.761833,N,00835.303272,E,1,10,0.6,4.7,M,44.0,M,,*6B
2097271B56F5_$GPGGA,104444.00,5706.761833,N,00835.303272,E,1,11,0.6,4.7,M,44.0,M,,*6D
2097271B56F5_$GPGGA,104445.00,5706.761833,N,00835.303271,E,1,11,0.6,4.7,M,44.0,M,,*6F
2097271B56F5_$GPGGA,104446.00,5706.761833,N,00835.303271,E,1,11,0.6,4.7,M,44.0,M,,*6C
2097271B56F5_$GPGGA,104447.00,5706.761833,N,00835.303271,E,1,11,0.6,4.7,M,44.0,M,,*6D
2097271B56F5_$GPGGA,104448.00,5706.761833,N,00835.303272,E,1,11,0.6,4.7,M,44.0,M,,*61
2097271B56F5_$GPGGA,104449.00,5706.761833,N,00835.303272,E,1,11,0.6,4.7,M,44.0,M,,*60
2097271B56F5_$GPGGA,104450.00,5706.761834,N,00835.303273,E,1,11,0.6,4.7,M,44.0,M,,*6E
2097271B56F5_$GPGGA,104451.00,5706.761834,N,00835.303273,E,1,11,0.6,4.7,M,44.0,M,,*6F
2097271B56F5_$GPGGA,104452.00,5706.761834,N,00835.303273,E,1,11,0.6,4.7,M,44.0,M,,*6C
2097271B56F5_$GPGGA,104453.00,5706.761834,N,00835.303274,E,1,11,0.6,4.7,M,44.0,M,,*6A
2097271B56F5_$GPGGA,104454.00,5706.761834,N,00835.303273,E,1,11,0.6,4.7,M,44.0,M,,*6A
2097271B56F5_$GPGGA,104455.00,5706.761835,N,00835.303273,E,1,11,0.6,4.7,M,44.0,M,,*6A
2097271B56F5_$GPGGA,104456.00,5706.761835,N,00835.303273,E,1,11,0.6,4.7,M,44.0,M,,*69
2097271B56F5_$GPGGA,104457.00,5706.761835,N,00835.303271,E,1,11,0.6,4.7,M,44.0,M,,*6A
2097271B56F5_$GPGGA,104458.00,5706.761836,N,00835.303269,E,1,11,0.6,4.7,M,44.0,M,,*6F
2097271B56F5_$GPGGA,104459.00,5706.761836,N,00835.303269,E,1,11,0.6,4.7,M,44.0,M,,*6E
2097271B56F5_$GPGGA,104500.00,5706.761837,N,00835.303269,E,1,11,0.6,4.7,M,44.0,M,,*62
2097271B56F5_$GPGGA,104501.00,5706.761836,N,00835.303270,E,1,11,0.6,4.7,M,44.0,M,,*6A
2097271B56F5_$GPGGA,104502.00,5706.761837,N,00835.303270,E,1,11,0.6,4.7,M,44.0,M,,*68
2097271B56F5_$GPGGA,104503.00,5706.761837,N,00835.303270,E,1,11,0.6,4.7,M,44.0,M,,*69
2097271B56F5_$GPGGA,104504.00,5706.761837,N,00835.303270,E,1,11,0.6,4.7,M,44.0,M,,*6E
2097271B56F5_$GPGGA,104505.00,5706.761837,N,00835.303270,E,1,11,0.6,4.7,M,44.0,M,,*6F
2097271B56F5_$GPGGA,104506.00,5706.761838,N,00835.303269,E,1,11,0.6,4.7,M,44.0,M,,*6B
2097271B56F5_$GPGGA,104507.00,5706.761838,N,00835.303269,E,1,11,0.6,4.7,M,44.0,M,,*6A
2097271B56F5_$GPGGA,104508.00,5706.761839,N,00835.303270,E,1,11,0.6,4.7,M,44.0,M,,*6C
2097271B56F5_$GPGGA,104509.00,5706.761840,N,00835.303270,E,1,11,0.6,4.7,M,44.0,M,,*63
2097271B56F5_$GPGGA,104510.00,5706.761840,N,00835.303270,E,1,11,0.6,4.7,M,44.0,M,,*6B
2097271B56F5_$GPGGA,104511.00,5706.761840,N,00835.303270,E,1,11,0.6,4.7,M,44.0,M,,*6A
2097271B56F5_$GPGGA,104512.00,5706.761841,N,00835.303271,E,1,12,0.6,4.7,M,44.0,M,,*6A
2097271B56F5_$GPGGA,104513.00,5706.761842,N,00835.303271,E,1,12,0.6,4.7,M,44.0,M,,*68
2097271B56F5_$GPGGA,104514.00,5706.761843,N,00835.303272,E,1,12,0.6,4.7,M,44.0,M,,*6D
2097271B56F5_$GPGGA,104515.00,5706.761843,N,00835.303272,E,1,12,0.6,4.7,M,44.0,M,,*6C
2097271B56F5_$GPGGA,104516.00,5706.761842,N,00835.303272,E,1,12,0.6,4.7,M,44.0,M,,*6E
2097271B56F5_$GPGGA,104517.00,5706.761842,N,00835.303274,E,1,12,0.6,4.7,M,44.0,M,,*69
2097271B56F5_$GPGGA,104518.00,5706.761842,N,00835.303273,E,1,12,0.6,4.7,M,44.0,M,,*61
2097271B56F5_$GPGGA,104519.00,5706.761842,N,00835.303273,E,1,12,0.6,4.7,M,44.0,M,,*60
2097271B56F5_$GPGGA,104520.00,5706.761842,N,00835.303273,E,1,12,0.6,4.7,M,44.0,M,,*6A
2097271B56F5_$GPGGA,104521.00,5706.761842,N,00835.303274,E,1,12,0.6,4.7,M,44.0,M,,*6C
2097271B56F5_$GPGGA,104522.00,5706.761842,N,00835.303274,E,1,12,0.6,4.7,M,44.0,M,,*6F
2097271B56F5_$GPGGA,104523.00,5706.761842,N,00835.303274,E,1,12,0.6,4.7,M,44.0,M,,*6E
2097271B56F5_$GPGGA,104524.00,5706.761843,N,00835.303274,E,1,12,0.6,4.7,M,44.0,M,,*68
2097271B56F5_$GPGGA,104525.00,5706.761844,N,00835.303274,E,1,12,0.6,4.7,M,44.0,M,,*6E
2097271B56F5_$GPGGA,104526.00,5706.761844,N,00835.303275,E,1,12,0.6,4.7,M,44.0,M,,*6C
2097271B56F5_$GPGGA,104527.00,5706.761844,N,00835.303275,E,1,12,0.6,4.7,M,44.0,M,,*6D
2097271B56F5_$GPGGA,104528.00,5706.761844,N,00835.303276,E,1,12,0.6,4.7,M,44.0,M,,*61
2097271B56F5_$GPGGA,104529.00,5706.761844,N,00835.303276,E,1,12,0.6,4.7,M,44.0,M,,*60
2097271B56F5_$GPGGA,104530.00,5706.761844,N,00835.303277,E,1,12,0.6,4.7,M,44.0,M,,*69
2097271B56F5_$GPGGA,104531.00,5706.761844,N,00835.303277,E,1,12,0.6,4.7,M,44.0,M,,*68
2097271B56F5_$GPGGA,104532.00,5706.761844,N,00835.303278,E,1,12,0.6,4.7,M,44.0,M,,*64
2097271B56F5_$GPGGA,104533.00,5706.761844,N,00835.303277,E,1,12,0.6,4.7,M,44.0,M,,*6A
2097271B56F5_$GPGGA,104534.00,5706.761844,N,00835.303278,E,1,12,0.6,4.7,M,44.0,M,,*62
2097271B56F5_$GPGGA,104535.00,5706.761844,N,00835.303278,E,1,12,0.6,4.7,M,44.0,M,,*63
2097271B56F5_$GPGGA,104536.00,5706.761844,N,00835.303278,E,1,12,0.6,4.7,M,44.0,M,,*60
2097271B56F5_$GPGGA,104537.00,5706.761844,N,00835.303279,E,1,12,0.6,4.7,M,44.0,M,,*60
2097271B56F5_$GPGGA,104538.00,5706.761845,N,00835.303279,E,1,12,0.6,4.7,M,44.0,M,,*6E
2097271B56F5_$GPGGA,104539.00,5706.761845,N,00835.303279,E,1,12,0.6,4.7,M,44.0,M,,*6F
2097271B56F5_$GPGGA,104540.00,5706.761845,N,00835.303278,E,1,12,0.6,4.7,M,44.0,M,,*60
2097271B56F5_$GPGGA,104541.00,5706.761845,N,00835.303279,E,1,12,0.6,4.7,M,44.0,M,,*60
2097271B56F5_$GPGGA,104542.00,5706.761845,N,00835.303280,E,1,12,0.6,4.8,M,44.0,M,,*6A
2097271B56F5_$GPGGA,104543.00,5706.761845,N,00835.303279,E,1,12,0.6,4.8,M,44.0,M,,*6D
2097271B56F5_$GPGGA,104544.00,5706.761845,N,00835.303279,E,1,12,0.6,4.7,M,44.0,M,,*65
2097271B56F5_$GPGGA,104545.00,5706.761845,N,00835.303278,E,1,12,0.6,4.7,M,44.0,M,,*65
2097271B56F5_$GPGGA,104546.00,5706.761845,N,00835.303278,E,1,12,0.6,4.7,M,44.0,M,,*66
2097271B56F5_$GPGGA,104547.00,5706.761845,N,00835.303277,E,1,12,0.6,4.8,M,44.0,M,,*67
2097271B56F5_$GPGGA,104548.00,5706.761845,N,00835.303277,E,1,12,0.6,4.8,M,44.0,M,,*68
2097271B56F5_$GPGGA,104549.00,5706.761845,N,00835.303276,E,1,12,0.6,4.8,M,44.0,M,,*68
2097271B56F5_$GPGGA,104550.00,5706.761845,N,00835.303276,E,1,12,0.6,4.8,M,44.0,M,,*60
2097271B56F5_$GPGGA,104551.00,5706.761845,N,00835.303275,E,1,12,0.6,4.7,M,44.0,M,,*6D
2097271B56F5_$GPGGA,104552.00,5706.761845,N,00835.303275,E,1,12,0.6,4.7,M,44.0,M,,*6E
2097271B56F5_$GPGGA,104553.00,5706.761846,N,00835.303275,E,1,12,0.6,4.7,M,44.0,M,,*6C
2097271B56F5_$GPGGA,104554.00,5706.761845,N,00835.303276,E,1,12,0.6,4.7,M,44.0,M,,*6B
2097271B56F5_$GPGGA,104555.00,5706.761846,N,00835.303276,E,1,12,0.6,4.7,M,44.0,M,,*69
2097271B56F5_$GPGGA,104556.00,5706.761845,N,00835.303276,E,1,12,0.6,4.7,M,44.0,M,,*69
2097271B56F5_$GPGGA,104557.00,5706.761845,N,00835.303275,E,1,12,0.6,4.7,M,44.0,M,,*6B
2097271B56F5_$GPGGA,104558.00,5706.761845,N,00835.303274,E,1,12,0.6,4.7,M,44.0,M,,*65
2097271B56F5_$GPGGA,104559.00,5706.761846,N,00835.303274,E,1,12,0.6,4.7,M,44.0,M,,*67
2097271B56F5_$GPGGA,104600.00,5706.761847,N,00835.303273,E,1,12,0.6,4.7,M,44.0,M,,*6E
2097271B56F5_$GPGGA,104601.00,5706.761847,N,00835.303272,E,1,12,0.6,4.7,M,44.0,M,,*6E
2097271B56F5_$GPGGA,104602.00,5706.761848,N,00835.303271,E,1,12,0.6,4.7,M,44.0,M,,*61
2097271B56F5_$GPGGA,104603.00,5706.761849,N,00835.303271,E,1,12,0.6,4.8,M,44.0,M,,*6E
2097271B56F5_$GPGGA,104604.00,5706.761850,N,00835.303269,E,1,12,0.6,4.8,M,44.0,M,,*68
2097271B56F5_$GPGGA,104605.00,5706.761850,N,00835.303269,E,1,12,0.6,4.8,M,44.0,M,,*69
2097271B56F5_$GPGGA,104606.00,5706.761850,N,00835.303270,E,1,12,0.6,4.8,M,44.0,M,,*62
2097271B56F5_$GPGGA,104607.00,5706.761850,N,00835.303270,E,1,12,0.6,4.8,M,44.0,M,,*63
2097271B56F5_$GPGGA,104608.00,5706.761851,N,00835.303270,E,1,12,0.6,4.8,M,44.0,M,,*6D
2097271B56F5_$GPGGA,104609.00,5706.761850,N,00835.303270,E,1,12,0.6,4.7,M,44.0,M,,*62
2097271B56F5_$GPGGA,104610.00,5706.761850,N,00835.303270,E,1,12,0.6,4.7,M,44.0,M,,*6A
2097271B56F5_$GPGGA,104611.00,5706.761850,N,00835.303270,E,1,12,0.6,4.7,M,44.0,M,,*6B
2097271B56F5_$GPGGA,104612.00,5706.761850,N,00835.303270,E,1,12,0.6,4.7,M,44.0,M,,*68
2097271B56F5_$GPGGA,104613.00,5706.761851,N,00835.303270,E,1,12,0.6,4.7,M,44.0,M,,*68
2097271B56F5_$GPGGA,104614.00,5706.761851,N,00835.303269,E,1,12,0.6,4.7,M,44.0,M,,*67
2097271B56F5_$GPGGA,104615.00,5706.761851,N,00835.303269,E,1,12,0.6,4.7,M,44.0,M,,*66
2097271B56F5_$GPGGA,104616.00,5706.761851,N,00835.303269,E,1,12,0.6,4.7,M,44.0,M,,*65
2097271B56F5_$GPGGA,104617.00,5706.761851,N,00835.303269,E,1,12,0.6,4.7,M,44.0,M,,*64
2097271B56F5_$GPGGA,104618.00,5706.761851,N,00835.303269,E,1,12,0.6,4.7,M,44.0,M,,*6B
2097271B56F5_$GPGGA,104619.00,5706.761851,N,00835.303268,E,1,12,0.6,4.7,M,44.0,M,,*6B
2097271B56F5_$GPGGA,104620.00,5706.761851,N,00835.303269,E,1,12,0.6,4.7,M,44.0,M,,*60
2097271B56F5_$GPGGA,104621.00,5706.761851,N,00835.303269,E,1,12,0.6,4.7,M,44.0,M,,*61
2097271B56F5_$GPGGA,104622.00,5706.761852,N,00835.303268,E,1,12,0.6,4.7,M,44.0,M,,*60
2097271B56F5_$GPGGA,104623.00,5706.761853,N,00835.303268,E,1,12,0.6,4.7,M,44.0,M,,*60
2097271B56F5_$GPGGA,104624.00,5706.761853,N,00835.303267,E,1,12,0.6,4.7,M,44.0,M,,*68
2097271B56F5_$GPGGA,104625.00,5706.761853,N,00835.303267,E,1,12,0.6,4.7,M,44.0,M,,*69
2097271B56F5_$GPGGA,104626.00,5706.761854,N,00835.303266,E,1,12,0.6,4.7,M,44.0,M,,*6C
2097271B56F5_$GPGGA,104627.00,5706.761855,N,00835.303266,E,1,12,0.6,4.8,M,44.0,M,,*63
2097271B56F5_$GPGGA,104628.00,5706.761856,N,00835.303266,E,1,12,0.6,4.8,M,44.0,M,,*6F
2097271B56F5_$GPGGA,104629.00,5706.761855,N,00835.303266,E,1,12,0.6,4.8,M,44.0,M,,*6D
2097271B56F5_$GPGGA,104630.00,5706.761855,N,00835.303267,E,1,12,0.6,4.8,M,44.0,M,,*64
2097271B56F5_$GPGGA,104631.00,5706.761856,N,00835.303267,E,1,12,0.6,4.8,M,44.0,M,,*66
2097271B56F5_$GPGGA,104632.00,5706.761857,N,00835.303267,E,1,12,0.6,4.8,M,44.0,M,,*64
2097271B56F5_$GPGGA,104633.00,5706.761857,N,00835.303266,E,1,12,0.6,4.8,M,44.0,M,,*64
2097271B56F5_$GPGGA,104634.00,5706.761857,N,00835.303266,E,1,12,0.6,4.8,M,44.0,M,,*63
2097271B56F5_$GPGGA,104635.00,5706.761857,N,00835.303266,E,1,12,0.6,4.8,M,44.0,M,,*62
2097271B56F5_$GPGGA,104636.00,5706.761858,N,00835.303265,E,1,12,0.6,4.8,M,44.0,M,,*6D
2097271B56F5_$GPGGA,104637.00,5706.761858,N,00835.303264,E,1,12,0.6,4.8,M,44.0,M,,*6D
2097271B56F5_$GPGGA,104638.00,5706.761859,N,00835.303264,E,1,12,0.6,4.8,M,44.0,M,,*63
2097271B56F5_$GPGGA,104639.00,5706.761859,N,00835.303264,E,1,12,0.6,4.8,M,44.0,M,,*62
2097271B56F5_$GPGGA,104640.00,5706.761860,N,00835.303263,E,1,12,0.6,4.8,M,44.0,M,,*61
2097271B56F5_$GPGGA,104641.00,5706.761861,N,00835.303263,E,1,12,0.6,4.8,M,44.0,M,,*61
2097271B56F5_$GPGGA,104642.00,5706.761860,N,00835.303263,E,1,12,0.6,4.8,M,44.0,M,,*63
2097271B56F5_$GPGGA,104643.00,5706.761860,N,00835.303262,E,1,12,0.6,4.8,M,44.0,M,,*63
2097271B56F5_$GPGGA,104644.00,5706.761861,N,00835.303262,E,1,12,0.6,4.8,M,44.0,M,,*65
2097271B56F5_$GPGGA,104645.00,5706.761860,N,00835.303262,E,1,12,0.6,4.8,M,44.0,M,,*65
2097271B56F5_$GPGGA,104646.00,5706.761860,N,00835.303262,E,1,12,0.6,4.8,M,44.0,M,,*66
2097271B56F5_$GPGGA,104647.00,5706.761860,N,00835.303261,E,1,12,0.6,4.8,M,44.0,M,,*64
2097271B56F5_$GPGGA,104648.00,5706.761860,N,00835.303261,E,1,11,0.7,4.8,M,44.0,M,,*69
2097271B56F5_$GPGGA,104649.00,5706.761860,N,00835.303261,E,1,11,0.7,4.8,M,44.0,M,,*68
2097271B56F5_$GPGGA,104650.00,5706.761860,N,00835.303261,E,1,12,0.6,4.8,M,44.0,M,,*62
2097271B56F5_$GPGGA,104651.00,5706.761860,N,00835.303260,E,1,11,0.6,4.8,M,44.0,M,,*61
2097271B56F5_$GPGGA,104652.00,5706.761859,N,00835.303260,E,1,11,0.6,4.8,M,44.0,M,,*68
2097271B56F5_$GPGGA,104653.00,5706.761859,N,00835.303259,E,1,10,0.6,4.8,M,44.0,M,,*62
2097271B56F5_$GPGGA,104654.00,5706.761859,N,00835.303259,E,1,11,0.6,4.8,M,44.0,M,,*64
2097271B56F5_$GPGGA,104655.00,5706.761859,N,00835.303259,E,1,11,0.6,4.8,M,44.0,M,,*65
2097271B56F5_$GPGGA,104656.00,5706.761859,N,00835.303259,E,1,12,0.6,4.8,M,44.0,M,,*65
2097271B56F5_$GPGGA,104657.00,5706.761859,N,00835.303259,E,1,12,0.6,4.8,M,44.0,M,,*64
2097271B56F5_$GPGGA,104658.00,5706.761859,N,00835.303258,E,1,12,0.6,4.8,M,44.0,M,,*6A
2097271B56F5_$GPGGA,104659.00,5706.761859,N,00835.303258,E,1,12,0.6,4.8,M,44.0,M,,*6B
2097271B56F5_$GPGGA,104700.00,5706.761859,N,00835.303257,E,1,12,0.6,4.8,M,44.0,M,,*69
2097271B56F5_$GPGGA,104701.00,5706.761858,N,00835.303257,E,1,09,0.8,4.8,M,44.0,M,,*6D
2097271B56F5_$GPGGA,104702.00,5706.761858,N,00835.303257,E,1,07,0.9,4.8,M,44.0,M,,*61
2097271B56F5_$GPGGA,104703.00,5706.760397,N,00835.299667,E,1,07,0.9,4.6,M,44.0,M,,*62
2097271B56F5_$GPGGA,104704.00,5706.759866,N,00835.295533,E,1,08,0.8,3.1,M,44.0,M,,*6A
2097271B56F5_$GPGGA,104705.00,5706.759576,N,00835.292380,E,1,09,0.8,4.7,M,44.0,M,,*6E
2097271B56F5_$GPGGA,104706.00,5706.758920,N,00835.290841,E,1,09,0.8,4.1,M,44.0,M,,*61
2097271B56F5_$GPGGA,104707.00,5706.758048,N,00835.287686,E,1,11,0.6,4.3,M,44.0,M,,*61
2097271B56F5_$GPGGA,104708.00,5706.757633,N,00835.285877,E,1,12,0.6,6.0,M,44.0,M,,*6B
2097271B56F5_$GPGGA,104709.00,5706.756962,N,00835.283703,E,1,12,0.6,5.3,M,44.0,M,,*6A
2097271B56F5_$GPGGA,104710.00,5706.755870,N,00835.281525,E,1,11,0.7,3.7,M,44.0,M,,*67
2097271B56F5_$GPGGA,104711.00,5706.756256,N,00835.278836,E,1,11,0.7,6.7,M,44.0,M,,*67
2097271B56F5_$GPGGA,104712.00,5706.755405,N,00835.276064,E,1,10,0.7,7.1,M,44.0,M,,*60
2097271B56F5_$GPGGA,104713.00,5706.754807,N,00835.275076,E,1,09,0.7,6.7,M,44.0,M,,*61
2097271B56F5_$GPGGA,104714.00,5706.754386,N,00835.274363,E,1,09,0.7,6.1,M,44.0,M,,*64
2097271B56F5_$GPGGA,104715.00,5706.754010,N,00835.273415,E,1,09,0.7,6.3,M,44.0,M,,*6A
2097271B56F5_$GPGGA,104716.00,5706.753398,N,00835.272645,E,1,10,0.7,6.3,M,44.0,M,,*63
2097271B56F5_$GPGGA,104717.00,5706.752616,N,00835.272325,E,1,09,0.8,6.0,M,44.0,M,,*67
2097271B56F5_$GPGGA,104718.00,5706.751823,N,00835.272280,E,1,09,0.8,6.1,M,44.0,M,,*6C
2097271B56F5_$GPGGA,104719.00,5706.750637,N,00835.271731,E,1,10,0.7,5.5,M,44.0,M,,*6B
2097271B56F5_$GPGGA,104720.00,5706.749699,N,00835.271266,E,1,11,0.7,5.5,M,44.0,M,,*6B
2097271B56F5_$GPGGA,104721.00,5706.749060,N,00835.270750,E,1,11,0.7,5.6,M,44.0,M,,*68
2097271B56F5_$GPGGA,104722.00,5706.748215,N,00835.270456,E,1,11,0.7,5.2,M,44.0,M,,*6B
2097271B56F5_$GPGGA,104723.00,5706.747200,N,00835.270064,E,1,11,0.6,6.0,M,44.0,M,,*64
2097271B56F5_$GPGGA,104724.00,5706.745980,N,00835.269468,E,1,11,0.6,5.7,M,44.0,M,,*66
2097271B56F5_$GPGGA,104725.00,5706.744894,N,00835.269049,E,1,10,0.7,4.6,M,44.0,M,,*65
2097271B56F5_$GPGGA,104726.00,5706.743945,N,00835.268479,E,1,08,0.8,4.6,M,44.0,M,,*6C
2097271B56F5_$GPGGA,104727.00,5706.743402,N,00835.267941,E,1,09,0.7,4.3,M,44.0,M,,*61
2097271B56F5_$GPGGA,104728.00,5706.743180,N,00835.267797,E,1,12,0.6,4.2,M,44.0,M,,*6E
2097271B56F5_$GPGGA,104729.00,5706.743207,N,00835.267939,E,1,12,0.6,4.6,M,44.0,M,,*6D
2097271B56F5_$GPGGA,104730.00,5706.743045,N,00835.267812,E,1,12,0.6,4.5,M,44.0,M,,*6A
2097271B56F5_$GPGGA,104731.00,5706.742881,N,00835.267668,E,1,12,0.6,4.3,M,44.0,M,,*6F
2097271B56F5_$GPGGA,104732.00,5706.742642,N,00835.267795,E,1,12,0.6,4.7,M,44.0,M,,*6A
2097271B56F5_$GPGGA,104733.00,5706.742651,N,00835.267902,E,1,12,0.6,5.8,M,44.0,M,,*67
2097271B56F5_$GPGGA,104734.00,5706.742701,N,00835.267772,E,1,12,0.6,5.1,M,44.0,M,,*64
2097271B56F5_$GPGGA,104735.00,5706.742743,N,00835.267506,E,1,12,0.6,5.2,M,44.0,M,,*61
2097271B56F5_$GPGGA,104736.00,5706.742648,N,00835.267558,E,1,12,0.6,4.7,M,44.0,M,,*67
2097271B56F5_$GPGGA,104737.00,5706.742552,N,00835.267564,E,1,12,0.6,4.7,M,44.0,M,,*61
2097271B56F5_$GPGGA,104738.00,5706.742495,N,00835.267697,E,1,12,0.6,4.4,M,44.0,M,,*68
2097271B56F5_$GPGGA,104739.00,5706.742543,N,00835.267801,E,1,12,0.6,4.9,M,44.0,M,,*6F
2097271B56F5_$GPGGA,104740.00,5706.742551,N,00835.267862,E,1,11,0.7,5.1,M,44.0,M,,*6C
2097271B56F5_$GPGGA,104741.00,5706.742508,N,00835.267958,E,1,11,0.7,4.7,M,44.0,M,,*6E
2097271B56F5_$GPGGA,104742.00,5706.742495,N,00835.268012,E,1,11,0.7,4.7,M,44.0,M,,*60
2097271B56F5_$GPGGA,104743.00,5706.742476,N,00835.268022,E,1,11,0.7,4.6,M,44.0,M,,*6E
2097271B56F5_$GPGGA,104744.00,5706.742466,N,00835.268026,E,1,11,0.7,4.6,M,44.0,M,,*6C
2097271B56F5_$GPGGA,104745.00,5706.742467,N,00835.268032,E,1,11,0.7,4.6,M,44.0,M,,*69
2097271B56F5_$GPGGA,104746.00,5706.742479,N,00835.268042,E,1,12,0.6,4.7,M,44.0,M,,*61
2097271B56F5_$GPGGA,104747.00,5706.742482,N,00835.268042,E,1,12,0.6,4.7,M,44.0,M,,*64
2097271B56F5_$GPGGA,104748.00,5706.742480,N,00835.268037,E,1,12,0.6,4.7,M,44.0,M,,*6B
2097271B56F5_$GPGGA,104749.00,5706.742489,N,00835.268046,E,1,12,0.6,4.7,M,44.0,M,,*65
2097271B56F5_$GPGGA,104750.00,5706.742494,N,00835.268051,E,1,12,0.6,4.7,M,44.0,M,,*67
2097271B56F5_$GPGGA,104751.00,5706.742501,N,00835.268058,E,1,12,0.6,4.7,M,44.0,M,,*62
2097271B56F5_$GPGGA,104752.00,5706.742504,N,00835.268061,E,1,11,0.7,4.7,M,44.0,M,,*6C
2097271B56F5_$GPGGA,104753.00,5706.742505,N,00835.268061,E,1,11,0.7,4.7,M,44.0,M,,*6C
2097271B56F5_$GPGGA,104754.00,5706.742504,N,00835.268060,E,1,11,0.7,4.7,M,44.0,M,,*6B
2097271B56F5_$GPGGA,104755.00,5706.742503,N,00835.268060,E,1,11,0.7,4.7,M,44.0,M,,*6D
2097271B56F5_$GPGGA,104756.00,5706.742502,N,00835.268060,E,1,11,0.7,4.7,M,44.0,M,,*6F
2097271B56F5_$GPGGA,104757.00,5706.742501,N,00835.268060,E,1,11,0.7,4.7,M,44.0,M,,*6D
2097271B56F5_$GPGGA,104758.00,5706.742501,N,00835.268060,E,1,11,0.7,4.7,M,44.0,M,,*62
2097271B56F5_$GPGGA,104759.00,5706.742500,N,00835.268060,E,1,11,0.7,4.7,M,44.0,M,,*62
2097271B56F5_$GPGGA,104800.00,5706.742499,N,00835.268062,E,1,11,0.7,4.7,M,44.0,M,,*62
2097271B56F5_$GPGGA,104801.00,5706.742498,N,00835.268063,E,1,11,0.7,4.7,M,44.0,M,,*63
2097271B56F5_$GPGGA,104802.00,5706.742497,N,00835.268063,E,1,11,0.7,4.7,M,44.0,M,,*6F
2097271B56F5_$GPGGA,104803.00,5706.742497,N,00835.268064,E,1,11,0.7,4.7,M,44.0,M,,*69
2097271B56F5_$GPGGA,104804.00,5706.742497,N,00835.268062,E,1,11,0.7,4.7,M,44.0,M,,*68
2097271B56F5_$GPGGA,104805.00,5706.742497,N,00835.268062,E,1,11,0.7,4.7,M,44.0,M,,*69
2097271B56F5_$GPGGA,104806.00,5706.742495,N,00835.268062,E,1,11,0.7,4.7,M,44.0,M,,*68
2097271B56F5_$GPGGA,104807.00,5706.742494,N,00835.268062,E,1,11,0.7,4.7,M,44.0,M,,*68
2097271B56F5_$GPGGA,104808.00,5706.742491,N,00835.268060,E,1,11,0.7,4.7,M,44.0,M,,*60
2097271B56F5_$GPGGA,104809.00,5706.742490,N,00835.268059,E,1,11,0.7,4.7,M,44.0,M,,*6A
2097271B56F5_$GPGGA,104810.00,5706.742489,N,00835.268058,E,1,11,0.7,4.7,M,44.0,M,,*6B
2097271B56F5_$GPGGA,104811.00,5706.742488,N,00835.268057,E,1,11,0.7,4.7,M,44.0,M,,*64
2097271B56F5_$GPGGA,104812.00,5706.742489,N,00835.268057,E,1,11,0.7,4.7,M,44.0,M,,*66
2097271B56F5_$GPGGA,104813.00,5706.742490,N,00835.268056,E,1,11,0.7,4.7,M,44.0,M,,*6E
2097271B56F5_$GPGGA,104814.00,5706.742490,N,00835.268055,E,1,11,0.7,4.7,M,44.0,M,,*6A
2097271B56F5_$GPGGA,104815.00,5706.742491,N,00835.268056,E,1,11,0.7,4.8,M,44.0,M,,*66
2097271B56F5_$GPGGA,104816.00,5706.742491,N,00835.268057,E,1,11,0.7,4.8,M,44.0,M,,*64
2097271B56F5_$GPGGA,104817.00,5706.742490,N,00835.268058,E,1,11,0.7,4.8,M,44.0,M,,*6B
2097271B56F5_$GPGGA,104818.00,5706.742488,N,00835.268058,E,1,11,0.7,4.7,M,44.0,M,,*62
2097271B56F5_$GPGGA,104819.00,5706.742487,N,00835.268057,E,1,11,0.7,4.7,M,44.0,M,,*63
2097271B56F5_$GPGGA,104820.00,5706.742486,N,00835.268057,E,1,11,0.7,4.7,M,44.0,M,,*68
2097271B56F5_$GPGGA,104821.00,5706.742485,N,00835.268056,E,1,11,0.7,4.7,M,44.0,M,,*6B
2097271B56F5_$GPGGA,104822.00,5706.742485,N,00835.268054,E,1,11,0.7,4.7,M,44.0,M,,*6A
2097271B56F5_$GPGGA,104823.00,5706.742486,N,00835.268054,E,1,11,0.7,4.7,M,44.0,M,,*68
2097271B56F5_$GPGGA,104824.00,5706.742486,N,00835.268054,E,1,11,0.7,4.7,M,44.0,M,,*6F
2097271B56F5_$GPGGA,104825.00,5706.742486,N,00835.268053,E,1,11,0.7,4.7,M,44.0,M,,*69
2097271B56F5_$GPGGA,104826.00,5706.742486,N,00835.268053,E,1,11,0.7,4.8,M,44.0,M,,*65
2097271B56F5_$GPGGA,104827.00,5706.742486,N,00835.268052,E,1,11,0.7,4.7,M,44.0,M,,*6A
2097271B56F5_$GPGGA,104828.00,5706.742486,N,00835.268052,E,1,11,0.7,4.8,M,44.0,M,,*6A
2097271B56F5_$GPGGA,104829.00,5706.742486,N,00835.268052,E,1,11,0.7,4.8,M,44.0,M,,*6B
2097271B56F5_$GPGGA,104830.00,5706.742487,N,00835.268053,E,1,11,0.7,4.8,M,44.0,M,,*63
2097271B56F5_$GPGGA,104831.00,5706.742488,N,00835.268054,E,1,11,0.7,4.8,M,44.0,M,,*6A
2097271B56F5_$GPGGA,104832.00,5706.742488,N,00835.268054,E,1,11,0.7,4.8,M,44.0,M,,*69
2097271B56F5_$GPGGA,104833.00,5706.742489,N,00835.268055,E,1,11,0.7,4.8,M,44.0,M,,*68
2097271B56F5_$GPGGA,104834.00,5706.742490,N,00835.268057,E,1,11,0.7,4.8,M,44.0,M,,*65
2097271B56F5_$GPGGA,104835.00,5706.742491,N,00835.268058,E,1,11,0.7,4.8,M,44.0,M,,*6A
2097271B56F5_$GPGGA,104836.00,5706.742492,N,00835.268058,E,1,11,0.7,4.8,M,44.0,M,,*6A
2097271B56F5_$GPGGA,104837.00,5706.742492,N,00835.268061,E,1,11,0.7,4.8,M,44.0,M,,*61
2097271B56F5_$GPGGA,104838.00,5706.742493,N,00835.268062,E,1,11,0.7,4.8,M,44.0,M,,*6C
2097271B56F5_$GPGGA,104839.00,5706.742493,N,00835.268064,E,1,11,0.7,4.8,M,44.0,M,,*6B
2097271B56F5_$GPGGA,104840.00,5706.742494,N,00835.268064,E,1,11,0.7,4.8,M,44.0,M,,*62
2097271B56F5_$GPGGA,104841.00,5706.742494,N,00835.268065,E,1,11,0.7,4.8,M,44.0,M,,*62
2097271B56F5_$GPGGA,104842.00,5706.742494,N,00835.268067,E,1,11,0.7,4.8,M,44.0,M,,*63
2097271B56F5_$GPGGA,104843.00,5706.742495,N,00835.268067,E,1,11,0.7,4.8,M,44.0,M,,*63
2097271B56F5_$GPGGA,104844.00,5706.742494,N,00835.268067,E,1,11,0.7,4.8,M,44.0,M,,*65
2097271B56F5_$GPGGA,104845.00,5706.742494,N,00835.268068,E,1,11,0.7,4.8,M,44.0,M,,*6B
2097271B56F5_$GPGGA,104846.00,5706.742495,N,00835.268069,E,1,11,0.7,4.8,M,44.0,M,,*68
2097271B56F5_$GPGGA,104847.00,5706.742494,N,00835.268069,E,1,11,0.7,4.8,M,44.0,M,,*68
2097271B56F5_$GPGGA,104848.00,5706.742494,N,00835.268071,E,1,11,0.7,4.8,M,44.0,M,,*6E
2097271B56F5_$GPGGA,104849.00,5706.742494,N,00835.268072,E,1,11,0.7,4.8,M,44.0,M,,*6C
2097271B56F5_$GPGGA,104850.00,5706.742493,N,00835.268074,E,1,11,0.7,4.8,M,44.0,M,,*65
2097271B56F5_$GPGGA,104851.00,5706.742492,N,00835.268078,E,1,11,0.7,4.8,M,44.0,M,,*69
2097271B56F5_$GPGGA,104852.00,5706.742491,N,00835.268080,E,1,11,0.7,4.8,M,44.0,M,,*6E
2097271B56F5_$GPGGA,104853.00,5706.742492,N,00835.268084,E,1,11,0.7,4.8,M,44.0,M,,*68
2097271B56F5_$GPGGA,104854.00,5706.742491,N,00835.268085,E,1,11,0.7,4.8,M,44.0,M,,*6D
2097271B56F5_$GPGGA,104855.00,5706.742491,N,00835.268087,E,1,11,0.7,4.8,M,44.0,M,,*6E
2097271B56F5_$GPGGA,104856.00,5706.742491,N,00835.268085,E,1,11,0.7,4.8,M,44.0,M,,*6F
2097271B56F5_$GPGGA,104857.00,5706.742490,N,00835.268084,E,1,11,0.7,4.8,M,44.0,M,,*6E
2097271B56F5_$GPGGA,104858.00,5706.742489,N,00835.268084,E,1,11,0.7,4.8,M,44.0,M,,*69
2097271B56F5_$GPGGA,104859.00,5706.742488,N,00835.268084,E,1,11,0.7,4.8,M,44.0,M,,*69
2097271B56F5_$GPGGA,104900.00,5706.742487,N,00835.268085,E,1,11,0.7,4.8,M,44.0,M,,*6A
2097271B56F5_$GPGGA,104901.00,5706.742486,N,00835.268087,E,1,11,0.7,4.8,M,44.0,M,,*68
2097271B56F5_$GPGGA,104902.00,5706.742486,N,00835.268088,E,1,11,0.7,4.8,M,44.0,M,,*64
2097271B56F5_$GPGGA,104903.00,5706.742486,N,00835.268089,E,1,11,0.7,4.8,M,44.0,M,,*64
2097271B56F5_$GPGGA,104904.00,5706.742486,N,00835.268090,E,1,11,0.7,4.8,M,44.0,M,,*6B
2097271B56F5_$GPGGA,104905.00,5706.742486,N,00835.268090,E,1,11,0.7,4.8,M,44.0,M,,*6A
2097271B56F5_$GPGGA,104906.00,5706.742486,N,00835.268090,E,1,11,0.7,4.8,M,44.0,M,,*69
2097271B56F5_$GPGGA,104907.00,5706.742487,N,00835.268090,E,1,11,0.7,4.8,M,44.0,M,,*69
2097271B56F5_$GPGGA,104908.00,5706.742487,N,00835.268090,E,1,11,0.7,4.8,M,44.0,M,,*66
2097271B56F5_$GPGGA,104909.00,5706.742487,N,00835.268091,E,1,11,0.7,4.8,M,44.0,M,,*66
2097271B56F5_$GPGGA,104910.00,5706.742486,N,00835.268092,E,1,11,0.7,4.8,M,44.0,M,,*6C
2097271B56F5_$GPGGA,104911.00,5706.742485,N,00835.268094,E,1,11,0.7,4.8,M,44.0,M,,*68
2097271B56F5_$GPGGA,104912.00,5706.742485,N,00835.268095,E,1,11,0.7,4.8,M,44.0,M,,*6A
2097271B56F5_$GPGGA,104913.00,5706.742485,N,00835.268097,E,1,11,0.7,4.8,M,44.0,M,,*69
2097271B56F5_$GPGGA,104914.00,5706.742485,N,00835.268097,E,1,11,0.7,4.8,M,44.0,M,,*6E
2097271B56F5_$GPGGA,104915.00,5706.742485,N,00835.268096,E,1,11,0.7,4.8,M,44.0,M,,*6E
2097271B56F5_$GPGGA,104916.00,5706.742485,N,00835.268094,E,1,11,0.7,4.8,M,44.0,M,,*6F
2097271B56F5_$GPGGA,104917.00,5706.742485,N,00835.268093,E,1,11,0.7,4.8,M,44.0,M,,*69
2097271B56F5_$GPGGA,104918.00,5706.742485,N,00835.268092,E,1,11,0.7,4.8,M,44.0,M,,*67
2097271B56F5_$GPGGA,104919.00,5706.742484,N,00835.268090,E,1,11,0.7,4.8,M,44.0,M,,*65
2097271B56F5_$GPGGA,104920.00,5706.742484,N,00835.268090,E,1,11,0.7,4.8,M,44.0,M,,*6F
2097271B56F5_$GPGGA,104921.00,5706.742485,N,00835.268091,E,1,11,0.7,4.8,M,44.0,M,,*6E
2097271B56F5_$GPGGA,104922.00,5706.742485,N,00835.268091,E,1,11,0.7,4.8,M,44.0,M,,*6D
2097271B56F5_$GPGGA,104923.00,5706.742486,N,00835.268090,E,1,11,0.7,4.8,M,44.0,M,,*6E
2097271B56F5_$GPGGA,104924.00,5706.742486,N,00835.268090,E,1,11,0.7,4.8,M,44.0,M,,*69
2097271B56F5_$GPGGA,104925.00,5706.742486,N,00835.268090,E,1,11,0.7,4.8,M,44.0,M,,*68
2097271B56F5_$GPGGA,104926.00,5706.742487,N,00835.268090,E,1,11,0.7,4.8,M,44.0,M,,*6A
2097271B56F5_$GPGGA,104927.00,5706.742486,N,00835.268088,E,1,11,0.7,4.8,M,44.0,M,,*63
2097271B56F5_$GPGGA,104928.00,5706.742487,N,00835.268088,E,1,11,0.7,4.8,M,44.0,M,,*6D
2097271B56F5_$GPGGA,104929.00,5706.742488,N,00835.268090,E,1,11,0.7,4.8,M,44.0,M,,*6A
2097271B56F5_$GPGGA,104930.00,5706.742489,N,00835.268092,E,1,11,0.7,4.8,M,44.0,M,,*61
2097271B56F5_$GPGGA,104931.00,5706.742490,N,00835.268095,E,1,11,0.7,4.8,M,44.0,M,,*6F
2097271B56F5_$GPGGA,104932.00,5706.742491,N,00835.268097,E,1,11,0.7,4.8,M,44.0,M,,*6F
2097271B56F5_$GPGGA,104933.00,5706.742493,N,00835.268098,E,1,11,0.7,4.8,M,44.0,M,,*63
2097271B56F5_$GPGGA,104934.00,5706.742494,N,00835.268098,E,1,11,0.7,4.9,M,44.0,M,,*62
2097271B56F5_$GPGGA,104935.00,5706.742494,N,00835.268098,E,1,11,0.7,4.9,M,44.0,M,,*63
2097271B56F5_$GPGGA,104936.00,5706.742494,N,00835.268097,E,1,11,0.7,4.9,M,44.0,M,,*6F
2097271B56F5_$GPGGA,104937.00,5706.742494,N,00835.268096,E,1,11,0.7,4.9,M,44.0,M,,*6F
2097271B56F5_$GPGGA,104938.00,5706.742493,N,00835.268095,E,1,11,0.7,4.9,M,44.0,M,,*64
2097271B56F5_$GPGGA,104939.00,5706.742494,N,00835.268097,E,1,11,0.7,4.9,M,44.0,M,,*60
2097271B56F5_$GPGGA,104940.00,5706.742494,N,00835.268100,E,1,11,0.7,4.9,M,44.0,M,,*61
2097271B56F5_$GPGGA,104941.00,5706.742493,N,00835.268101,E,1,11,0.7,4.9,M,44.0,M,,*66
2097271B56F5_$GPGGA,104942.00,5706.742493,N,00835.268101,E,1,11,0.7,4.9,M,44.0,M,,*65
2097271B56F5_$GPGGA,104943.00,5706.742493,N,00835.268103,E,1,11,0.7,4.9,M,44.0,M,,*66
2097271B56F5_$GPGGA,104944.00,5706.742492,N,00835.268104,E,1,11,0.7,4.8,M,44.0,M,,*66
2097271B56F5_$GPGGA,104945.00,5706.742492,N,00835.268104,E,1,11,0.7,4.9,M,44.0,M,,*66
2097271B56F5_$GPGGA,104946.00,5706.742492,N,00835.268105,E,1,11,0.7,4.9,M,44.0,M,,*64
2097271B56F5_$GPGGA,104947.00,5706.742492,N,00835.268105,E,1,11,0.7,4.9,M,44.0,M,,*65
2097271B56F5_$GPGGA,104948.00,5706.742493,N,00835.268106,E,1,11,0.7,4.9,M,44.0,M,,*68
2097271B56F5_$GPGGA,104949.00,5706.742493,N,00835.268106,E,1,11,0.7,4.9,M,44.0,M,,*69
2097271B56F5_$GPGGA,104950.00,5706.742492,N,00835.268104,E,1,11,0.7,4.9,M,44.0,M,,*62
2097271B56F5_$GPGGA,104951.00,5706.742492,N,00835.268103,E,1,11,0.7,4.9,M,44.0,M,,*64
2097271B56F5_$GPGGA,104952.00,5706.742491,N,00835.268101,E,1,11,0.7,4.9,M,44.0,M,,*66
2097271B56F5_$GPGGA,104953.00,5706.742491,N,00835.268099,E,1,11,0.7,4.9,M,44.0,M,,*67
2097271B56F5_$GPGGA,104954.00,5706.742490,N,00835.268099,E,1,11,0.7,4.9,M,44.0,M,,*61
2097271B56F5_$GPGGA,104955.00,5706.742496,N,00835.268097,E,1,12,0.6,4.9,M,44.0,M,,*6A
2097271B56F5_$GPGGA,104956.00,5706.742498,N,00835.268096,E,1,12,0.6,4.9,M,44.0,M,,*66
2097271B56F5_$GPGGA,104957.00,5706.742499,N,00835.268094,E,1,12,0.6,4.9,M,44.0,M,,*64
2097271B56F5_$GPGGA,104958.00,5706.742498,N,00835.268092,E,1,12,0.6,4.9,M,44.0,M,,*6C
2097271B56F5_$GPGGA,104959.00,5706.742497,N,00835.268091,E,1,12,0.6,4.9,M,44.0,M,,*61
2097271B56F5_$GPGGA,105000.00,5706.742496,N,00835.268090,E,1,12,0.6,4.9,M,44.0,M,,*65
2097271B56F5_$GPGGA,105001.00,5706.742495,N,00835.268089,E,1,12,0.6,4.9,M,44.0,M,,*6F
2097271B56F5_$GPGGA,105002.00,5706.742495,N,00835.268089,E,1,12,0.6,4.9,M,44.0,M,,*6C
2097271B56F5_$GPGGA,105003.00,5706.742495,N,00835.268090,E,1,12,0.6,4.9,M,44.0,M,,*65
2097271B56F5_$GPGGA,105004.00,5706.742494,N,00835.268088,E,1,12,0.6,4.9,M,44.0,M,,*6A
2097271B56F5_$GPGGA,105005.00,5706.742494,N,00835.268086,E,1,12,0.6,4.9,M,44.0,M,,*65
2097271B56F5_$GPGGA,105006.00,5706.742493,N,00835.268083,E,1,12,0.6,4.9,M,44.0,M,,*64
2097271B56F5_$GPGGA,105007.00,5706.742493,N,00835.268083,E,1,11,0.7,4.9,M,44.0,M,,*67
2097271B56F5_$GPGGA,105008.00,5706.742494,N,00835.268083,E,1,11,0.7,4.9,M,44.0,M,,*6F
2097271B56F5_$GPGGA,105009.00,5706.742494,N,00835.268082,E,1,11,0.7,4.9,M,44.0,M,,*6F
2097271B56F5_$GPGGA,105010.00,5706.742493,N,00835.268081,E,1,11,0.7,4.9,M,44.0,M,,*63
2097271B56F5_$GPGGA,105011.00,5706.742492,N,00835.268082,E,1,11,0.7,4.9,M,44.0,M,,*60
2097271B56F5_$GPGGA,105012.00,5706.742493,N,00835.268083,E,1,11,0.7,4.9,M,44.0,M,,*63
2097271B56F5_$GPGGA,105013.00,5706.742492,N,00835.268084,E,1,11,0.7,4.9,M,44.0,M,,*64
2097271B56F5_$GPGGA,105014.00,5706.742492,N,00835.268083,E,1,11,0.7,4.9,M,44.0,M,,*64
2097271B56F5_$GPGGA,105015.00,5706.742490,N,00835.268082,E,1,11,0.7,4.9,M,44.0,M,,*66
2097271B56F5_$GPGGA,105016.00,5706.742490,N,00835.268082,E,1,11,0.7,4.9,M,44.0,M,,*65
2097271B56F5_$GPGGA,105017.00,5706.742489,N,00835.268083,E,1,11,0.7,4.9,M,44.0,M,,*6D
2097271B56F5_$GPGGA,105018.00,5706.742492,N,00835.268084,E,1,12,0.6,5.0,M,44.0,M,,*65
2097271B56F5_$GPGGA,105019.00,5706.742493,N,00835.268085,E,1,12,0.6,5.0,M,44.0,M,,*64
2097271B56F5_$GPGGA,105020.00,5706.742505,N,00835.268084,E,1,12,0.6,5.0,M,44.0,M,,*61
2097271B56F5_$GPGGA,105021.00,5706.742511,N,00835.268083,E,1,12,0.6,5.0,M,44.0,M,,*62
2097271B56F5_$GPGGA,105022.00,5706.742513,N,00835.268083,E,1,12,0.6,5.0,M,44.0,M,,*63
2097271B56F5_$GPGGA,105023.00,5706.742514,N,00835.268083,E,1,12,0.6,5.0,M,44.0,M,,*65
2097271B56F5_$GPGGA,105024.00,5706.742521,N,00835.268083,E,1,12,0.6,5.1,M,44.0,M,,*65
2097271B56F5_$GPGGA,105025.00,5706.742524,N,00835.268083,E,1,12,0.6,5.1,M,44.0,M,,*61
2097271B56F5_$GPGGA,105026.00,5706.742525,N,00835.268083,E,1,12,0.6,5.1,M,44.0,M,,*63
2097271B56F5_$GPGGA,105027.00,5706.742526,N,00835.268085,E,1,12,0.6,5.1,M,44.0,M,,*67
2097271B56F5_$GPGGA,105028.00,5706.742526,N,00835.268086,E,1,12,0.6,5.1,M,44.0,M,,*6B
2097271B56F5_$GPGGA,105029.00,5706.742524,N,00835.268087,E,1,12,0.6,5.1,M,44.0,M,,*69
2097271B56F5_$GPGGA,105030.00,5706.742524,N,00835.268088,E,1,12,0.6,5.1,M,44.0,M,,*6E
2097271B56F5_$GPGGA,105031.00,5706.742525,N,00835.268087,E,1,12,0.6,5.1,M,44.0,M,,*61
2097271B56F5_$GPGGA,105032.00,5706.742525,N,00835.268088,E,1,12,0.6,5.1,M,44.0,M,,*6D
2097271B56F5_$GPGGA,105033.00,5706.742524,N,00835.268087,E,1,12,0.6,5.1,M,44.0,M,,*62
2097271B56F5_$GPGGA,105034.00,5706.742524,N,00835.268086,E,1,12,0.6,5.1,M,44.0,M,,*64
2097271B56F5_$GPGGA,105035.00,5706.742524,N,00835.268085,E,1,11,0.7,5.1,M,44.0,M,,*64
2097271B56F5_$GPGGA,105036.00,5706.742524,N,00835.268086,E,1,11,0.7,5.1,M,44.0,M,,*64
2097271B56F5_$GPGGA,105037.00,5706.742524,N,00835.268086,E,1,11,0.7,5.1,M,44.0,M,,*65
2097271B56F5_$GPGGA,105038.00,5706.742523,N,00835.268087,E,1,11,0.7,5.1,M,44.0,M,,*6C
2097271B56F5_$GPGGA,105039.00,5706.742522,N,00835.268087,E,1,11,0.7,5.1,M,44.0,M,,*6C
2097271B56F5_$GPGGA,105040.00,5706.742521,N,00835.268088,E,1,11,0.7,5.1,M,44.0,M,,*6E
2097271B56F5_$GPGGA,105041.00,5706.742521,N,00835.268091,E,1,11,0.7,5.1,M,44.0,M,,*67
2097271B56F5_$GPGGA,105042.00,5706.742522,N,00835.268094,E,1,11,0.7,5.1,M,44.0,M,,*62
2097271B56F5_$GPGGA,105043.00,5706.742522,N,00835.268096,E,1,11,0.7,5.1,M,44.0,M,,*61
2097271B56F5_$GPGGA,105044.00,5706.742522,N,00835.268098,E,1,11,0.7,5.1,M,44.0,M,,*68
2097271B56F5_$GPGGA,105045.00,5706.742522,N,00835.268100,E,1,11,0.7,5.1,M,44.0,M,,*69
2097271B56F5_$GPGGA,105046.00,5706.742522,N,00835.268102,E,1,11,0.7,5.1,M,44.0,M,,*68
2097271B56F5_$GPGGA,105047.00,5706.742523,N,00835.268103,E,1,11,0.7,5.1,M,44.0,M,,*69
2097271B56F5_$GPGGA,105048.00,5706.742523,N,00835.268102,E,1,11,0.7,5.1,M,44.0,M,,*67
2097271B56F5_$GPGGA,105049.00,5706.742524,N,00835.268103,E,1,11,0.7,5.1,M,44.0,M,,*60
2097271B56F5_$GPGGA,105050.00,5706.742524,N,00835.268104,E,1,11,0.7,5.1,M,44.0,M,,*6F
2097271B56F5_$GPGGA,105051.00,5706.742524,N,00835.268105,E,1,11,0.7,5.1,M,44.0,M,,*6F
2097271B56F5_$GPGGA,105052.00,5706.742525,N,00835.268106,E,1,11,0.7,5.1,M,44.0,M,,*6E
2097271B56F5_$GPGGA,105053.00,5706.742524,N,00835.268107,E,1,12,0.6,5.1,M,44.0,M,,*6D
2097271B56F5_$GPGGA,105054.00,5706.742523,N,00835.268106,E,1,12,0.6,5.1,M,44.0,M,,*6C
2097271B56F5_$GPGGA,105055.00,5706.742522,N,00835.268106,E,1,12,0.6,5.1,M,44.0,M,,*6C
2097271B56F5_$GPGGA,105056.00,5706.742523,N,00835.268106,E,1,12,0.6,5.1,M,44.0,M,,*6E
2097271B56F5_$GPGGA,105057.00,5706.742524,N,00835.268106,E,1,12,0.6,5.1,M,44.0,M,,*68
2097271B56F5_$GPGGA,105058.00,5706.742523,N,00835.268106,E,1,12,0.6,5.1,M,44.0,M,,*60
2097271B56F5_$GPGGA,105059.00,5706.742523,N,00835.268107,E,1,11,0.7,5.1,M,44.0,M,,*62
2097271B56F5_$GPGGA,105100.00,5706.742522,N,00835.268108,E,1,11,0.7,5.1,M,44.0,M,,*61
2097271B56F5_$GPGGA,105101.00,5706.742522,N,00835.268108,E,1,11,0.7,5.1,M,44.0,M,,*60
2097271B56F5_$GPGGA,105102.00,5706.742522,N,00835.268108,E,1,11,0.7,5.1,M,44.0,M,,*63
2097271B56F5_$GPGGA,105103.00,5706.742522,N,00835.268108,E,1,11,0.7,5.1,M,44.0,M,,*62
2097271B56F5_$GPGGA,105104.00,5706.742522,N,00835.268110,E,1,11,0.7,5.1,M,44.0,M,,*6C
2097271B56F5_$GPGGA,105105.00,5706.742520,N,00835.268111,E,1,11,0.7,5.1,M,44.0,M,,*6E
2097271B56F5_$GPGGA,105106.00,5706.742519,N,00835.268112,E,1,11,0.7,5.1,M,44.0,M,,*64
2097271B56F5_$GPGGA,105107.00,5706.742518,N,00835.268113,E,1,11,0.7,5.1,M,44.0,M,,*65
2097271B56F5_$GPGGA,105108.00,5706.742517,N,00835.268113,E,1,11,0.7,5.1,M,44.0,M,,*65
2097271B56F5_$GPGGA,105109.00,5706.742517,N,00835.268112,E,1,11,0.7,5.1,M,44.0,M,,*65
2097271B56F5_$GPGGA,105110.00,5706.742517,N,00835.268111,E,1,11,0.7,5.1,M,44.0,M,,*6E
2097271B56F5_$GPGGA,105111.00,5706.742515,N,00835.268109,E,1,11,0.7,5.1,M,44.0,M,,*64
2097271B56F5_$GPGGA,105112.00,5706.742515,N,00835.268109,E,1,11,0.7,5.1,M,44.0,M,,*67
2097271B56F5_$GPGGA,105113.00,5706.742515,N,00835.268109,E,1,12,0.6,5.1,M,44.0,M,,*64
2097271B56F5_$GPGGA,105114.00,5706.742515,N,00835.268108,E,1,12,0.6,5.1,M,44.0,M,,*62
2097271B56F5_$GPGGA,105115.00,5706.742516,N,00835.268107,E,1,12,0.6,5.1,M,44.0,M,,*6F
2097271B56F5_$GPGGA,105116.00,5706.742517,N,00835.268105,E,1,12,0.6,5.1,M,44.0,M,,*6F
2097271B56F5_$GPGGA,105117.00,5706.742517,N,00835.268104,E,1,12,0.6,5.1,M,44.0,M,,*6F
2097271B56F5_$GPGGA,105118.00,5706.742518,N,00835.268103,E,1,12,0.6,5.1,M,44.0,M,,*68
2097271B56F5_$GPGGA,105119.00,5706.742519,N,00835.268102,E,1,12,0.6,5.1,M,44.0,M,,*69
2097271B56F5_$GPGGA,105120.00,5706.742518,N,00835.268103,E,1,12,0.6,5.1,M,44.0,M,,*63
2097271B56F5_$GPGGA,105121.00,5706.742519,N,00835.268104,E,1,12,0.6,5.1,M,44.0,M,,*64
2097271B56F5_$GPGGA,105122.00,5706.742519,N,00835.268103,E,1,12,0.6,5.2,M,44.0,M,,*63
2097271B56F5_$GPGGA,105123.00,5706.742520,N,00835.268103,E,1,12,0.6,5.2,M,44.0,M,,*68
2097271B56F5_$GPGGA,105124.00,5706.742522,N,00835.268102,E,1,12,0.6,5.2,M,44.0,M,,*6C
                                                                                                                                                                                                                                                                                                                                                                                                                                                                                                                                                                                                                                                                                                                                                                                                                                                                                                                                                                                                                                                                                                                                                                                                                                                                                                                                                                                                                                                                                                                                                                                                                                                                                                                                                                                                                                                                                                                                                                                          